     3.01           OBSERVATION DATA    G                   RINEX VERSION / TYPE
teqc  2009Mar23                         20150904 10:35:58UTCPGM / RUN BY / DATE 
gfzrnx-1.10-7329    FILE CONVERSION     20181204 072820 UTC COMMENT             
MSXP|IAx86-PII|bcc32 5.0|MSWin95->XP|486/DX+                COMMENT             
BIT 2 OF LLI FLAGS DATA COLLECTED UNDER A/S CONDITION       COMMENT             
-Unknown-                                                   MARKER NAME         
-Unknown-           -Unknown-                               OBSERVER / AGENCY   
2815658             LEICA               5.61                REC # / TYPE / VERS 
                    LEIGS14         NONE                    ANT # / TYPE        
 -2266975.2106  5006703.0569  3225639.2324                  APPROX POSITION XYZ 
        2.0000        0.0000        0.0000                  ANTENNA: DELTA H/E/N
     1     1                                                WAVELENGTH FACT L1/2
DefaultJobName                                              COMMENT             
DefaultUserDiscription                                      COMMENT             
Project creator:                                            COMMENT             
 SNR is mapped to RINEX snr flag value [0-9]                COMMENT             
  L1 & L2: min(max(int(snr_dBHz/6), 0), 9)                  COMMENT             
                                                            COMMENT             
*********************************************************** COMMENT             
*                 WARNING - FORMAT CONVERSION             * COMMENT             
* ------------------------------------------------------- * COMMENT             
*  The data values: observation, loss of lock (LLI) and   * COMMENT             
*  signal strength (SSI) indicators are left as they are. * COMMENT             
*    The LLI meaning differs between versions 2 and 3     * COMMENT             
*    and the Interpretation of bit 1 and 2 has to be      * COMMENT             
*                   used with caution !!!                 * COMMENT             
*********************************************************** COMMENT             
                                                            COMMENT             
RINEX 2 -> 3 TYPE CONVERSION DETAILS:                       COMMENT             
-------------------------------------                       COMMENT             
   G C1  -> C1C                                             COMMENT             
   G P2  -> C2W                                             COMMENT             
-------------------------------------                       COMMENT             
                                                            COMMENT             
G    6 C1C L1  L2  C2W S1  S2                               SYS / # / OBS TYPES 
    13                                                      # OF SATELLITES     
   G02   275   275   275   275   275   275                  PRN / # OF OBS      
   G03    14    14    14    14    14    14                  PRN / # OF OBS      
   G05   275   275   275   275   275   275                  PRN / # OF OBS      
   G06   275   275   275   275   275   275                  PRN / # OF OBS      
   G09   275   275   275   275   275   275                  PRN / # OF OBS      
   G12   275   275   275   275   275   275                  PRN / # OF OBS      
   G13   112   112   112   112   112   112                  PRN / # OF OBS      
   G17   275   275   275   275   275   275                  PRN / # OF OBS      
   G20    82    80    80    80    82    80                  PRN / # OF OBS      
   G23   152   152   151   151   152   151                  PRN / # OF OBS      
   G25   189   189   188   188   189   188                  PRN / # OF OBS      
   G28    73    73    73    73    73    73                  PRN / # OF OBS      
   G29    39    39    38    38    39    38                  PRN / # OF OBS      
    30.000                                                  INTERVAL            
  2015     8    26     7    36    0.0000000     GPS         TIME OF FIRST OBS   
  2015     8    26     9    53    0.0000000     GPS         TIME OF LAST OBS    
                                                            END OF HEADER      
> 2015 08 26 07 36 00.0000000  0  8
G02  22509027.600   118285739.970 8  92170682.74246  22509022.520          49.250          41.400
G03  24963176.720   131182377.217 6 102220029.82246  24963175.740          41.000          37.050
G05  23993552.500   126086968.020 7  98249611.97446  23993560.420          43.100          38.650
G06  20904852.360   109855739.545 8  85601874.50747  20904852.160          50.850          45.750
G09  23131004.020   121554245.377 7  94717595.49346  23131004.800          45.700          37.250
G12  23344121.140   122674183.525 7  95590263.49946  23344118.500          45.200          36.950
G17  20818826.880   109403671.595 8  85249598.42047  20818823.100          51.050          45.250
G23  24384205.820   128139868.485 7  99849228.58145  24384203.600          44.400          34.500
> 2015 08 26 07 36 30.0000000  0  9
G02  22500714.620   118242054.818 8  92136642.36246  22500709.720          49.300          41.550
G03  24982989.840   131286495.576 6 102301160.93545  24982989.040          38.800          35.450
G05  23973215.120   125980094.666 7  98166334.45146  23973222.040          43.150          40.400
G06  20904303.300   109852854.512 8  85599626.41647  20904303.240          50.800          45.700
G09  23121866.660   121506229.708 7  94680180.74646  23121867.620          44.750          39.800
G12  23330860.140   122604495.793 7  95535961.34646  23330858.140          44.600          37.200
G17  20821564.200   109418056.028 8  85260807.03047  20821560.520          50.800          45.800
G23  24384897.020   128143503.357 7  99852060.97345  24384894.820          44.350          33.200
G28  23180423.880   121813943.680 7  94919961.10646  23180426.380          43.550          37.450
> 2015 08 26 07 37 00.0000000  0  9
G02  22492371.960   118198213.830 8  92102480.58546  22492367.100          48.750          41.700
G03  25002768.320   131390432.132 6 102382150.37744  25002767.460          36.200          29.700
G05  23952861.820   125873137.350 7  98082991.53146  23952867.980          44.150          38.000
G06  20903739.800   109849893.318 8  85597318.99247  20903739.740          50.700          45.650
G09  23112750.280   121458324.355 7  94642851.97546  23112751.500          46.100          38.550
G12  23317636.300   122535004.376 7  95481812.18846  23317634.900          44.150          38.800
G17  20824325.400   109432566.276 8  85272113.67447  20824321.860          50.700          45.450
G23  24385626.740   128147339.173 7  99855049.98145  24385624.460          43.700          33.150
G28  23200213.600   121917937.440 7  95000994.75445  23200216.140          44.250          35.850
> 2015 08 26 07 37 30.0000000  0  9
G02  22484048.900   118154476.031 8  92068399.21747  22484044.060          49.250          42.100
G03  25022560.860   131494446.134 6 102463186.61344  25022557.720          36.250          28.000
G05  23932542.280   125766357.707 7  97999787.06446  23932547.800          45.550          38.500
G06  20903211.040   109847114.663 8  85595153.82247  20903210.980          50.950          45.950
G09  23103705.000   121410791.374 7  94605813.36946  23103706.260          46.400          39.350
G12  23304499.520   122465970.719 7  95428019.74946  23304498.420          43.600          39.300
G17  20827160.020   109447462.681 8  85283721.24147  20827156.620          50.800          45.800
G23  24386444.320   128151636.170 7  99858398.33445  24386442.060          45.400          31.200
G28  23220032.120   122022082.222 7  95082146.08845  23220034.660          45.350          33.900
> 2015 08 26 07 38 00.0000000  0  9
G02  22475746.420   118110846.314 8  92034402.07946  22475741.580          48.850          41.500
G03  25042368.200   131598536.813 5 102544303.33144  25042364.120          35.950          28.650
G05  23912257.960   125659763.448 7  97916727.04346  23912262.940          46.350          38.750
G06  20902717.980   109844523.489 8  85593134.74247  20902717.920          50.750          45.950
G09  23094732.220   121363638.932 7  94569071.29846  23094733.440          45.800          39.800
G12  23291451.280   122397402.904 7  95374590.34146  23291450.480          43.350          39.650
G17  20830069.480   109462752.057 8  85295635.01047  20830066.160          50.650          45.600
G23  24387350.980   128156400.583 7  99862110.88645  24387348.580          44.800          33.550
G28  23239880.000   122126380.821 7  95163417.28545  23239882.420          45.800          34.400
> 2015 08 26 07 38 30.0000000  0  9
G02  22467462.080   118067312.079 8  92000479.33346  22467457.220          48.600          41.500
G03  25062187.520   131702691.750 6 102625463.07844  25062183.960          38.700          26.300
G05  23892006.940   125553344.434 7  97833803.55446  23892011.540          46.700          37.200
G06  20902258.160   109842106.906 8  85591251.70247  20902258.020          50.750          45.800
G09  23085830.000   121316857.418 7  94532618.26746  23085831.160          44.850          41.300
G12  23278489.760   122329290.849 7  95321516.06646  23278489.240          44.800          39.800
G17  20833051.600   109478423.140 8  85307846.21947  20833048.260          50.650          45.400
G23  24388344.420   128161620.969 7  99866178.76545  24388341.860          44.050          33.500
G28  23259754.220   122230817.919 7  95244796.39245  23259756.620          45.950          34.100
> 2015 08 26 07 39 00.0000000  0  9
G02  22459194.780   118023867.595 8  91966626.53746  22459189.920          48.100          40.650
G03  25082017.820   131806903.315 6 102706666.91745  25082015.600          39.900          33.850
G05  23871788.660   125447097.591 7  97751014.20946  23871793.000          45.700          39.900
G06  20901830.420   109839859.004 8  85589500.10347  20901830.220          50.600          46.100
G09  23076997.800   121270444.241 7  94496452.22846  23076998.980          45.700          41.200
G12  23265614.540   122261631.676 7  95268794.68646  23265614.040          44.200          38.800
G17  20836105.520   109494471.661 8  85320351.53847  20836102.200          50.650          45.800
G23  24389423.660   128167292.437 7  99870598.12945  24389421.040          44.000          33.000
G28  23279653.180   122335385.400 7  95326277.10245  23279655.660          45.800          34.450
> 2015 08 26 07 39 30.0000000  0  9
G02  22450946.400   117980522.399 7  91932851.09446  22450941.540          47.900          41.250
G03  25101860.620   131911179.512 7 102787921.11346  25101859.380          42.050          36.400
G05  23851605.420   125341035.131 7  97668368.54846  23851609.600          45.900          38.650
G06  20901436.580   109837789.311 8  85587887.35947  20901436.360          50.700          46.100
G09  23068238.120   121224412.051 7  94460583.06946  23068239.300          46.800          39.900
G12  23252827.880   122194437.540 7  95216435.63946  23252827.300          44.100          40.100
G17  20839233.440   109510908.921 8  85333159.76747  20839230.120          50.750          45.700
G23  24390590.840   128173425.923 7  99875377.51645  24390588.060          45.100          32.700
G28  23299578.320   122440090.534 7  95407865.05745  23299580.880          44.050          34.950
> 2015 08 26 07 40 00.0000000  0  9
G02  22442713.900   117937260.882 8  91899140.85646  22442709.080          48.400          41.500
G03  25121712.580   132015503.180 6 102869212.31045  25121712.040          41.150          35.000
G05  23831454.740   125235144.183 7  97585856.55746  23831458.840          44.950          37.500
G06  20901073.660   109835882.151 8  85586401.27547  20901073.420          50.700          45.550
G09  23059548.600   121178748.460 7  94425001.12846  23059549.760          47.050          38.900
G12  23240127.260   122127695.668 7  95164429.00446  23240126.620          44.900          37.150
G17  20842432.680   109527720.985 8  85346260.05747  20842429.380          50.850          45.450
G23  24391843.280   128180007.166 7  99880505.78844  24391840.320          45.600          29.800
G28  23319526.260   122544915.669 7  95489546.49145  23319528.940          44.000          35.050
> 2015 08 26 07 40 30.0000000  0  9
G02  22434498.020   117894086.459 8  91865498.50646  22434493.220          48.450          41.850
G03  25141574.020   132119875.752 6 102950541.56045  25141574.020          40.500          35.450
G05  23811337.760   125129430.311 7  97503482.50045  23811341.760          43.600          35.250
G06  20900742.200   109834140.482 8  85585044.15347  20900741.940          50.750          46.150
G09  23050930.420   121133459.576 7  94389711.16846  23050931.500          46.700          41.100
G12  23227513.820   122061411.714 7  95112779.19246  23227513.040          45.650          38.900
G17  20845704.120   109544912.434 8  85359655.96547  20845700.840          50.650          45.750
G23  24393181.660   128187040.062 7  99885985.99145  24393178.520          45.550          34.750
G28  23339497.120   122649861.368 7  95571321.87845  23339499.940          43.300          33.550
> 2015 08 26 07 41 00.0000000  0  9
G02  22426300.380   117851007.878 8  91831930.82146  22426295.600          48.400          41.500
G03  25161446.120   132224304.171 6 103031914.34445  25161446.500          38.450          35.350
G05  23791256.620   125023905.063 7  97421255.45245  23791260.520          42.950          35.800
G06  20900443.900   109832572.981 8  85583822.74247  20900443.640          50.750          46.150
G09  23042385.800   121088557.295 7  94354722.43746  23042386.860          46.350          40.200
G12  23214989.760   121995597.332 7  95061495.27346  23214988.840          45.750          38.000
G17  20849049.720   109562493.602 8  85373355.55647  20849046.440          50.600          45.350
G23  24394607.780   128194534.231 7  99891825.63845  24394604.520          45.400          32.650
G28  23359492.180   122754934.089 7  95653196.20145  23359495.120          42.550          35.400
> 2015 08 26 07 41 30.0000000  0  9
G02  22418119.860   117808019.191 8  91798433.20546  22418115.080          48.700          41.100
G03  25181327.440   132328780.803 6 103113324.65345  25181328.160          36.200          34.250
G05  23771210.640   124918564.971 6  97339172.68346  23771214.520          41.550          36.250
G06  20900177.580   109831173.513 8  85582732.25347  20900177.340          50.850          46.100
G09  23033914.160   121044038.634 7  94320032.62746  23033915.220          46.000          40.350
G12  23202554.440   121930249.321 7  95010574.79046  23202553.360          46.200          38.650
G17  20852468.620   109580459.988 8  85387355.31647  20852465.360          50.650          45.750
G23  24396120.800   128202485.102 7  99898021.16345  24396117.420          44.850          33.900
G28  23379509.800   122860125.312 7  95735162.83245  23379512.840          42.400          33.100
> 2015 08 26 07 42 00.0000000  0  9
G02  22409955.640   117765116.272 8  91765002.41847  22409950.880          48.000          42.250
G03  25201216.880   132433299.899 6 103194768.02645  25201217.880          37.000          32.250
G05  23751199.580   124813408.863 6  97257233.27445  23751203.600          41.700          34.650
G06  20899942.420   109829937.852 8  85581769.42347  20899942.200          50.750          46.150
G09  23025515.300   120999902.516 7  94285640.93046  23025516.340          45.000          40.150
G12  23190207.600   121865366.113 7  94960016.47646  23190206.360          45.600          38.600
G17  20855960.280   109598808.711 8  85401653.01047  20855957.020          50.600          46.150
G23  24397720.100   128210889.509 7  99904570.10145  24397716.640          45.100          34.450
G28  23399548.780   122965428.624 7  95817216.81045  23399551.880          43.000          34.050
> 2015 08 26 07 42 30.0000000  0  9
G02  22401807.740   117722299.139 8  91731638.48046  22401803.020          48.400          41.600
G03  25221114.020   132537859.760 6 103276243.28445  25221115.240          38.350          33.550
G05  23731224.080   124708439.366 7  97175439.22645  23731228.260          42.800          35.350
G06  20899738.460   109828866.066 8  85580934.27347  20899738.240          50.700          46.500
G09  23017189.800   120956152.152 7  94251549.80346  23017190.880          45.900          39.050
G12  23177949.680   121800950.256 7  94909822.32546  23177948.320          46.050          38.450
G17  20859525.020   109617541.510 8  85416249.98047  20859521.800          50.600          45.650
G23  24399405.940   128219748.593 7  99911473.33045  24399402.400          43.750          30.700
G28  23419608.680   123070841.881 7  95899356.47945  23419611.800          43.300          34.050
> 2015 08 26 07 43 00.0000000  0  8
G02  22393675.820   117679565.877 7  91698339.90846  22393671.080          47.850          41.750
G05  23711284.220   124603656.884 7  97093790.88046  23711288.580          44.200          36.800
G06  20899565.280   109827955.986 8  85580225.12247  20899565.080          50.650          46.200
G09  23008937.900   120912788.482 7  94217760.00246  23008938.960          46.850          39.150
G12  23165780.800   121737002.341 7  94859992.81046  23165779.340          46.350          38.550
G17  20863162.820   109636658.204 8  85431146.07947  20863159.620          50.650          46.000
G23  24401178.060   128229061.230 7  99918729.97845  24401174.460          43.950          32.600
G28  23439688.700   123176360.626 7  95981578.30645  23439691.840          43.650          34.900
> 2015 08 26 07 43 30.0000000  0  8
G02  22385560.180   117636918.234 7  91665108.04646  22385555.440          47.900          41.850
G05  23691380.860   124499065.881 7  97012291.74846  23691385.340          45.700          37.050
G06  20899423.200   109827209.429 8  85579643.40247  20899423.000          50.750          46.050
G09  23000760.540   120869816.415 7  94184275.35246  23000761.520          47.350          39.350
G12  23153701.820   121673526.915 7  94810531.49446  23153700.280          45.550          38.950
G17  20866874.240   109656161.843 8  85446343.70747  20866871.060          50.600          45.800
G23  24403037.020   128238830.231 7  99926342.22145  24403033.380          44.550          32.900
G28  23459788.640   123281984.004 7  96063881.66045  23459791.840          44.600          34.600
> 2015 08 26 07 44 00.0000000  0  8
G02  22377461.100   117594357.642 7  91631944.00946  22377456.380          47.650          41.000
G05  23671514.720   124394670.074 7  96930944.72046  23671519.260          45.550          37.300
G06  20899312.400   109826627.253 8  85579189.77047  20899312.220          50.750          45.850
G09  22992658.480   120827239.844 7  94151098.86746  22992659.380          47.150          40.200
G12  23141713.480   121610527.674 7  94761441.17446  23141711.940          45.650          37.800
G17  20870659.800   109676055.016 8  85461844.85847  20870656.620          50.600          45.650
G23  24404983.240   128249057.652 7  99934311.66045  24404979.580          43.350          34.900
G28  23479908.300   123387711.093 7  96146265.79245  23479911.580          44.400          35.000
> 2015 08 26 07 44 30.0000000  0  8
G02  22369378.460   117551883.426 7  91598847.27346  22369373.740          47.200          40.800
G05  23651686.100   124290471.395 7  96849751.30246  23651690.640          45.750          37.250
G06  20899232.780   109826208.915 8  85578863.81147  20899232.600          50.600          45.850
G09  22984632.180   120785061.308 7  94118232.53346  22984633.020          46.400          38.900
G12  23129816.100   121548006.594 7  94712723.46946  23129814.560          44.200          39.350
G17  20874519.660   109696338.580 8  85477650.21347  20874516.480          50.650          45.750
G23  24407016.740   128259743.956 7  99942638.71645  24407013.040          43.100          34.250
G28  23500047.120   123493538.991 7  96228728.48146  23500050.520          43.850          36.400
> 2015 08 26 07 45 00.0000000  0  8
G02  22361312.200   117509495.354 7  91565817.67246  22361307.480          47.800          40.550
G05  23631895.540   124186472.535 7  96768713.58346  23631900.020          45.250          38.750
G06  20899184.300   109825954.217 8  85578665.37047  20899184.100          50.500          46.200
G09  22976682.160   120743283.661 7  94085678.55746  22976682.960          45.700          39.850
G12  23118010.120   121485966.141 7  94664380.29746  23118008.660          45.100          37.550
G17  20878454.040   109717013.732 8  85493760.69047  20878450.840          50.400          45.650
G23  24409137.700   128270889.681 7  99951323.71545  24409133.980          42.100          34.500
G28  23520204.640   123599465.225 7  96311267.78345  23520208.200          43.250          34.950
> 2015 08 26 07 45 30.0000000  0  8
G02  22353261.260   117467187.786 7  91532850.79946  22353256.560          47.900          40.750
G05  23612142.280   124082669.801 7  96687828.70946  23612146.660          45.550          37.800
G06  20899165.820   109825857.167 8  85578589.76547  20899165.640          50.450          45.850
G09  22968807.800   120701903.882 7  94053434.64346  22968808.580          45.550          39.600
G12  23106294.980   121424402.899 7  94616408.97046  23106293.540          46.400          36.900
G17  20882462.020   109738075.746 8  85510172.61847  20882458.840          50.400          45.700
G23  24411345.160   128282490.096 7  99960363.03445  24411341.440          42.650          34.550
G28  23540379.300   123705481.503 7  96393877.18845  23540383.060          42.900          35.550
> 2015 08 26 07 46 00.0000000  0  8
G02  22345225.880   117424961.899 8  91499947.55247  22345221.200          48.250          42.400
G05  23592427.080   123979067.100 7  96607099.67546  23592431.360          44.800          38.450
G06  20899177.520   109825918.727 8  85578637.74847  20899177.340          50.400          46.300
G09  22961009.920   120660925.991 7  94021503.89646  22961010.660          45.850          40.050
G12  23094671.380   121363320.600 7  94568812.38846  23094669.960          46.050          38.100
G17  20886544.160   109759527.473 8  85526888.21947  20886541.000          50.350          45.650
G23  24413639.480   128294547.026 6  99969758.06945  24413635.760          41.550          35.650
G28  23560570.760   123811586.221 6  96476555.54246  23560574.740          41.950          36.850
> 2015 08 26 07 46 30.0000000  0  8
G02  22337204.540   117382809.604 8  91467101.65147  22337199.860          48.700          42.200
G05  23572748.940   123875659.066 7  96526522.33346  23572753.120          44.400          38.700
G06  20899217.900   109826131.022 8  85578803.18747  20899217.740          50.550          45.950
G09  22953287.560   120620345.025 7  93989882.43246  22953288.280          46.350          39.950
G12  23083138.320   121302713.950 7  94521586.44146  23083136.840          46.150          36.700
G17  20890699.240   109781362.445 8  85543902.45847  20890696.080          50.550          46.100
G23  24416019.360   128307053.369 7  99979503.26745  24416015.640          42.950          34.550
G28  23580777.220   123917769.589 7  96559295.14946  23580781.440          42.750          37.650
> 2015 08 26 07 47 00.0000000  0  8
G02  22329200.460   117340748.022 8  91434326.41947  22329195.800          48.200          42.100
G05  23553111.540   123772465.117 7  96446111.81646  23553115.620          44.050          40.500
G06  20899290.180   109826510.922 8  85579099.21547  20899290.020          50.650          46.400
G09  22945644.540   120580180.857 7  93958585.72946  22945645.240          45.400          39.950
G12  23071699.380   121242602.067 7  94474746.05846  23071697.820          45.850          38.550
G17  20894930.720   109803598.907 8  85561229.53047  20894927.600          50.500          46.350
G23  24418488.100   128320026.790 6  99989612.47245  24418484.360          41.700          31.800
G28  23601001.480   124024046.136 7  96642107.29845  23601005.940          43.950          35.600
> 2015 08 26 07 47 30.0000000  0  8
G02  22321212.920   117298773.324 8  91401618.90046  22321208.260          48.650          41.950
G05  23533514.640   123669484.084 7  96365867.19546  23533518.660          42.750          39.000
G06  20899393.600   109827054.435 8  85579522.74247  20899393.460          50.600          46.050
G09  22938080.600   120540432.386 7  93927612.95646  22938081.280          45.400          39.600
G12  23060354.380   121182983.637 7  94428290.13046  23060352.780          46.000          37.400
G17  20899238.080   109826234.184 8  85578867.38647  20899234.980          50.500          45.250
G23  24421045.120   128333464.407 6 100000083.43945  24421041.360          41.000          33.650
G28  23621242.300   124130409.370 7  96724986.96445  23621246.980          43.600          34.750
> 2015 08 26 07 48 00.0000000  0  8
G02  22313236.840   117256858.864 8  91368958.33347  22313232.160          48.650          42.000
G05  23513953.700   123566692.022 7  96285769.85546  23513957.640          43.100          40.250
G06  20899523.080   109827734.970 8  85580053.05747  20899522.940          50.450          46.000
G09  22930591.240   120501075.962 7  93896945.67846  22930591.940          46.750          39.950
G12  23049098.640   121123834.450 7  94382199.90446  23049096.960          45.350          38.000
G17  20903616.520   109849242.986 8  85596796.30047  20903613.420          50.400          45.550
G23  24423685.600   128347340.426 6 100010895.94545  24423681.840          41.150          32.200
G28  23641494.120   124236830.341 7  96807911.63145  23641499.000          42.850          35.850
> 2015 08 26 07 48 30.0000000  0  8
G02  22305279.260   117215041.617 8  91336373.50946  22305274.580          48.400          41.550
G05  23494436.180   123464128.213 6  96205850.36846  23494440.060          41.550          39.500
G06  20899685.660   109828589.407 8  85580718.86147  20899685.520          50.550          46.150
G09  22923184.100   120462151.365 7  93866614.88346  22923184.760          45.450          40.800
G12  23037939.720   121065193.917 7  94336506.00446  23037937.960          46.000          38.850
G17  20908073.420   109872663.994 8  85615046.40747  20908070.320          50.400          45.300
G23  24426416.660   128361692.277 7 100022079.22245  24426412.880          42.800          31.700
G28  23661763.580   124343343.707 6  96890908.27845  23661768.600          41.650          33.700
> 2015 08 26 07 49 00.0000000  0  8
G02  22297336.680   117173303.185 8  91303850.11346  22297331.980          49.000          41.500
G05  23474959.060   123361776.678 6  96126096.28546  23474962.880          41.550          38.200
G06  20899877.760   109829598.994 8  85581505.57447  20899877.640          50.600          46.350
G09  22915856.080   120423642.718 7  93836608.21646  22915856.740          45.350          39.800
G12  23026874.500   121007045.877 7  94291195.87446  23026872.700          45.700          39.550
G17  20912605.400   109896479.546 8  85633603.95047  20912602.280          50.600          45.200
G23  24429234.920   128376502.294 7 100033619.48345  24429231.120          42.550          30.800
G28  23682046.580   124449928.136 6  96973960.23945  23682051.800          39.600          32.500
> 2015 08 26 07 49 30.0000000  0  8
G02  22289409.940   117131648.040 8  91271391.60547  22289405.220          48.550          42.250
G05  23455523.640   123259644.446 7  96046513.09246  23455527.420          42.650          39.750
G06  20900100.260   109830768.315 8  85582416.75247  20900100.140          50.800          46.350
G09  22908608.620   120385557.447 7  93806931.46446  22908609.260          45.100          39.550
G12  23015904.340   120949397.332 7  94246274.96646  23015902.500          43.600          38.800
G17  20917213.600   109920695.651 8  85652473.61847  20917210.460          50.350          45.800
G23  24432141.320   128391775.434 7 100045520.64145  24432137.420          42.350          32.850
G28  23702343.640   124556586.257 6  97057069.56645  23702349.060          38.850          30.800
> 2015 08 26 07 50 00.0000000  0  8
G02  22281498.460   117090073.058 8  91238995.56547  22281493.720          48.800          42.450
G05  23436129.740   123157730.322 7  95967099.83146  23436133.480          42.000          39.650
G06  20900352.500   109832093.867 8  85583449.66047  20900352.380          50.700          46.100
G09  22901441.600   120347894.915 7  93777584.10446  22901442.220          45.550          39.300
G12  23005028.900   120892246.903 7  94201742.22046  23005027.080          44.800          39.200
G17  20921897.600   109945310.208 8  85671653.78047  20921894.460          50.200          45.650
G23  24435135.260   128407508.890 7 100057780.54245  24435131.300          43.300          35.050
G28  23722653.580   124663312.322 6  97140231.85344  23722659.220          40.550          29.200
> 2015 08 26 07 50 30.0000000  0  8
G02  22273601.500   117048574.372 8  91206658.97747  22273596.740          48.750          42.450
G05  23416777.100   123056033.176 7  95887855.63546  23416780.860          43.250          39.000
G06  20900633.740   109833571.814 8  85584601.32547  20900633.600          50.550          45.900
G09  22894354.860   120310654.082 7  93748565.32846  22894355.440          46.200          39.800
G12  22994248.060   120835593.493 7  94157596.74946  22994246.240          44.900          40.200
G17  20926656.880   109970320.323 8  85691142.16247  20926653.740          50.300          46.150
G23  24438216.380   128423700.271 7 100070397.18745  24438212.440          44.200          34.150
G28  23742975.280   124770099.982 6  97223442.09745  23742981.100          41.100          31.550
> 2015 08 26 07 51 00.0000000  0  8
G02  22265719.020   117007151.775 8  91174381.66846  22265714.240          48.800          41.850
G05  23397466.200   122954555.325 7  95808782.32946  23397469.940          44.700          37.000
G06  20900943.920   109835201.821 8  85585871.47747  20900943.780          50.500          45.750
G09  22887348.820   120273837.406 7  93719877.07546  22887349.380          46.950          39.700
G12  22983562.200   120779439.093 7  94113840.10646  22983560.400          45.650          39.950
G17  20931491.640   109995727.040 8  85710939.59847  20931488.500          50.500          45.750
G23  24441384.680   128440349.490 7 100083370.56545  24441380.700          45.350          34.150
G28  23763308.300   124876946.940 6  97306698.51945  23763314.240          41.400          30.950
> 2015 08 26 07 51 30.0000000  0  8
G02  22257851.020   116965805.330 8  91142163.70146  22257846.240          48.900          41.550
G05  23378197.540   122853299.325 7  95729881.89046  23378201.240          46.450          36.000
G06  20901283.060   109836984.069 8  85587260.26047  20901282.900          50.500          46.100
G09  22880424.080   120237447.814 7  93691521.62546  22880424.580          46.500          39.850
G12  22972971.780   120723786.142 7  94070474.20746  22972969.960          45.750          38.950
G17  20936402.180   110021532.109 8  85731047.43447  20936399.040          50.300          45.300
G23  24444640.180   128457457.153 7 100096701.20146  24444636.200          44.500          36.400
G28  23783652.060   124983850.399 7  97389998.95645  23783658.160          42.200          32.750
> 2015 08 26 07 52 00.0000000  0  8
G02  22249998.780   116924541.698 8  91110010.27647  22249993.980          48.650          42.200
G05  23358972.840   122752274.324 7  95651161.44645  23358976.460          46.050          34.300
G06  20901652.400   109838925.074 8  85588772.74847  20901652.240          50.550          45.900
G09  22873582.380   120201494.575 7  93663506.18946  22873582.820          45.950          40.500
G12  22962478.440   120668643.336 7  94027505.81446  22962476.600          45.950          39.900
G17  20941389.940   110047742.976 8  85751471.48247  20941386.820          50.500          45.250
G23  24447984.280   128475030.612 7 100110394.84745  24447980.280          45.050          35.450
G28  23804007.500   125090814.941 7  97473346.90845  23804013.800          42.650          33.700
> 2015 08 26 07 52 30.0000000  0  8
G02  22242161.160   116883354.956 8  91077916.77346  22242156.320          48.350          41.500
G05  23339791.480   122651476.911 7  95572618.34145  23339795.000          46.300          34.750
G06  20902050.800   109841018.717 8  85590404.17247  20902050.620          50.500          45.700
G09  22866823.060   120165974.313 7  93635828.14346  22866823.460          46.000          40.950
G12  22952081.440   120614006.806 7  93984931.93546  22952079.580          45.750          38.600
G17  20946454.060   110074355.090 8  85772208.18647  20946450.960          50.500          45.350
G23  24451416.000   128493064.333 7 100124447.07845  24451411.980          45.700          34.300
G28  23824372.940   125197832.130 7  97556735.90845  23824379.460          43.750          34.100
> 2015 08 26 07 53 00.0000000  0  8
G02  22234337.840   116842243.400 8  91045881.83847  22234333.000          48.800          42.050
G05  23320653.460   122550907.093 7  95494252.54646  23320656.860          45.650          37.500
G06  20902477.900   109843263.229 8  85592153.17047  20902477.700          50.450          45.250
G09  22860146.320   120130887.958 7  93608488.18746  22860146.700          45.900          40.600
G12  22941780.880   120559877.134 7  93942753.00946  22941779.000          45.550          38.600
G17  20951594.420   110101367.775 8  85793257.01347  20951591.320          50.600          45.450
G23  24454935.080   128511557.220 7 100138857.12345  24454931.040          45.000          34.600
G28  23844747.640   125304897.624 7  97640162.47845  23844754.400          44.550          34.600
> 2015 08 26 07 53 30.0000000  0  8
G02  22226529.140   116801208.596 8  91013906.71347  22226524.280          48.900          42.200
G05  23301559.560   122450569.277 7  95416067.56246  23301562.800          45.700          37.200
G06  20902933.980   109845660.030 8  85594020.81747  20902933.780          50.400          46.000
G09  22853552.920   120096239.572 7  93581489.50046  22853553.280          46.100          40.700
G12  22931577.480   120506258.066 7  93900971.97846  22931575.580          45.050          40.400
G17  20956811.440   110128783.434 8  85814619.86047  20956808.340          50.250          45.950
G23  24458541.880   128530511.019 7 100153626.32745  24458537.800          45.300          33.950
G28  23865131.400   125412010.655 7  97723626.06945  23865138.420          44.250          34.350
> 2015 08 26 07 54 00.0000000  0  8
G02  22218734.940   116760250.001 8  90981990.98246  22218730.060          48.450          41.700
G05  23282510.140   122350465.297 7  95338064.79546  23282513.260          46.100          38.100
G06  20903418.920   109848208.598 8  85596006.73947  20903418.720          50.250          46.250
G09  22847043.280   120062031.325 7  93554833.77546  22847043.620          46.400          40.750
G12  22921471.520   120453151.079 7  93859589.92546  22921469.640          46.050          40.700
G17  20962105.320   110156602.901 8  85836297.35647  20962102.220          50.350          45.300
G23  24462236.380   128549925.890 7 100168754.83045  24462232.300          44.550          35.700
G28  23885523.700   125519168.400 7  97807124.47545  23885530.980          43.300          33.650
> 2015 08 26 07 54 30.0000000  0  8
G02  22210954.840   116719365.467 8  90950132.95347  22210949.940          48.200          42.050
G05  23263505.280   122250595.377 7  95260244.39546  23263508.300          46.250          38.850
G06  20903932.340   109850906.654 8  85598109.13747  20903932.120          50.500          45.950
G09  22840617.440   120028263.529 7  93528521.25346  22840617.780          46.450          41.000
G12  22911463.040   120400556.448 7  93818607.16146  22911461.140          47.000          40.150
G17  20967475.840   110184825.056 8  85858288.62847  20967472.740          50.300          45.450
G23  24466018.280   128569799.932 7 100184241.14245  24466014.180          43.850          34.700
G28  23905923.660   125626366.090 7  97890653.94045  23905931.200          43.100          35.500
> 2015 08 26 07 55 00.0000000  0  8
G02  22203188.880   116678555.306 8  90918332.86647  22203184.000          48.050          42.600
G05  23244545.420   122150961.809 7  95182608.17846  23244548.340          46.700          37.900
G06  20904474.200   109853754.264 8  85600328.06747  20904474.000          50.650          46.650
G09  22834275.920   119994938.853 7  93502554.04546  22834276.240          46.900          40.600
G12  22901552.480   120348476.162 7  93778025.14846  22901550.580          47.550          40.200
G17  20972923.180   110213450.931 8  85880594.49047  20972920.080          50.350          45.750
G23  24469887.660   128590133.637 6 100200085.61646  24469883.480          41.800          36.550
G28  23926330.860   125733601.652 7  97974212.90045  23926338.620          42.750          35.600
> 2015 08 26 07 55 30.0000000  0  8
G02  22195437.280   116637820.678 8  90886591.65547  22195432.420          48.200          42.450
G05  23225631.280   122051568.436 7  95105159.13446  23225634.100          45.950          37.600
G06  20905044.780   109856752.747 8  85602664.56747  20905044.580          50.600          46.550
G09  22828019.500   119962061.296 7  93476935.22146  22828019.780          46.400          41.300
G12  22891740.520   120296913.835 7  93737846.74146  22891738.540          47.100          40.150
G17  20978447.800   110242483.029 8  85903216.89647  20978444.720          50.250          45.750
G23  24473844.840   128610928.919 7 100216289.76046  24473840.640          43.000          37.350
G28  23946745.060   125840873.944 6  98057800.46345  23946753.060          41.800          35.050
> 2015 08 26 07 56 00.0000000  0  8
G02  22187699.740   116597159.933 8  90854908.01147  22187694.880          48.400          42.050
G05  23206763.100   121952416.606 7  95027898.29946  23206765.800          45.400          38.500
G06  20905643.800   109859900.600 8  85605117.45547  20905643.580          50.400          46.650
G09  22821848.340   119929631.850 7  93451665.57746  22821848.620          45.800          40.250
G12  22882027.160   120245869.747 7  93698072.16146  22882025.140          47.750          41.600
G17  20984049.720   110271921.199 8  85926155.71347  20984046.640          50.300          45.650
G23  24477889.720   128632184.836 7 100232852.77846  24477885.540          42.550          36.900
G28  23967165.560   125948179.270 6  98141413.76045  23967173.760          41.250          32.750
> 2015 08 26 07 56 30.0000000  0  8
G02  22179976.800   116556575.775 8  90823284.04746  22179971.920          48.650          41.300
G05  23187941.660   121853510.382 7  94950828.84346  23187944.240          45.100          36.550
G06  20906271.700   109863200.177 8  85607688.56247  20906271.480          50.500          45.700
G09  22815763.380   119897655.392 7  93426748.91546  22815763.660          46.400          40.200
G12  22872413.360   120195348.829 7  93658705.25746  22872411.300          47.400          41.150
G17  20989729.440   110301768.213 8  85949413.10947  20989726.360          50.250          45.650
G23  24482022.680   128653903.963 7 100249776.81245  24482018.540          42.550          35.650
G28  23987592.300   126055517.255 6  98225052.49545  23987600.700          38.900          31.800
> 2015 08 26 07 57 00.0000000  0  8
G02  22172267.840   116516065.137 8  90791717.37846  22172262.940          48.550          41.250
G05  23169166.860   121754849.280 7  94873950.36746  23169169.340          45.300          37.900
G06  20906927.860   109866648.379 8  85610375.49347  20906927.640          50.350          45.900
G09  22809764.520   119866131.386 7  93402184.81146  22809764.780          46.500          40.550
G12  22862898.880   120145349.734 7  93619744.94646  22862896.780          46.400          40.300
G17  20995486.620   110332022.330 8  85972987.73147  20995483.540          50.350          45.250
G23  24486243.260   128676083.597 7 100267059.70146  24486239.180          42.900          36.600
G28  24008024.260   126162882.688 6  98308712.58345  24008032.880          39.600          35.050
> 2015 08 26 07 57 30.0000000  0  8
G02  22164573.780   116475632.855 8  90760211.76546  22164568.860          48.550          41.600
G05  23150440.020   121656440.354 7  94797268.41446  23150442.420          44.400          40.500
G06  20907613.200   109870249.867 8  85613181.86047  20907612.980          50.400          46.050
G09  22803853.120   119835066.940 7  93377978.82146  22803853.360          46.700          40.350
G12  22853484.920   120095879.080 7  93581196.42346  22853482.800          45.450          39.350
G17  21001322.360   110362689.364 8  85996884.10747  21001319.320          50.300          45.600
G23  24490552.280   128698728.049 7 100284704.76345  24490548.300          42.900          35.350
G28  24028461.880   126270277.916 5  98392395.85345  24028470.780          34.900          33.600
> 2015 08 26 07 58 00.0000000  0  8
G02  22156891.480   116435262.327 8  90728754.25147  22156886.540          48.700          42.900
G05  23131758.460   121558269.163 7  94720771.66546  23131760.800          44.550          39.300
G06  20908324.520   109873987.953 8  85616094.66447  20908324.300          50.350          46.100
G09  22798026.480   119804447.882 7  93354119.85446  22798026.720          46.450          41.100
G12  22844168.660   120046922.024 7  93543048.09446  22844166.560          46.700          39.950
G17  21007233.740   110393753.681 8  86021090.03747  21007230.700          50.400          45.800
G23  24494946.900   128721821.975 7 100302700.00245  24494943.000          43.950          32.950
G28  24048901.580   126377684.065 6  98476087.60845  24048910.760          37.600          34.900
> 2015 08 26 07 58 30.0000000  0  8
G02  22149223.480   116394966.865 8  90697355.23947  22149218.520          48.800          42.250
G05  23113125.120   121460351.603 7  94644472.59846  23113127.420          43.650          39.150
G06  20909064.380   109877876.040 8  85619124.35547  20909064.180          50.400          45.800
G09  22792287.620   119774290.069 7  93330620.30246  22792287.860          46.150          41.050
G12  22834953.140   119998494.236 7  93505312.17946  22834951.020          46.050          39.400
G17  21013223.420   110425229.602 8  86045616.70647  21013220.400          50.400          45.000
G23  24499429.620   128745378.870 7 100321056.02844  24499425.760          43.550          28.950
G28  24069345.360   126485111.899 6  98559796.29245  24069354.840          39.600          32.600
> 2015 08 26 07 59 00.0000000  0  8
G02  22141568.980   116354742.362 8  90666011.50347  22141564.000          48.250          42.450
G05  23094539.660   121362685.792 7  94568369.72246  23094541.940          43.550          38.100
G06  20909832.020   109881910.039 8  85622267.75447  20909831.800          50.650          46.000
G09  22786636.220   119744591.795 7  93307478.81546  22786636.460          46.250          40.750
G12  22825837.860   119950593.458 7  93467986.94646  22825835.720          46.750          40.000
G17  21019290.840   110457114.093 8  86070461.74447  21019287.860          50.500          45.050
G23  24503999.540   128769394.253 7 100339769.37945  24503995.660          43.850          30.250
G28  24089792.100   126592554.977 6  98643516.78145  24089801.900          41.550          32.100
> 2015 08 26 07 59 30.0000000  0  8
G02  22133928.080   116314589.405 8  90634723.53047  22133923.100          48.600          42.300
G05  23076002.680   121265274.426 7  94492465.05346  23076004.920          43.750          40.050
G06  20910627.500   109886090.391 8  85625525.17747  20910627.280          50.600          45.650
G09  22781072.780   119715355.852 7  93284697.61646  22781072.980          46.500          39.900
G12  22816823.380   119903222.188 7  93431074.31746  22816821.220          47.200          39.850
G17  21025436.240   110489408.244 8  86095625.98847  21025433.260          50.500          44.300
G23  24508657.020   128793869.384 7 100358840.92445  24508653.120          43.600          30.250
G28  24110241.280   126700011.253 7  98727247.65645  24110251.400          42.650          30.150
> 2015 08 26 08 00 00.0000000  0  8
G02  22126300.960   116274508.809 8  90603491.93147  22126295.980          48.850          42.600
G05  23057514.760   121168120.878 7  94416761.28446  23057516.960          45.050          38.250
G06  20911450.960   109890417.671 8  85628897.09147  20911450.740          50.600          45.900
G09  22775597.880   119686585.237 7  93262278.99046  22775598.060          46.750          39.750
G12  22807910.160   119856383.043 7  93394576.32946  22807907.980          47.250          38.600
G17  21031659.900   110522113.635 8  86121110.68447  21031656.900          50.400          45.400
G23  24513402.100   128818804.961 7 100378271.28245  24513398.200          44.100          31.150
G28  24130692.660   126807479.072 7  98810987.54344  24130703.060          42.950          28.850
> 2015 08 26 08 00 30.0000000  0  8
G02  22118687.060   116234497.804 8  90572314.58447  22118682.080          48.350          42.700
G05  23039075.740   121071224.238 7  94341257.71246  23039077.840          44.100          39.800
G06  20912301.840   109894889.170 8  85632381.38147  20912301.640          50.400          46.000
G09  22770211.460   119658279.580 7  93240222.66046  22770211.620          46.700          39.900
G12  22799098.040   119810075.095 7  93358492.23646  22799095.840          47.300          39.350
G17  21037961.460   110555228.417 8  86146914.38647  21037958.460          50.150          45.250
G23  24518234.380   128844198.385 7 100398058.30745  24518230.500          42.000          33.250
G28  24151145.300   126914953.828 7  98894732.94144  24151155.940          42.750          25.850
> 2015 08 26 08 01 00.0000000  0  8
G02  22111087.080   116194559.834 8  90541194.13946  22111082.080          48.700          41.850
G05  23020686.660   120974590.019 7  94265958.58046  23020688.700          44.400          40.050
G06  20913180.820   109899508.312 8  85635980.73547  20913180.620          50.400          46.200
G09  22764914.580   119630444.556 7  93218533.10046  22764914.700          46.750          41.150
G12  22790387.980   119764303.252 7  93322825.87846  22790385.700          46.950          39.500
G17  21044341.760   110588757.106 8  86173040.61747  21044338.780          50.300          45.700
G23  24523154.380   128870053.186 7 100418204.91545  24523150.480          43.050          33.150
G28  24171599.400   127022436.149 7  98978484.21743  24171610.260          42.100          21.750
> 2015 08 26 08 01 30.0000000  0  8
G02  22103500.460   116154692.011 8  90510128.34247  22103495.440          48.650          42.350
G05  23002347.460   120878217.942 7  94190863.73346  23002349.440          44.600          39.400
G06  20914087.320   109904272.068 8  85639692.76647  20914087.120          50.300          46.200
G09  22759707.160   119603079.531 7  93197209.75246  22759707.240          46.300          41.100
G12  22781779.720   119719066.588 7  93287576.57446  22781777.380          46.000          41.050
G17  21050800.440   110622697.541 8  86199487.68247  21050797.460          50.250          45.750
G23  24528161.600   128896366.402 7 100438708.72445  24528157.660          42.800          32.250
G28  24192053.900   127129920.781 6  99062237.33144  24192065.040          41.050          26.450
> 2015 08 26 08 02 00.0000000  0  8
G02  22095927.080   116114893.693 8  90479116.70147  22095922.020          48.650          42.550
G05  22984058.320   120782108.900 7  94115973.83746  22984060.220          44.250          39.400
G06  20915021.200   109909179.724 8  85643516.92247  20915021.020          50.550          46.500
G09  22754589.460   119576186.012 7  93176253.80446  22754589.520          47.050          40.350
G12  22773273.480   119674366.108 7  93252745.07046  22773271.120          46.600          39.900
G17  21057337.580   110657050.362 8  86226256.09447  21057334.640          50.250          45.900
G23  24533255.960   128923137.523 7 100459569.34644  24533252.000          43.300          29.600
G28  24212508.240   127237404.765 6  99145990.00244  24212519.620          41.800          28.850
> 2015 08 26 08 02 30.0000000  0  8
G02  22088366.860   116075164.616 8  90448159.03047  22088361.760          49.200          42.600
G05  22965819.720   120686265.362 7  94041290.80846  22965821.560          44.350          39.900
G06  20915982.420   109914230.993 8  85647452.99247  20915982.220          50.600          46.350
G09  22749561.840   119549765.996 7  93155666.82946  22749561.900          46.850          41.600
G12  22764869.540   119630203.305 7  93218332.53146  22764867.200          46.050          40.600
G17  21063953.060   110691814.895 8  86253345.32747  21063950.140          50.300          45.600
G23  24538437.440   128950366.353 6 100480786.60645  24538433.460          41.200          32.050
G28  24232961.860   127344885.133 7  99229739.90444  24232973.420          43.350          28.850
> 2015 08 26 08 03 00.0000000  0  8
G02  22080819.540   116035503.300 8  90417254.15347  22080814.420          48.950          42.700
G05  22947631.820   120590688.298 7  93966815.44646  22947633.600          44.050          38.100
G06  20916970.700   109919424.500 8  85651499.89147  20916970.500          50.200          46.150
G09  22744624.520   119523820.267 7  93135449.41947  22744624.540          46.850          42.200
G12  22756568.040   119586578.696 7  93184339.33646  22756565.720          46.050          39.850
G17  21070646.820   110726990.801 8  86280755.09447  21070643.920          50.250          45.350
G23  24543705.760   128978051.685 6 100502359.62645  24543701.760          39.900          33.400
G28  24253414.100   127452358.449 7  99313484.36845  24253425.840          44.150          31.700
> 2015 08 26 08 03 30.0000000  0  8
G02  22073293.800   115995955.390 8  90386437.64947  22073288.660          49.150          42.900
G05  22929503.600   120495424.868 7  93892584.44446  22929505.340          44.050          39.850
G06  20917994.700   109924805.725 8  85655693.06747  20917994.500          50.200          46.150
G09  22739786.500   119498396.508 7  93115638.73246  22739786.540          46.200          40.800
G12  22748377.880   119543539.299 7  93150802.16146  22748375.560          46.250          38.650
G17  21077427.820   110762625.008 8  86308521.97647  21077424.920          50.250          45.100
G23  24549069.560   129006238.846 6 100524323.67944  24549065.580          41.650          27.450
G28  24273873.000   127559867.147 7  99397256.57945  24273884.860          43.250          33.100
> 2015 08 26 08 04 00.0000000  0  8
G02  22065771.740   115956426.722 8  90355636.12647  22065766.580          48.850          42.850
G05  22911417.600   120400383.198 7  93818526.21646  22911419.300          44.450          38.550
G06  20919036.520   109930280.573 8  85659959.19947  20919036.320          50.600          46.150
G09  22735030.320   119473402.810 7  93096163.17146  22735030.360          45.800          41.450
G12  22740281.500   119500992.740 7  93117649.02546  22740279.160          46.150          38.250
G17  21084278.160   110798623.614 8  86336572.80547  21084275.260          50.250          45.000
G23  24554510.900   129034833.470 6 100546605.23544  24554506.980          41.750          29.600
G28  24294320.460   127667315.782 7  99480982.03145  24294332.420          42.800          31.900
> 2015 08 26 08 04 30.0000000  0  8
G02  22058263.200   115916969.186 8  90324890.04347  22058258.020          48.650          42.850
G05  22893384.060   120305617.122 7  93744682.75746  22893385.660          44.650          38.600
G06  20920105.940   109935900.479 8  85664338.36347  20920105.740          50.550          45.950
G09  22730366.160   119448892.721 7  93077064.45946  22730366.200          45.950          41.100
G12  22732288.980   119458991.958 7  93084921.17446  22732286.640          46.050          39.250
G17  21091207.880   110835039.433 8  86364948.74947  21091204.980          50.350          45.800
G23  24560039.720   129063887.487 6 100569244.71445  24560035.840          40.000          30.950
G28  24314765.600   127774752.854 6  99564698.65744  24314777.600          41.650          28.900
> 2015 08 26 08 05 00.0000000  0  8
G02  22050767.720   115877580.238 8  90294197.39447  22050762.520          48.650          42.800
G05  22875403.020   120211126.992 7  93671054.33246  22875404.520          44.850          38.950
G06  20921202.620   109941663.526 8  85668829.06247  20921202.420          50.700          46.100
G09  22725794.080   119424866.402 7  93058342.68146  22725794.120          46.600          41.050
G12  22724400.240   119417536.602 7  93052618.35046  22724397.880          47.050          39.800
G17  21098216.600   110871870.387 8  86393648.17247  21098213.680          50.550          45.850
G23  24565655.600   129093399.154 7 100592240.86745  24565651.700          42.600          32.000
G28  24335207.660   127882173.995 6  99648402.96544  24335219.680          41.600          29.250
> 2015 08 26 08 05 30.0000000  0  8
G02  22043284.880   115838257.882 8  90263556.64647  22043279.680          49.000          42.900
G05  22857474.460   120116912.622 7  93597640.77446  22857475.840          44.200          39.000
G06  20922326.080   109947567.385 8  85673429.48647  20922325.880          50.600          46.100
G09  22721314.000   119401323.659 7  93039997.72946  22721314.040          46.950          40.150
G12  22716615.240   119376626.180 7  93020740.12646  22716612.880          46.650          39.950
G17  21105304.160   110909115.611 8  86422670.40247  21105301.240          50.400          45.050
G23  24571358.060   129123365.489 7 100615591.26645  24571354.120          43.750          32.200
G28  24355645.760   127989575.018 6  99732091.80944  24355657.740          37.950          29.350
> 2015 08 26 08 06 00.0000000  0  8
G02  22035815.000   115799003.564 8  90232968.91247  22035809.800          49.200          42.600
G05  22839598.940   120022976.955 7  93524444.38446  22839600.220          44.050          38.100
G06  20923476.560   109953613.125 8  85678140.46047  20923476.340          50.650          46.100
G09  22716926.540   119378267.600 7  93022032.03346  22716926.560          47.100          40.300
G12  22708934.400   119336263.048 7  92989288.33346  22708932.020          46.950          39.750
G17  21112470.800   110946776.351 8  86452016.40647  21112467.860          50.350          45.300
G23  24577147.180   129153787.347 7 100639296.69045  24577143.100          44.150          30.900
G28  24376079.640   128096954.602 5  99815764.06944  24376091.600          34.100          27.650
> 2015 08 26 08 06 30.0000000  0  8
G02  22028351.200   115759781.306 8  90202406.16747  22028346.000          48.950          42.550
G05  22821769.960   119929286.100 7  93451438.76246  22821771.200          44.100          39.200
G06  20924647.240   109959765.066 8  85682934.18047  20924647.020          50.500          45.900
G09  22712625.300   119355664.571 7  93004419.34646  22712625.280          47.400          39.800
G12  22701351.220   119296413.316 7  92958236.61846  22701348.860          46.050          40.600
G17  21119709.860   110984817.729 8  86481659.01647  21119706.940          50.350          45.250
G23  24583016.220   129184629.163 6 100663329.33345  24583012.000          41.200          34.800
G28  24396501.200   128204474.236 6  99899608.70845  24396514.620          36.300          34.600
> 2015 08 26 08 07 00.0000000  0  8
G02  22020916.940   115720714.182 8  90171964.31647  22020911.720          49.400          42.000
G05  22804011.420   119835965.193 7  93378721.37846  22804012.620          45.000          39.900
G06  20925861.500   109966146.032 8  85687906.37047  20925861.280          50.700          45.750
G09  22708434.020   119333639.398 7  92987256.94846  22708433.960          47.050          40.250
G12  22693889.400   119257201.392 7  92927681.91346  22693887.040          46.800          40.900
G17  21127044.820   111023363.057 8  86511694.31547  21127041.900          50.350          44.800
G23  24588988.460   129216013.496 6 100687784.70145  24588984.180          41.350          33.800
G28  24416935.560   128311854.495 6  99983281.74444  24416949.980          39.550          28.600
> 2015 08 26 08 07 30.0000000  0  8
G02  22013484.340   115681655.910 8  90141529.36247  22013479.100          49.150          42.850
G05  22786295.860   119742870.375 7  93306180.20846  22786297.020          44.800          41.150
G06  20927091.560   109972610.104 8  85692943.32147  20927091.340          50.700          46.000
G09  22704325.320   119312048.144 7  92970432.64346  22704325.220          46.400          41.100
G12  22686521.400   119218482.390 7  92897511.27346  22686519.060          46.650          41.350
G17  21134448.080   111062267.317 8  86542009.29247  21134445.160          50.200          44.550
G23  24595036.180   129247794.434 6 100712549.05246  24595031.920          41.300          36.650
G28  24437352.900   128419146.809 6 100066886.32245  24437367.140          40.550          30.850
> 2015 08 26 08 08 00.0000000  0  8
G02  22006065.600   115642670.292 8  90111151.00647  22006060.320          49.400          42.750
G05  22768635.840   119650067.171 7  93233866.21246  22768636.980          44.600          41.200
G06  20928349.500   109979220.584 8  85698094.34747  20928349.260          50.650          45.200
G09  22700311.580   119290956.032 7  92953997.27846  22700311.480          45.700          40.500
G12  22679259.560   119180321.355 7  92867775.43046  22679257.240          46.750          40.300
G17  21141931.700   111101593.955 8  86572653.40247  21141928.800          50.200          44.850
G23  24601171.300   129280034.910 6 100737671.54345  24601167.080          41.550          31.600
G28  24457764.780   128526411.965 6 100150469.90345  24457778.900          41.600          34.500
> 2015 08 26 08 08 30.0000000  0  8
G02  21998659.980   115603753.617 8  90080826.37347  21998654.660          49.400          43.100
G05  22751031.040   119557554.405 7  93161778.54946  22751032.160          45.500          41.550
G06  20929634.640   109985974.038 8  85703356.79347  20929634.380          50.750          45.800
G09  22696392.540   119270361.569 7  92937949.69046  22696392.440          46.400          39.850
G12  22672103.520   119142716.243 7  92838472.75746  22672101.240          46.500          39.750
G17  21149495.200   111141340.290 8  86603624.54747  21149492.280          50.650          44.700
G23  24607393.260   129312731.428 6 100763149.31745  24607389.140          41.150          34.400
G28  24478170.320   128633644.748 6 100234028.32445  24478184.240          41.600          33.250
> 2015 08 26 08 09 00.0000000  0  8
G02  21991264.880   115564892.311 8  90050544.89647  21991259.540          49.250          43.500
G05  22733479.220   119465319.998 7  93089907.79847  22733480.300          46.700          42.050
G06  20930944.340   109992856.526 8  85708719.77747  20930944.060          50.550          45.750
G09  22692565.920   119250252.703 7  92922280.46246  22692565.840          46.150          40.400
G12  22665050.880   119105654.482 7  92809593.49846  22665048.580          46.450          39.650
G17  21157135.980   111181492.841 8  86634912.22747  21157133.060          50.250          45.100
G23  24613699.240   129345869.561 7 100788971.24945  24613695.160          42.400          31.500
G28  24498566.400   128740828.380 6 100317548.48844  24498580.240          41.550          29.850
> 2015 08 26 08 09 30.0000000  0  8
G02  21983874.740   115526057.066 8  90020283.72347  21983869.400          49.150          43.150
G05  22715975.280   119373337.208 7  93018233.11147  22715976.320          47.100          42.750
G06  20932273.060   109999839.060 8  85714160.72047  20932272.780          50.100          46.050
G09  22688826.540   119230602.339 7  92906968.51046  22688826.460          46.400          41.400
G12  22658096.360   119069108.380 7  92781116.04046  22658094.060          46.800          39.750
G17  21164848.680   111222023.225 8  86666494.32347  21164845.740          50.100          45.300
G23  24620083.680   129379420.056 6 100815114.53545  24620079.600          40.400          35.350
G28  24518947.060   128847931.389 6 100401005.83745  24518960.800          40.200          30.850
> 2015 08 26 08 10 00.0000000  0  8
G02  21976505.620   115487332.281 8  89990108.63447  21976500.240          48.900          42.550
G05  22698535.480   119281691.247 7  92946820.89947  22698536.440          47.500          42.950
G06  20933636.840   110007005.799 8  85719745.21247  20933636.540          50.150          45.900
G09  22685190.760   119211496.401 7  92892080.81846  22685190.680          46.900          41.200
G12  22651256.260   119033163.407 7  92753106.96846  22651253.920          47.400          38.750
G17  21172649.380   111263016.127 8  86698436.82547  21172646.460          50.100          45.200
G23  24626562.620   129413467.113 6 100841644.72145  24626558.560          38.600          31.150
G28  24539327.920   128955035.843 6 100484464.39045  24539341.560          39.400          31.850
> 2015 08 26 08 10 30.0000000  0  8
G02  21969149.540   115448676.120 8  89959987.00847  21969144.160          49.000          42.750
G05  22681152.340   119190342.960 7  92875640.59647  22681153.280          47.400          42.000
G06  20935027.760   110014315.227 8  85725440.87347  20935027.460          50.150          45.750
G09  22681651.060   119192895.231 7  92877586.44746  22681650.940          47.150          40.500
G12  22644522.900   118997779.377 7  92725534.99346  22644520.540          47.700          38.350
G17  21180530.280   111304430.410 8  86730707.66647  21180527.360          50.300          45.100
G23  24633128.020   129447968.759 6 100868529.17245  24633123.980          39.550          34.300
G28  24559700.500   129062097.383 6 100567889.54545  24559714.100          38.800          31.900
> 2015 08 26 08 11 00.0000000  0  8
G02  21961804.920   115410080.044 8  89929912.19347  21961799.520          48.750          43.150
G05  22663824.580   119099285.663 7  92804687.04747  22663825.460          47.750          42.550
G06  20936444.120   110021758.281 8  85731240.66147  20936443.820          50.300          46.050
G09  22678206.020   119174791.560 7  92863479.74846  22678205.860          46.800          40.800
G12  22637894.820   118962948.505 7  92698394.06846  22637892.400          47.200          40.400
G17  21188489.740   111346257.460 8  86763300.14447  21188486.820          50.250          45.650
G23  24639778.160   129482915.397 7 100895760.23945  24639774.200          43.050          33.750
G28  24580062.700   129169104.819 6 100651272.57145  24580076.340          38.650          33.250
> 2015 08 26 08 11 30.0000000  0  8
G02  21954471.860   115371544.769 8  89899884.75447  21954466.460          49.050          42.800
G05  22646552.760   119008522.398 7  92733962.63047  22646553.600          47.650          42.100
G06  20937886.080   110029335.961 8  85737145.35747  20937885.800          50.650          45.800
G09  22674856.160   119157188.093 7  92849762.82146  22674855.960          46.900          39.550
G12  22631372.360   118928672.791 7  92671685.72246  22631369.920          47.800          40.600
G17  21196528.020   111388498.794 8  86796215.43847  21196525.100          50.100          44.850
G23  24646512.960   129518307.259 7 100923338.39945  24646509.020          43.650          33.000
G28  24600414.360   129276056.885 6 100734612.44144  24600428.060          38.550          27.850
> 2015 08 26 08 12 00.0000000  0  8
G02  21947151.620   115333076.853 8  89869909.80347  21947146.220          48.900          42.700
G05  22629338.400   118918060.951 7  92663473.37146  22629339.160          47.500          41.300
G06  20939354.900   110037054.672 8  85743159.94647  20939354.600          50.500          46.050
G09  22671603.040   119140092.982 7  92836442.01946  22671602.800          46.600          39.950
G12  22624957.080   118894960.262 7  92645416.23946  22624954.620          47.950          41.400
G17  21204646.440   111431161.166 8  86829458.82247  21204643.520          49.850          45.400
G23  24653333.860   129554151.184 7 100951268.72445  24653329.920          43.550          34.600
G28  24620753.660   129382957.326 6 100817939.23745  24620770.180          37.300          32.000
> 2015 08 26 08 12 30.0000000  0  8
G02  21939843.800   115294674.239 8  89839985.75047  21939838.380          49.000          43.200
G05  22612181.480   118827901.317 7  92593219.30246  22612182.160          47.300          41.050
G06  20940850.160   110044912.322 8  85749282.81047  20940849.840          50.350          45.750
G09  22668446.580   119123505.817 7  92823516.99046  22668446.340          45.850          40.200
G12  22618648.740   118861809.670 7  92619584.62346  22618646.280          47.800          41.250
G17  21212844.580   111474242.664 8  86863028.79047  21212841.680          49.850          45.550
G23  24660240.240   129590444.216 7 100979549.00545  24660236.260          43.500          33.900
G28  24641084.740   129489801.666 6 100901195.34144  24641101.700          39.600          28.550
> 2015 08 26 08 13 00.0000000  0  7
G02  21932553.200   115256362.072 8  89810132.16647  21932547.760          49.350          42.750
G05  22595087.180   118738070.766 7  92523221.64446  22595087.780          46.100          41.500
G06  20942376.680   110052934.231 8  85755533.65847  20942376.340          50.350          45.600
G09  22665391.900   119107453.554 7  92811008.77946  22665391.640          46.000          39.700
G12  22612452.460   118829247.864 7  92594211.79446  22612449.980          47.950          40.550
G17  21221127.380   111517768.983 8  86896945.37347  21221124.500          50.250          45.050
G23  24667236.720   129627211.027 7 101008198.48245  24667232.740          43.350          32.050
> 2015 08 26 08 13 30.0000000  0  7
G02  21925269.960   115218088.540 8  89780308.68047  21925264.520          49.350          43.150
G05  22578045.960   118648519.362 7  92453441.49846  22578046.540          46.600          40.350
G06  20943924.580   110061068.463 8  85761872.02547  20943924.220          50.350          44.900
G09  22662429.440   119091885.937 7  92798878.21146  22662429.200          46.750          40.900
G12  22606358.440   118797223.613 7  92569257.84346  22606355.980          47.900          40.650
G17  21229485.060   111561688.740 8  86931168.52447  21229482.200          50.600          44.500
G23  24674313.440   129664399.389 7 101037176.43345  24674309.420          43.050          31.850
> 2015 08 26 08 14 00.0000000  0  7
G02  21917996.880   115179868.427 8  89750526.80947  21917991.460          49.350          43.900
G05  22561060.960   118559263.278 7  92383891.47546  22561061.480          47.050          40.950
G06  20945496.620   110069329.634 8  85768309.32647  20945496.240          50.250          45.800
G09  22659562.280   119076819.175 7  92787137.91246  22659562.060          46.900          40.650
G12  22600369.680   118765752.495 7  92544734.91746  22600367.200          47.800          40.800
G17  21237920.420   111606016.525 8  86965709.60447  21237917.540          50.050          45.100
G23  24681473.040   129702023.299 6 101066493.77845  24681469.000          41.700          31.700
> 2015 08 26 08 14 30.0000000  0  7
G02  21910736.560   115141715.262 8  89720797.10247  21910731.140          49.650          43.550
G05  22544135.140   118470318.153 7  92314583.74746  22544135.600          47.800          41.000
G06  20947095.420   110077731.453 8  85774856.21247  20947095.040          50.550          45.700
G09  22656793.380   119062268.565 7  92775799.79346  22656793.140          46.700          41.500
G12  22594488.980   118734849.245 8  92520654.49746  22594486.480          48.050          40.500
G17  21246436.060   111650766.353 8  87000579.56047  21246433.200          49.800          45.000
G23  24688718.000   129740096.089 7 101096160.92345  24688713.940          43.100          33.900
> 2015 08 26 08 15 00.0000000  0  7
G02  21903487.400   115103620.898 8  89691113.24247  21903481.980          49.600          43.850
G05  22527267.340   118381677.960 7  92245513.62246  22527267.760          46.750          41.300
G06  20948719.460   110086265.904 8  85781506.43847  20948719.100          50.200          45.900
G09  22654121.460   119048227.618 7  92764858.83347  22654121.200          47.200          42.100
G12  22588715.080   118704507.340 8  92497011.47946  22588712.560          48.700          41.350
G17  21255030.560   111695930.647 8  87035772.48447  21255027.720          49.900          45.100
G23  24696046.820   129778609.119 7 101126171.06945  24696042.740          42.550          34.550
> 2015 08 26 08 15 30.0000000  0  7
G02  21896250.180   115065589.108 8  89661478.12147  21896244.760          49.550          44.000
G05  22510458.500   118293347.666 7  92176684.98946  22510458.900          47.000          41.450
G06  20950369.340   110094936.200 8  85788262.52147  20950369.000          50.250          45.900
G09  22651547.440   119034701.106 7  92754318.71146  22651547.180          47.650          41.950
G12  22583048.720   118674730.541 8  92473808.83446  22583046.180          48.750          40.750
G17  21263704.580   111741512.825 8  87071291.01947  21263701.780          49.900          45.200
G23  24703459.860   129817564.979 6 101156526.34745  24703455.760          41.750          31.350
> 2015 08 26 08 16 00.0000000  0  7
G02  21889025.700   115027624.338 8  89631895.22547  21889020.260          49.300          43.500
G05  22493709.860   118205333.539 7  92108102.72346  22493710.180          47.700          41.050
G06  20952045.980   110103747.055 8  85795128.13247  20952045.640          50.250          46.000
G09  22649072.500   119021695.198 7  92744184.27246  22649072.200          47.500          40.250
G12  22577491.020   118645524.586 8  92451050.97746  22577488.420          48.950          40.400
G17  21272459.100   111787518.028 8  87107139.19947  21272456.320          50.250          45.250
G23  24710958.020   129856967.839 6 101187229.85644  24710953.880          39.300          28.100
> 2015 08 26 08 16 30.0000000  0  7
G02  21881812.680   114989719.722 8  89602359.19647  21881807.220          49.350          43.850
G05  22477020.420   118117630.605 7  92039762.94446  22477020.680          47.250          41.550
G06  20953748.060   110112691.601 8  85802097.92147  20953747.720          50.350          45.950
G09  22646695.600   119009204.478 7  92734451.27246  22646695.280          47.050          41.100
G12  22572040.880   118616883.938 8  92428733.61846  22572038.240          48.650          40.800
G17  21281292.800   111833939.353 8  87143311.62947  21281290.040          50.300          45.450
G23  24718539.760   129896810.188 6 101218275.86744  24718535.560          40.300          28.200
> 2015 08 26 08 17 00.0000000  0  7
G02  21874611.280   114951876.336 8  89572870.88647  21874605.840          49.150          44.000
G05  22460390.740   118030241.680 7  91971667.84946  22460390.920          47.400          40.500
G06  20955475.760   110121770.802 8  85809172.63547  20955475.420          50.500          45.800
G09  22644417.160   118997231.361 7  92725121.62646  22644416.820          47.000          40.900
G12  22566698.600   118588809.944 8  92406857.77747  22566695.920          48.450          42.000
G17  21290205.900   111880777.865 8  87179809.13847  21290203.160          50.250          45.050
G23  24726205.180   129937092.103 6 101249664.36445  24726200.920          40.800          32.850
> 2015 08 26 08 17 30.0000000  0  7
G02  21867422.120   114914097.150 8  89543432.57947  21867416.680          49.400          43.700
G05  22443821.720   117943171.570 7  91903821.19746  22443821.780          46.550          41.350
G06  20957229.680   110130987.767 8  85816354.70247  20957229.360          50.250          45.900
G09  22642238.080   118985780.363 7  92716198.81346  22642237.740          46.900          40.750
G12  22561464.880   118561306.607 8  92385426.62146  22561462.180          48.100          41.600
G17  21299199.060   111928037.077 8  87216634.47647  21299196.320          50.250          44.800
G23  24733954.780   129977816.258 6 101281397.43745  24733950.520          40.350          32.100
> 2015 08 26 08 18 00.0000000  0  7
G02  21860244.800   114876380.158 8  89514042.76247  21860239.340          49.800          43.350
G05  22427313.280   117856419.923 7  91836222.68746  22427313.280          46.850          41.500
G06  20959009.440   110140340.413 8  85823642.48247  20959009.100          50.300          45.700
G09  22640158.220   118974850.759 7  92707682.29446  22640157.860          46.100          41.050
G12  22556339.540   118534372.713 8  92364439.19047  22556336.820          48.000          42.100
G17  21308271.820   111975714.485 8  87253785.65347  21308269.080          50.300          44.600
G23  24741787.980   130018979.726 6 101313472.83245  24741783.760          40.350          34.650
> 2015 08 26 08 18 30.0000000  0  7
G02  21853078.820   114838722.826 8  89484699.42647  21853073.360          49.700          43.400
G05  22410865.260   117769985.812 7  91768871.61646  22410865.220          47.150          41.650
G06  20960814.480   110149826.049 8  85831033.89547  20960814.160          50.300          45.800
G09  22638177.280   118964441.180 7  92699570.98946  22638176.940          45.900          40.600
G12  22551322.200   118508006.508 8  92343894.12046  22551319.500          48.200          41.800
G17  21317423.760   112023808.010 8  87291261.08847  21317421.000          50.100          44.300
G23  24749704.120   130060579.220 6 101345888.01445  24749699.980          40.250          34.150
> 2015 08 26 08 19 00.0000000  0  8
G02  21845924.220   114801125.299 8  89455402.70147  21845918.740          49.700          43.800
G05  22394478.040   117683871.093 7  91701769.41846  22394477.940          47.150          41.500
G06  20962644.920   110159445.047 8  85838529.23147  20962644.580          50.200          45.850
G09  22636295.660   118954553.389 7  92691866.22546  22636295.380          45.450          41.350
G12  22546413.060   118482208.985 8  92323792.18447  22546410.380          48.850          42.050
G17  21326654.860   112072317.486 8  87329060.64847  21326652.060          50.150          44.700
G23  24757703.100   130102614.206 6 101378642.54944  24757699.080          41.200          28.900
G25  25163549.160   132235340.668 6                                        41.000
> 2015 08 26 08 19 30.0000000  0  8
G02  21838782.560   114763595.748 8  89426158.94647  21838777.040          49.800          43.300
G05  22378153.520   117598085.832 7  91634923.91746  22378153.400          47.050          41.900
G06  20964502.280   110169205.540 8  85846134.82047  20964501.940          50.300          45.600
G09  22634515.100   118945196.701 7  92684575.33246  22634514.860          46.250          41.850
G12  22541613.860   118456988.942 8  92304140.21146  22541611.160          49.050          41.050
G17  21335966.740   112121251.573 8  87367191.07447  21335963.940          50.100          44.350
G23  24765786.420   130145092.164 6 101411742.21745  24765782.460          39.650          33.950
G25  25149670.640   132162412.019 6 102983716.16945  25149671.560          39.550          30.900
> 2015 08 26 08 20 00.0000000  0  8
G02  21831651.400   114726121.420 8  89396958.23547  21831645.840          49.800          43.250
G05  22361889.440   117512618.135 7  91568325.86346  22361889.280          47.300          41.300
G06  20966384.100   110179094.631 8  85853840.61147  20966383.760          50.150          45.700
G09  22632833.380   118936359.497 7  92677689.24246  22632833.180          46.500          41.950
G12  22536922.240   118432334.494 8  92284929.00847  22536919.520          48.350          42.300
G17  21345356.960   112170597.362 8  87405642.30847  21345354.180          49.800          44.700
G23  24773951.360   130187999.142 6 101445176.22245  24773947.400          38.300          32.400
G25  25135865.180   132089866.478 6 102927187.18245  25135866.500          38.500          30.750
> 2015 08 26 08 20 30.0000000  0  8
G02  21824531.080   114688704.007 8  89367801.85047  21824525.500          49.550          42.950
G05  22345686.520   117427471.962 7  91501978.35646  22345686.340          47.650          41.550
G06  20968290.720   110189113.982 8  85861647.90147  20968290.380          50.200          45.700
G09  22631251.080   118928044.657 7  92671210.17446  22631250.900          46.600          41.950
G12  22532338.640   118408247.619 7  92266160.02947  22532335.940          47.950          42.000
G17  21354825.800   112220356.334 8  87444415.47747  21354823.040          49.900          44.050
G23  24782198.600   130231336.232 6 101478941.35345  24782193.920          36.250          34.700
G25  25122133.780   132017707.912 6 102870959.72945  25122135.360          37.650          33.950
> 2015 08 26 08 21 00.0000000  0  8
G02  21817422.200   114651346.822 8  89338692.40647  21817416.600          49.250          43.300
G05  22329545.680   117342651.871 7  91435884.93646  22329545.460          47.800          40.550
G06  20970222.740   110199266.863 8  85869559.24147  20970222.400          50.250          45.400
G09  22629769.040   118920256.647 7  92665141.63046  22629768.880          46.150          41.450
G12  22527863.840   118384732.378 7  92247836.46546  22527861.140          47.800          41.400
G17  21364373.900   112270531.767 8  87483513.16847  21364371.160          49.550          44.350
G23  24790529.100   130275113.933 5 101513050.49644  24790521.140          33.700          29.200
G25  25108477.140   131945941.855 5 102815038.12645  25108478.960          35.100          31.900
> 2015 08 26 08 21 30.0000000  0  8
G02  21810326.280   114614057.679 8  89309635.97247  21810320.680          49.200          43.800
G05  22313468.720   117258167.552 7  91370053.17546  22313468.440          47.200          40.850
G06  20972181.680   110209561.233 8  85877580.83747  20972181.340          50.350          45.150
G09  22628388.960   118913004.593 7  92659490.71646  22628388.820          46.400          40.900
G12  22523499.360   118361796.918 7  92229964.68847  22523496.680          47.650          42.000
G17  21374002.780   112321131.726 8  87522941.66547  21374000.040          49.750          43.750
G23  24798939.160   130319306.674 6 101547522.02344  24798935.240          38.200          28.050
G25  25094897.340   131874578.781 6 102759419.55345  25094894.840          36.350          32.800
> 2015 08 26 08 22 00.0000000  0  8
G02  21803239.620   114576817.428 8  89280617.67147  21803234.020          49.550          43.750
G05  22297452.320   117174001.356 7  91304469.28646  22297451.980          46.950          41.550
G06  20974163.880   110219977.846 8  85885697.69647  20974163.540          50.450          45.600
G09  22627107.460   118906270.381 7  92654243.30846  22627107.300          46.600          40.300
G12  22519241.680   118339422.934 8  92212530.45646  22519239.020          48.200          41.850
G17  21383708.820   112372137.218 8  87562686.16847  21383706.100          49.600          44.100
G23  24807432.480   130363934.913 6 101582297.28245  24807428.400          39.600          30.250
G25  25081390.860   131803601.487 5 102704117.36844  25081394.480          35.350          27.000
> 2015 08 26 08 22 30.0000000  0  8
G02  21796165.980   114539645.436 8  89251652.54347  21796160.380          49.800          43.950
G05  22281500.460   117090174.368 7  91239149.69846  22281500.100          46.700          41.150
G06  20976173.020   110230535.992 8  85893924.83647  20976172.680          50.400          45.450
G09  22625928.360   118900074.363 7  92649415.28946  22625928.180          46.700          40.000
G12  22515094.640   118317630.252 8  92195549.16346  22515092.020          48.000          41.950
G17  21393495.480   112423566.514 8  87602760.91047  21393492.800          49.600          44.200
G23  24816008.700   130409000.930 6 101617413.74445  24816004.600          37.650          32.200
G25  25067961.980   131733031.537 6 102649127.84145  25067963.100          36.950          33.750
> 2015 08 26 08 23 00.0000000  0  8
G02  21789103.420   114502531.701 8  89222732.80447  21789097.820          49.750          43.150
G05  22265611.540   117006678.199 7  91174087.90146  22265611.160          47.350          40.300
G06  20978207.260   110241225.959 8  85902254.69247  20978206.900          50.350          45.400
G09  22624850.060   118894407.900 7  92644999.89146  22624849.840          47.100          39.750
G12  22511056.460   118296409.628 8  92179013.62447  22511053.860          48.750          42.400
G17  21403361.020   112475410.190 8  87643158.54547  21403358.360          49.600          44.500
G23  24824665.880   130454493.985 6 101652862.80445  24824661.700          36.700          31.700
G25  25054609.160   131662861.253 6 102594449.70945  25054609.920          36.800          35.100
> 2015 08 26 08 23 30.0000000  0  8
G02  21782052.740   114465480.295 8  89193861.63547  21782047.120          50.100          43.200
G05  22249786.520   116923517.820 7  91109287.76946  22249786.100          47.300          40.750
G06  20980267.280   110252051.492 8  85910690.18347  20980266.920          50.400          45.650
G09  22623873.440   118889275.814 7  92641000.89946  22623873.180          47.050          39.550
G12  22507127.940   118275765.203 8  92162927.07647  22507125.320          48.800          42.100
G17  21413306.140   112527672.014 8  87683882.00247  21413303.500          49.850          44.150
G23  24833404.720   130500416.676 6 101688646.59045  24833400.540          36.750          31.650
G25  25041333.300   131593096.984 6 102540088.05745  25041334.420          39.350          34.200
> 2015 08 26 08 24 00.0000000  0  8
G02  21775013.340   114428488.230 8  89165036.70847  21775007.700          49.700          42.750
G05  22234025.140   116840691.753 7  91044748.10746  22234024.700          47.200          40.550
G06  20982352.560   110263009.621 8  85919228.98447  20982352.180          50.300          45.650
G09  22622998.160   118884676.142 7  92637416.77046  22622997.840          46.950          39.500
G12  22503308.560   118255694.425 7  92147287.55446  22503305.940          47.950          41.500
G17  21423330.280   112580349.086 8  87724929.02247  21423327.680          50.000          43.900
G23  24842224.440   130546765.632 6 101724762.67744  24842220.360          37.250          29.900
G25  25028134.640   131523737.681 7 102486041.87446  25028136.100          43.150          36.350
> 2015 08 26 08 24 30.0000000  0  8
G02  21767984.580   114391551.952 8  89136255.24647  21767978.880          49.850          42.650
G05  22218327.000   116758198.156 7  90980467.54246  22218326.540          47.550          41.600
G06  20984462.400   110274096.863 8  85927868.39147  20984462.020          50.350          46.250
G09  22622223.700   118880606.361 7  92634245.54946  22622223.320          46.850          39.900
G12  22499597.820   118236194.468 7  92132092.80646  22499595.180          47.850          41.550
G17  21433432.720   112633437.554 8  87766296.61047  21433430.140          50.150          43.700
G23  24851124.320   130593535.697 6 101761206.87045  24851120.360          40.600          32.700
G25  25015012.900   131454782.078 7 102432310.24745  25015014.600          42.750          35.500
> 2015 08 26 08 25 00.0000000  0  8
G02  21760967.020   114354674.570 8  89107519.67147  21760961.280          49.600          42.200
G05  22202693.020   116676041.639 7  90916449.61446  22202692.540          47.900          41.450
G06  20986597.400   110285316.392 8  85936610.89247  20986597.020          50.350          45.850
G09  22621550.840   118877070.527 7  92631490.38846  22621550.420          46.800          39.950
G12  22495996.280   118217268.434 7  92117345.28446  22495993.640          47.650          40.700
G17  21443613.940   112686939.984 8  87807986.76447  21443611.360          49.950          43.950
G23  24860104.920   130640729.155 6 101797980.93645  24860101.000          40.950          33.000
G25  25001968.980   131386235.395 6 102378897.26046  25001970.840          41.300          36.850
> 2015 08 26 08 25 30.0000000  0  8
G02  21753961.980   114317862.978 8  89078835.34647  21753956.220          49.550          43.750
G05  22187124.820   116594230.745 7  90852701.02346  22187124.280          47.750          41.550
G06  20988758.880   110296674.973 8  85945461.74047  20988758.500          50.500          45.750
G09  22620981.040   118874076.347 7  92629157.30446  22620980.600          47.000          39.150
G12  22492505.320   118198923.360 7  92103050.42646  22492502.680          47.950          41.000
G17  21453875.220   112740863.104 8  87850004.72447  21453872.620          49.850          43.850
G23  24869167.100   130688351.614 6 101835089.39845  24869163.240          41.200          31.450
G25  24989004.520   131318106.475 6 102325809.81845  24989006.560          41.200          33.850
> 2015 08 26 08 26 00.0000000  0  8
G02  21746967.660   114281107.752 8  89050194.95547  21746961.880          49.400          43.150
G05  22171620.800   116512757.221 7  90789215.31846  22171620.240          47.750          41.850
G06  20990945.040   110308163.321 8  85954413.70247  20990944.660          50.350          46.000
G09  22620512.740   118871615.500 7  92627239.78046  22620512.280          47.050          40.050
G12  22489123.240   118181150.457 7  92089201.42746  22489120.580          46.750          41.800
G17  21464214.660   112795197.002 8  87892342.78947  21464212.040          50.000          44.050
G23  24878309.020   130736393.024 6 101872524.28045  24878305.240          41.700          32.300
G25  24976118.220   131250388.264 6 102273042.33045  24976120.440          40.600          33.200
> 2015 08 26 08 26 30.0000000  0  8
G02  21739984.540   114244411.479 8  89021600.50247  21739978.760          49.750          43.050
G05  22156181.760   116431625.015 8  90725995.54846  22156181.160          48.350          41.000
G06  20993156.340   110319783.781 8  85963468.61047  20993155.980          50.400          45.650
G09  22620146.520   118869691.085 7  92625740.26646  22620146.060          46.500          40.350
G12  22485850.520   118163952.352 7  92075800.31446  22485847.880          47.300          41.350
G17  21474632.820   112849944.524 8  87935003.14947  21474630.180          50.000          44.250
G23  24887530.880   130784854.320 6 101910286.32145  24887527.120          40.000          33.000
G25  24963310.860   131183085.125 6 102220598.32245  24963313.160          41.250          33.350
> 2015 08 26 08 27 00.0000000  0  8
G02  21733013.180   114207776.963 8  88993054.17547  21733007.380          49.550          43.550
G05  22140808.480   116350838.262 8  90663044.95647  22140807.820          48.000          42.300
G06  20995393.320   110331539.209 8  85972628.69047  20995392.960          50.000          45.400
G09  22619883.060   118868306.830 7  92624661.66346  22619882.600          45.950          40.250
G12  22482687.840   118147332.512 7  92062849.81647  22482685.180          47.750          42.000
G17  21485130.140   112905108.089 8  87977987.69647  21485127.500          49.600          44.350
G23  24896832.980   130833737.401 5 101948377.06245  24896829.240          35.950          33.750
G25  24950583.420   131116201.935 7 102168481.53945  24950585.780          42.100          34.000
> 2015 08 26 08 27 30.0000000  0  8
G02  21726053.580   114171204.171 8  88964555.93547  21726047.760          49.800          43.350
G05  22125501.200   116270398.441 8  90600364.69747  22125500.520          48.450          42.850
G06  20997656.000   110343429.656 8  85981893.96847  20997655.640          49.950          45.800
G09  22619722.540   118867463.507 7  92624004.57146  22619722.080          46.650          40.050
G12  22479635.180   118131290.846 7  92050349.83747  22479632.540          47.900          43.150
G17  21495706.480   112960686.916 8  88021295.82647  21495703.860          49.600          44.200
G23  24906214.940   130883040.648 6 101986795.18245  24906211.280          38.700          34.000
G25  24937936.320   131049740.773 7 102116693.56445  24937938.760          42.000          31.800
> 2015 08 26 08 28 00.0000000  0  8
G02  21719104.140   114134684.801 8  88936099.34447  21719098.300          49.600          43.750
G05  22110258.580   116190298.352 8  90537949.17747  22110257.860          48.350          42.600
G06  20999942.760   110355446.667 8  85991257.88047  20999942.400          50.050          45.300
G09  22619663.520   118867153.523 7  92623763.04546  22619663.080          46.200          41.350
G12  22476690.920   118115818.897 7  92038293.81647  22476688.300          47.850          42.600
G17  21506360.300   113016672.910 8  88064921.24347  21506357.680          49.700          44.200
G23  24915675.160   130932755.213 6 102025533.84745  24915671.500          41.350          32.750
G25  24925368.320   130983695.272 7 102065229.49845  24925370.800          43.000          35.200
> 2015 08 26 08 28 30.0000000  0  8
G02  21712166.200   114098225.828 8  88907689.78547  21712160.360          49.800          43.650
G05  22095082.240   116110546.607 8  90475805.08346  22095081.500          48.000          41.850
G06  21002254.900   110367597.289 8  86000725.92047  21002254.560          50.000          45.650
G09  22619707.440   118867384.519 7  92623943.06447  22619707.040          47.100          42.050
G12  22473856.500   118100924.056 7  92026687.47746  22473853.880          47.750          41.950
G17  21517092.660   113073071.798 8  88108868.39047  21517090.080          49.800          44.350
G23  24925214.760   130982886.383 6 102064597.04945  24925211.120          39.750          34.050
G25  24912881.120   130918074.443 6 102014096.35646  24912883.620          41.600          36.250
> 2015 08 26 08 29 00.0000000  0  8
G02  21705239.760   114061827.387 8  88879327.40947  21705233.920          49.300          43.750
G05  22079972.360   116031144.099 7  90413933.12547  22079971.580          47.600          42.400
G06  21004592.500   110379881.528 8  86010298.06247  21004592.180          50.000          46.050
G09  22619854.500   118868157.324 7  92624545.24946  22619854.120          47.100          41.900
G12  22471131.940   118086606.368 7  92015530.83746  22471129.340          47.850          41.500
G17  21527903.600   113129883.440 8  88153137.15247  21527901.020          50.100          45.050
G23  24934833.420   131033433.171 7 102103984.19245  24934829.800          42.250          32.350
G25  24900475.160   130852880.239 6 101963295.60045  24900477.680          40.650          35.950
> 2015 08 26 08 29 30.0000000  0  8
G02  21698324.260   114025486.276 8  88851009.70147  21698318.420          49.250          43.850
G05  22064928.600   115952089.210 7  90352332.03847  22064927.820          47.900          42.350
G06  21006954.940   110392296.423 8  86019972.02547  21006954.660          50.050          45.700
G09  22620104.220   118869469.557 7  92625567.77546  22620103.840          46.900          40.900
G12  22468516.620   118072862.892 8  92004821.64946  22468514.020          48.300          41.500
G17  21538792.540   113187104.974 8  88197725.32047  21538789.980          49.950          44.500
G23  24944530.540   131084391.429 6 102143691.80244  24944526.940          38.300          29.750
G25  24888150.140   130788111.622 6 101912826.53045  24888152.680          39.200          35.500
> 2015 08 26 08 30 00.0000000  0  8
G02  21691420.640   113989207.705 8  88822740.72147  21691414.820          49.550          43.700
G05  22049952.260   115873388.520 8  90291006.95646  22049951.420          48.100          41.550
G06  21009343.220   110404847.011 8  86029751.71647  21009342.960          50.200          45.850
G09  22620457.660   118871326.909 7  92627015.09646  22620457.280          46.700          40.550
G12  22466011.540   118059698.568 7  91994563.73246  22466008.920          47.600          40.800
G17  21549760.260   113244740.398 8  88242635.98547  21549757.700          49.900          44.500
G23  24954306.560   131135764.605 6 102183722.78444  24954303.000          40.000          29.150
G25  24875907.420   130723775.555 6 101862694.53145  24875909.940          38.800          33.650
> 2015 08 26 08 30 30.0000000  0  8
G02  21684528.280   113952988.371 8  88794517.90347  21684522.480          49.350          43.550
G05  22035042.900   115795039.809 7  90229956.14547  22035042.000          47.450          42.100
G06  21011756.680   110417529.921 8  86039634.52247  21011756.400          50.200          45.800
G09  22620914.300   118873726.595 7  92628885.02046  22620913.900          46.700          40.250
G12  22463616.020   118047110.202 7  91984754.64246  22463613.400          47.350          41.300
G17  21560806.120   113302786.522 8  88287866.69147  21560803.560          49.850          44.250
G23  24964160.600   131187548.159 6 102224073.63944  24964157.020          39.800          25.350
G25  24863746.760   130659870.632 6 101812898.48145  24863749.300          39.000          33.950
> 2015 08 26 08 31 00.0000000  0  8
G02  21677647.520   113916829.804 8  88766342.42947  21677641.720          49.600          43.400
G05  22020201.100   115717046.109 7  90169181.95746  22020200.140          47.600          41.350
G06  21014195.640   110430346.803 8  86049621.71247  21014195.360          50.400          45.600
G09  22621474.560   118876670.860 7  92631179.27146  22621474.160          46.100          40.700
G12  22461330.440   118035099.421 7  91975395.59746  22461327.820          47.800          40.500
G17  21571930.340   113361244.395 8  88333418.22847  21571927.780          49.850          43.850
G23  24974092.800   131239742.745 6 102264744.83144  24974089.200          39.550          25.900
G25  24851668.780   130596400.275 6 101763441.07445  24851671.340          37.050          32.600
> 2015 08 26 08 31 30.0000000  0  8
G02  21670778.140   113880731.145 8  88738213.64847  21670772.320          49.650          43.500
G05  22005426.900   115639407.574 7  90108684.50646  22005425.900          47.400          41.600
G06  21016659.940   110443296.776 8  86059712.61947  21016659.640          50.350          45.550
G09  22622138.400   118880159.389 7  92633897.60946  22622138.000          46.600          41.000
G12  22459154.520   118023665.061 8  91966485.72646  22459151.920          48.200          41.450
G17  21583132.480   113420111.807 8  88379288.89647  21583129.920          49.650          43.900
G23  24984102.880   131292345.939 6 102305734.25944  24984099.300          37.700          26.900
G25  24839673.700   130533365.572 6 101714323.12245  24839676.260          38.100          35.150
> 2015 08 26 08 32 00.0000000  0  8
G02  21663919.140   113844687.033 8  88710127.37447  21663913.300          49.600          43.750
G05  21990719.540   115562120.265 7  90048460.73446  21990718.500          47.850          41.800
G06  21019148.540   110456374.471 8  86069903.03747  21019148.240          50.350          45.850
G09  22622904.860   118884187.253 7  92637036.21346  22622904.460          46.600          40.150
G12  22457087.320   118012801.864 8  91958020.90446  22457084.700          48.550          41.300
G17  21594411.520   113479383.363 8  88425474.47247  21594408.980          49.650          43.700
G23  24994189.400   131345350.694 6 102347036.58644  24994185.800          40.150          28.550
G25  24827760.780   130470762.913 6 101665541.86444  24827763.340          40.000          28.950
> 2015 08 26 08 32 30.0000000  0  8
G02  21657072.060   113808705.605 8  88682089.93747  21657066.240          49.700          43.500
G05  21976080.720   115485193.156 7  89988517.64247  21976079.660          47.950          42.200
G06  21021663.000   110469588.084 8  86080199.37547  21021662.700          50.350          45.050
G09  22623775.600   118888763.146 7  92640601.88246  22623775.200          47.100          40.300
G12  22455130.340   118002517.868 8  91950007.41446  22455127.720          48.650          41.750
G17  21605768.900   113539066.650 8  88471980.87547  21605766.380          49.600          43.900
G23  25004353.540   131398763.857 6 102388657.33945  25004349.820          40.900          32.750
G25  24815931.980   130408602.360 6 101617105.14345  24815934.460          39.050          31.600
> 2015 08 26 08 33 00.0000000  0  8
G02  21650236.540   113772784.792 8  88654099.73447  21650230.700          49.550          44.000
G05  21961510.260   115408625.332 7  89928854.50247  21961509.200          47.800          43.000
G06  21024202.880   110482935.249 8  86090599.78247  21024202.560          50.200          45.300
G09  22624750.240   118893885.169 7  92644593.09846  22624749.860          46.550          41.100
G12  22453283.060   117992810.283 7  91942443.05246  22453280.440          47.500          41.750
G17  21617204.120   113599159.040 8  88518806.05847  21617201.620          49.100          43.850
G23  25014594.800   131452581.950 6 102430593.53844  25014591.040          38.400          27.950
G25  24804187.220   130346883.382 6 101569012.44746  24804189.680          40.550          36.850
> 2015 08 26 08 33 30.0000000  0  8
G02  21643412.120   113736922.485 8  88626155.11247  21643406.280          49.550          43.250
G05  21947008.000   115332415.996 8  89869470.72347  21947006.940          48.400          42.650
G06  21026767.780   110496413.994 8  86101102.71947  21026767.460          50.250          45.600
G09  22625828.540   118899551.736 7  92649008.63446  22625828.160          46.650          40.900
G12  22451545.020   117983677.000 7  91935326.22446  22451542.420          47.750          41.500
G17  21628716.660   113659657.775 8  88565947.87047  21628714.200          49.400          44.100
G23  25024912.480   131506801.564 6 102472842.57144  25024908.720          40.150          27.250
G25  24792526.480   130285605.721 6 101521263.59645  24792528.940          40.650          34.150
> 2015 08 26 08 34 00.0000000  0  8
G02  21636598.360   113701116.113 8  88598254.08447  21636592.520          49.700          43.650
G05  21932573.600   115256563.030 8  89810364.61146  21932572.520          48.600          41.650
G06  21029357.240   110510021.641 8  86111706.08147  21029356.900          50.200          45.550
G09  22627010.020   118905760.616 7  92653846.74046  22627009.660          46.050          41.200
G12  22449915.840   117975115.569 7  91928654.96646  22449913.260          47.650          41.350
G17  21640305.820   113720559.069 8  88613403.36347  21640303.400          49.550          43.600
G23  25035305.700   131561418.456 6 102515401.23145  25035301.920          40.100          31.000
G25  24780949.580   130224768.552 6 101473857.99946  24780952.020          41.600          37.800
> 2015 08 26 08 34 30.0000000  0  8
G02  21629796.500   113665372.187 8  88570401.72447  21629790.620          49.800          43.800
G05  21918208.580   115181074.752 8  89751542.69246  21918207.480          48.450          41.300
G06  21031972.500   110523764.988 8  86122415.18947  21031972.180          50.400          45.850
G09  22628296.040   118912518.810 7  92659112.89846  22628295.680          46.700          40.900
G12  22448396.600   117967131.975 7  91922433.98746  22448394.040          47.500          40.600
G17  21651972.880   113781869.773 8  88661177.88247  21651970.480          49.600          43.900
G23  25045775.580   131616437.865 7 102558273.47845  25045771.760          42.500          34.050
G25  24769458.100   130164380.246 6 101426802.18146  24769460.500          38.950          37.400
> 2015 08 26 08 35 00.0000000  0  8
G02  21623005.840   113629687.117 8  88542595.20647  21622999.960          49.400          44.100
G05  21903912.420   115105948.271 7  89693002.67346  21903911.240          47.900          41.550
G06  21034612.840   110537640.071 8  86133226.94847  21034612.520          50.400          45.650
G09  22629685.900   118919822.812 7  92664804.37846  22629685.540          46.850          41.400
G12  22446986.640   117959722.798 8  91916660.63946  22446984.080          48.050          40.900
G17  21663716.860   113843584.579 8  88709267.27947  21663714.480          49.100          43.650
G23  25056321.060   131671854.366 7 102601455.14245  25056317.180          43.150          32.850
G25  24758051.560   130104438.531 6 101380094.42345  24758053.920          36.550          34.250
> 2015 08 26 08 35 30.0000000  0  8
G02  21616227.800   113594068.416 8  88514840.40147  21616221.920          49.650          43.500
G05  21889686.800   115031192.546 7  89634751.55747  21889685.560          47.900          42.550
G06  21037279.700   110551654.470 8  86144147.25747  21037279.400          50.400          45.750
G09  22631181.160   118927680.436 7  92670927.22346  22631180.800          46.700          40.150
G12  22445687.220   117952894.476 8  91911339.89546  22445684.680          48.100          41.300
G17  21675539.120   113905710.848 8  88757677.31647  21675536.760          49.250          43.050
G23  25066943.240   131727674.138 7 102644951.08145  25066939.320          42.400          32.600
G25  24746731.780   130044952.778 6 101333741.89046  24746734.180          36.950          36.350
> 2015 08 26 08 36 00.0000000  0  8
G02  21609460.820   113558507.854 8  88487130.90647  21609454.940          49.350          44.150
G05  21875530.220   114956799.697 8  89576783.19947  21875528.940          48.300          42.950
G06  21039971.500   110565799.956 8  86155169.71847  21039971.200          50.200          45.850
G09  22632780.220   118936083.705 7  92677475.26946  22632779.840          46.450          41.750
G12  22444496.760   117946638.574 7  91906465.15946  22444494.240          47.950          41.800
G17  21687437.940   113968239.380 8  88806400.78847  21687435.600          49.650          43.450
G23  25077640.360   131783887.516 6 102688753.68646  25077636.380          41.700          36.900
G25  24735497.440   129985916.270 5 101287739.43845  24735499.900          35.850          32.700
> 2015 08 26 08 36 30.0000000  0  8
G02  21602704.580   113523003.781 8  88459465.44247  21602698.700          49.400          43.250
G05  21861442.600   114882769.296 8  89519097.28347  21861441.300          48.850          42.750
G06  21042687.940   110580075.023 8  86166293.14547  21042687.660          50.100          45.750
G09  22634482.900   118945031.338 7  92684447.47346  22634482.480          46.550          40.600
G12  22443414.800   117940952.831 8  91902034.71946  22443412.280          48.200          41.700
G17  21699412.920   114031168.109 8  88855436.09847  21699410.600          49.650          43.000
G23  25088411.720   131840491.266 7 102732860.47846  25088407.760          43.500          36.800
G25  24724348.620   129927329.403 6 101242087.39445  24724351.120          36.750          32.700
> 2015 08 26 08 37 00.0000000  0  8
G02  21595959.800   113487559.849 8  88431846.82847  21595953.900          49.700          43.550
G05  21847424.920   114809106.250 8  89461697.60347  21847423.580          48.450          43.100
G06  21045429.740   110594483.195 8  86177520.28847  21045429.460          50.050          45.550
G09  22636289.840   118954527.001 7  92691846.73346  22636289.400          46.450          41.100
G12  22442442.000   117935840.630 8  91898051.18846  22442439.480          48.150          41.600
G17  21711464.560   114094499.621 8  88904785.26147  21711462.240          49.250          43.550
G23  25099257.720   131897487.438 7 102777273.08846  25099253.780          43.900          36.000
G25  24713286.280   129869197.050 6 101196789.55544  24713288.760          37.250          28.050
> 2015 08 26 08 37 30.0000000  0  8
G02  21589226.460   113452176.163 8  88404275.16847  21589220.560          49.750          43.650
G05  21833477.360   114735811.748 8  89404585.10447  21833476.000          48.450          43.400
G06  21048196.860   110609024.583 8  86188851.23947  21048196.600          49.850          45.700
G09  22638201.140   118964571.032 7  92699673.25746  22638200.700          46.850          41.500
G12  22441578.340   117931302.050 8  91894514.62946  22441575.820          48.050          41.800
G17  21723592.720   114158233.183 8  88954447.69647  21723590.400          49.500          43.850
G23  25110178.120   131954874.415 7 102821990.19045  25110174.180          42.900          35.150
G25  24702310.860   129811521.081 6 101151847.27445  24702313.300          39.300          32.950
> 2015 08 26 08 38 00.0000000  0  8
G02  21582504.700   113416853.147 8  88376750.77947  21582498.760          49.850          43.500
G05  21819600.120   114662886.811 8  89347760.58947  21819598.740          48.700          43.250
G06  21050989.360   110623699.369 8  86200286.13647  21050989.140          50.000          45.250
G09  22640216.840   118975163.728 7  92707927.35546  22640216.380          47.000          41.700
G12  22440823.640   117927336.091 8  91891424.28147  22440821.120          48.100          42.000
G17  21735797.260   114222368.245 8  89004423.01447  21735794.940          49.400          43.300
G23  25121172.620   132012650.857 6 102867010.78245  25121168.720          40.700          35.350
G25  24691422.580   129754303.151 6 101107261.91745  24691425.000          39.400          33.150
> 2015 08 26 08 38 30.0000000  0  8
G02  21575794.880   113381592.910 8  88349275.30047  21575788.940          49.600          43.600
G05  21805793.760   114590334.291 8  89291226.28147  21805792.340          48.750          43.400
G06  21053807.680   110638509.675 8  86211826.62047  21053807.460          49.850          45.350
G09  22642337.380   118986307.296 7  92716610.65546  22642336.940          46.800          40.850
G12  22440178.280   117923944.648 7  91888781.59447  22440175.740          47.400          42.650
G17  21748078.440   114286906.024 8  89054712.13147  21748076.120          49.150          44.100
G23  25132241.280   132070817.166 7 102912335.15445  25132237.460          42.250          34.950
G25  24680622.200   129697546.926 6 101063036.33845  24680624.540          40.400          34.050
> 2015 08 26 08 39 00.0000000  0  8
G02  21569096.260   113346391.563 8  88321845.71247  21569090.320          49.850          43.200
G05  21792057.700   114518151.261 8  89234979.88847  21792056.260          48.800          43.550
G06  21056651.020   110653451.675 8  86223469.74947  21056650.820          49.900          45.600
G09  22644562.020   118997997.916 7  92725720.25346  22644561.560          46.650          40.650
G12  22439641.380   117921123.199 8  91886583.04847  22439638.860          48.000          42.900
G17  21760435.460   114351842.373 8  89105311.84347  21760433.140          49.300          44.050
G23  25143383.080   132129367.888 7 102957959.08145  25143379.320          42.150          35.050
G25  24669909.240   129641250.062 6 101019168.69346  24669911.520          40.750          37.050
> 2015 08 26 08 39 30.0000000  0  8
G02  21562408.880   113311249.228 8  88294462.11247  21562402.920          49.400          43.350
G05  21778392.200   114446339.033 8  89179022.41947  21778390.740          48.900          43.100
G06  21059519.480   110668525.607 8  86235215.67047  21059519.300          49.950          45.300
G09  22646890.800   119010235.926 7  92735256.40046  22646890.340          46.250          40.800
G12  22439212.880   117918871.519 8  91884828.51746  22439210.380          48.550          41.800
G17  21772868.040   114417175.925 8  89156221.05947  21772865.740          49.550          44.150
G23  25154597.720   132188301.246 6 103003881.15945  25154593.980          40.750          33.850
G25  24659284.060   129585414.267 6 100975660.31446  24659286.300          40.050          37.400
> 2015 08 26 08 40 00.0000000  0  8
G02  21555733.260   113276168.727 8  88267126.67847  21555727.300          49.650          43.850
G05  21764797.960   114374901.167 8  89123356.66847  21764796.460          49.000          43.800
G06  21062413.600   110683734.276 8  86247066.58747  21062413.420          50.100          45.700
G09  22649324.300   119023024.165 7  92745221.30346  22649323.800          46.800          39.700
G12  22438893.360   117917192.524 8  91883520.22247  22438890.860          48.550          42.250
G17  21785376.620   114482908.689 8  89207441.33547  21785374.340          49.550          44.750
G23  25165885.520   132247619.053 6 103050102.82845  25165881.780          41.800          32.600
G25  24648747.420   129530043.850 6 100932514.57246  24648749.640          39.400          37.700
> 2015 08 26 08 40 30.0000000  0  8
G02  21549069.120   113241148.639 8  88239838.32747  21549063.180          49.600          43.800
G05  21751274.820   114303837.096 8  89067982.20547  21751273.280          48.800          43.300
G06  21065333.060   110699076.208 8  86259021.33947  21065332.880          50.200          45.450
G09  22651862.220   119036361.078 7  92755613.71446  22651861.700          46.900          40.300
G12  22438682.120   117916082.619 8  91882655.39346  22438679.620          48.350          41.700
G17  21797960.760   114549038.565 8  89258971.05147  21797958.520          49.700          43.950
G23  25177245.860   132307317.996 7 103096621.48845  25177242.100          42.300          35.900
G25  24638299.300   129475138.743 6 100889731.42646  24638301.480          39.600          36.300
> 2015 08 26 08 41 00.0000000  0  8
G02  21542416.880   113206191.027 8  88212598.65647  21542410.960          49.750          44.000
G05  21737823.260   114233149.184 8  89012900.82747  21737821.720          48.250          44.050
G06  21068278.220   110714553.060 8  86271081.21847  21068278.040          50.250          45.700
G09  22654504.880   119050248.255 7  92766434.90046  22654504.340          46.600          40.150
G12  22438579.540   117915543.586 8  91882235.37646  22438577.020          48.050          41.650
G17  21810620.580   114615565.932 8  89310810.48447  21810618.340          49.300          43.600
G23  25188678.680   132367397.749 7 103143436.85446  25188674.920          43.200          37.600
G25  24627940.360   129420702.080 6 100847313.26246  24627942.520          38.850          36.600
> 2015 08 26 08 41 30.0000000  0  8
G02  21535776.880   113171297.754 8  88185409.11947  21535770.960          49.800          44.650
G05  21724443.880   114162840.574 8  88958115.01047  21724442.340          48.650          44.050
G06  21071249.440   110730166.895 8  86283247.84447  21071249.240          50.100          45.900
G09  22657252.580   119064687.632 7  92777686.40346  22657252.020          45.750          40.900
G12  22438585.820   117915576.630 7  91882261.13847  22438583.300          47.600          42.200
G17  21823356.300   114682492.243 8  89362960.78747  21823354.060          49.550          44.500
G23  25200184.000   132427858.407 7 103190549.04446  25200180.240          43.550          38.500
G25  24617671.180   129366737.293 6 100805262.82845  24617673.340          37.050          33.650
> 2015 08 26 08 42 00.0000000  0  8
G02  21529148.180   113136463.816 8  88158265.82047  21529142.260          49.600          44.350
G05  21711135.880   114092906.975 8  88903621.38847  21711134.320          48.900          43.300
G06  21074245.820   110745912.960 8  86295517.50747  21074245.600          50.000          45.850
G09  22660104.500   119079674.449 7  92789364.44246  22660103.920          46.150          40.700
G12  22438699.900   117916176.043 8  91882728.19946  22438697.380          48.350          41.850
G17  21836166.800   114749811.394 8  89415417.18647  21836164.540          49.300          43.850
G23  25211760.680   132488693.790 7 103237953.19645  25211756.900          43.000          34.800
G25  24607491.080   129313240.938 6 100763577.40945  24607493.300          37.250          30.750
> 2015 08 26 08 42 30.0000000  0  8
G02  21522531.400   113101692.405 8  88131171.24347  21522525.460          50.150          43.850
G05  21697899.920   114023351.980 8  88849422.77547  21697898.340          49.150          43.900
G06  21077267.900   110761794.013 8  86307892.35047  21077267.660          50.050          45.900
G09  22663061.040   119095211.229 7  92801471.03946  22663060.460          46.050          40.700
G12  22438922.180   117917344.169 7  91883638.44147  22438919.680          46.950          42.000
G17  21849052.360   114817525.051 8  89468181.00947  21849050.100          48.900          43.750
G23  25223408.780   132549904.453 6 103285649.74545  25223404.960          39.900          33.200
G25  24597400.940   129260217.181 6 100722260.20045  24597403.200          37.700          33.200
> 2015 08 26 08 43 00.0000000  0  8
G02  21515926.500   113066983.511 8  88104125.37547  21515920.560          50.050          44.000
G05  21684736.200   113954176.545 8  88795519.92347  21684734.600          49.300          44.600
G06  21080315.660   110777810.076 8  86320372.39147  21080315.420          50.100          45.950
G09  22666122.220   119111297.818 7  92814006.05746  22666121.620          45.700          41.650
G12  22439252.480   117919079.957 7  91884991.00846  22439249.980          47.050          41.200
G17  21862012.780   114885632.299 8  89521251.55047  21862010.520          48.850          43.200
G23  25235128.040   132611489.257 6 103333637.86945  25235124.180          38.900          32.800
G25  24587401.000   129207667.404 6 100681312.34045  24587403.260          39.550          35.700
> 2015 08 26 08 43 30.0000000  0  8
G02  21509333.740   113032338.410 8  88077129.22647  21509327.780          49.850          43.950
G05  21671645.140   113885382.865 8  88741914.54447  21671643.500          49.100          44.350
G06  21083389.400   110793962.689 8  86332958.83647  21083389.180          50.050          46.100
G09  22669288.280   119127935.607 7  92826970.56846  22669287.680          45.250          41.550
G12  22439690.980   117921384.419 7  91886786.70946  22439688.480          47.500          41.150
G17  21875048.220   114954133.831 8  89574629.29547  21875046.000          48.650          44.300
G23  25246918.300   132673447.158 5 103381916.70445  25246914.440          35.650          35.500
G25  24577491.820   129155594.409 6 100640736.00345  24577494.060          39.550          31.750
> 2015 08 26 08 44 00.0000000  0  8
G02  21502752.300   112997752.678 8  88050179.33747  21502746.280          50.000          43.350
G05  21658625.980   113816967.086 8  88688603.61647  21658624.340          49.500          44.500
G06  21086488.240   110810247.096 8  86345647.98847  21086487.980          50.150          45.300
G09  22672558.180   119145119.444 7  92840360.63546  22672557.600          46.150          41.950
G12  22440236.540   117924251.437 7  91889020.74746  22440234.040          47.600          41.500
G17  21888157.640   115023024.132 8  89628309.98247  21888155.460          49.100          44.100
G23  25258778.340   132735772.034 6 103430481.50544  25258774.540          36.800          26.650
G25  24567672.680   129103994.588 6 100600528.37944  24567674.920          38.500          29.750
> 2015 08 26 08 44 30.0000000  0  8
G02  21496182.460   112963228.069 8  88023277.07047  21496176.440          49.950          43.550
G05  21645679.120   113748931.116 8  88635588.65147  21645677.440          49.650          44.000
G06  21089612.460   110826665.040 8  86358441.18847  21089612.220          50.150          45.650
G09  22675932.360   119162850.961 7  92854177.40546  22675931.800          46.700          41.500
G12  22440889.280   117927681.656 8  91891693.64746  22440886.780          48.200          41.750
G17  21901341.040   115092303.144 8  89682293.55547  21901338.900          49.300          44.600
G23  25270707.960   132798463.882 6                                        37.300
G25  24557944.160   129052871.117 6 100560691.93745  24557946.440          39.950          31.800
> 2015 08 26 08 45 00.0000000  0  8
G02  21489624.720   112928766.953 8  87996424.26847  21489618.700          49.850          44.000
G05  21632805.180   113681278.323 8  88582872.26547  21632803.460          49.250          44.650
G06  21092762.560   110843218.862 8  86371340.27647  21092762.300          50.200          46.150
G09  22679411.100   119181132.105 7  92868422.46946  22679410.580          46.600          41.300
G12  22441649.540   117931676.886 8  91894806.83447  22441647.060          48.250          42.200
G17  21914598.700   115161972.346 8  89736581.18447  21914596.580          49.200          43.800
G23  25282707.680   132861523.043 6 103528461.44545  25282701.140          39.350          32.600
G25  24548306.940   129002227.473 6 100521229.40445  24548309.240          41.850          32.700
> 2015 08 26 08 45 30.0000000  0  8
G02  21483079.380   112894371.014 8  87969622.26447  21483073.340          49.700          44.050
G05  21620004.600   113614010.942 8  88530456.17347  21620002.840          48.600          44.350
G06  21095938.820   110859910.184 8  86384346.49547  21095938.580          50.250          46.100
G09  22682994.700   119199964.155 7  92883096.82246  22682994.160          46.400          41.600
G12  22442517.460   117936237.698 7  91898360.69646  22442514.980          47.700          41.300
G17  21927930.700   115232032.203 8  89791173.20747  21927928.640          49.250          43.700
G23  25294777.100   132924948.957 7 103577884.25945  25294772.880          43.650          32.700
G25  24538761.600   128952066.454 6 100482142.93345  24538763.880          40.650          32.600
> 2015 08 26 08 46 00.0000000  0  8
G02  21476545.400   112860034.828 8  87942866.81747  21476539.360          49.600          43.950
G05  21607276.400   113547124.167 8  88478336.66547  21607274.640          48.700          44.400
G06  21099140.200   110876733.568 8  86397455.62347  21099139.980          49.850          45.550
G09  22686682.020   119219341.297 7  92898195.93146  22686681.460          46.100          41.800
G12  22443491.760   117941357.684 7  91902350.29646  22443489.280          47.650          41.400
G17  21941335.740   115302475.912 8  89846064.35547  21941333.700          49.150          42.750
G23  25306915.240   132988734.412 7 103627587.12145  25306911.520          45.350          31.950
G25  24529307.360   128902383.749 6 100443429.03245  24529309.680          40.950          30.550
> 2015 08 26 08 46 30.0000000  0  8
G02  21470023.780   112825763.643 8  87916162.02347  21470017.760          49.700          44.200
G05  21594621.740   113480623.843 8  88426518.29447  21594619.980          48.950          44.550
G06  21102367.740   110893694.345 8  86410671.80047  21102367.520          49.700          45.700
G09  22690474.020   119239268.486 7  92913723.62346  22690473.460          45.400          41.000
G12  22444573.360   117947041.341 7  91906779.10146  22444570.860          47.900          41.950
G17  21954814.640   115373307.544 8  89901257.76547  21954812.600          48.800          42.600
G23  25319122.520   133052883.289 7 103677573.24145  25319118.880          44.100          31.200
G25  24519945.280   128853185.904 6 100405093.12145  24519947.540          40.850          31.500
> 2015 08 26 08 47 00.0000000  0  8
G02  21463514.720   112791558.368 8  87889508.57347  21463508.720          49.750          44.300
G05  21582040.900   113414511.474 8  88375002.23647  21582039.120          48.850          44.900
G06  21105621.500   110910793.113 8  86423995.52247  21105621.300          49.600          45.250
G09  22694370.720   119259745.885 7  92929680.05846  22694370.160          45.900          40.350
G12  22445762.000   117953287.613 8  91911646.31847  22445759.500          48.000          42.300
G17  21968367.320   115444527.098 8  89956753.45247  21968365.300          48.850          42.300
G23  25331398.440   133117393.395 7 103727840.81745  25331394.880          42.900          34.850
G25  24510675.800   128804474.687 6 100367136.40845  24510677.980          40.550          31.700
> 2015 08 26 08 47 30.0000000  0  8
G02  21457017.640   112757416.216 8  87862904.33447  21457011.660          50.200          43.500
G05  21569533.460   113348784.643 8  88323786.58847  21569531.660          49.400          44.550
G06  21108901.000   110928027.133 8  86437424.63347  21108900.820          50.000          45.550
G09  22698371.520   119280770.313 7  92946062.71946  22698371.000          45.900          40.800
G12  22447057.000   117960092.797 8  91916949.04947  22447054.500          48.250          42.200
G17  21981993.020   115516130.357 8  90012548.13747  21981990.980          49.050          42.750
G23  25343742.080   133182260.189 7 103778386.41645  25343738.520          43.050          32.250
G25  24501498.620   128756248.312 6 100329557.44344  24501500.760          38.950          29.050
> 2015 08 26 08 48 00.0000000  0  8
G02  21450532.820   112723338.244 8  87836350.08247  21450526.820          50.100          43.650
G05  21557099.640   113283444.801 8  88272872.50547  21557097.800          49.400          44.200
G06  21112206.440   110945397.393 8  86450959.90047  21112206.260          50.000          45.350
G09  22702476.500   119302342.175 7  92962871.96246  22702476.000          46.550          40.200
G12  22448458.340   117967456.762 8  91922687.19347  22448455.840          48.250          42.600
G17  21995691.580   115588116.505 8  90068641.17647  21995689.520          48.850          43.000
G23  25356153.560   133247483.411 7 103829209.74144  25356149.980          42.800          29.300
G25  24492414.140   128708508.958 6 100292357.96944  24492416.200          41.100          27.750
> 2015 08 26 08 48 30.0000000  0  8
G02  21444060.800   112689327.657 8  87809848.35547  21444054.800          49.950          44.000
G05  21544740.200   113218495.774 8  88222262.94747  21544738.340          49.400          44.600
G06  21115538.460   110962907.229 8  86464603.92247  21115538.280          50.050          45.550
G09  22706686.220   119324464.356 7  92980110.02746  22706685.700          45.750          39.850
G12  22449966.460   117975381.834 8  91928862.55347  22449963.940          48.550          42.350
G17  22009463.460   115660488.025 8  90125034.50647  22009461.420          48.850          43.600
G23  25368633.120   133313063.621 6 103880311.12745  25368629.480          39.700          33.250
G25  24483423.100   128661260.871 6 100255541.32345  24483425.100          39.900          31.200
> 2015 08 26 08 49 00.0000000  0  8
G02  21437601.020   112655381.229 8  87783396.60547  21437594.980          49.650          43.750
G05  21532454.700   113153935.296 8  88171956.16547  21532452.800          49.250          44.550
G06  21118896.380   110980553.281 8  86478354.08447  21118896.220          50.150          45.700
G09  22710999.900   119347132.934 7  92997773.88146  22710999.360          45.600          39.850
G12  22451580.420   117983863.206 7  91935471.39846  22451577.920          47.900          41.600
G17  22023307.760   115733240.095 8  90181724.36447  22023305.740          48.700          44.100
G23  25381179.600   133378995.698 6 103931686.71645  25381175.940          40.650          35.000
G25  24474525.160   128614501.752 6 100219105.64045  24474527.120          38.950          32.450
> 2015 08 26 08 49 30.0000000  0  8
G02  21431153.280   112621498.210 8  87756994.26947  21431147.240          49.600          44.050
G05  21520242.860   113089762.087 8  88121951.16147  21520240.960          49.400          45.450
G06  21122280.040   110998334.450 8  86492209.54147  21122279.860          50.250          46.050
G09  22715417.220   119370346.199 7  93015862.15046  22715416.700          46.050          40.350
G12  22453299.840   117992898.659 8  91942511.97647  22453297.340          48.350          42.400
G17  22037224.040   115806370.409 8  90238708.95547  22037222.080          49.000          44.350
G23  25393792.400   133445276.273 6 103983333.86645  25393788.700          39.500          31.550
G25  24465720.200   128568231.522 6 100183050.96844  24465722.160          38.300          27.800
> 2015 08 26 08 50 00.0000000  0  8
G02  21424718.360   112587682.630 8  87730644.49547  21424712.320          49.600          43.900
G05  21508105.660   113025981.007 8  88072251.71347  21508103.740          49.550          44.850
G06  21125690.220   111016255.062 8  86506173.66447  21125690.020          49.950          45.950
G09  22719938.940   119394107.925 7  93034377.77246  22719938.420          45.400          40.150
G12  22455125.360   118002491.658 7  91949987.01646  22455122.840          47.700          41.300
G17  22051212.900   115879882.099 8  90295990.72847  22051210.960          48.550          43.750
G23  25406471.960   133511907.889 5 104035254.64345  25406468.220          34.000          32.550
G25  24457009.280   128522455.460 6 100147381.31645  24457011.260          37.950          34.400
> 2015 08 26 08 50 30.0000000  0  8
G02  21418296.540   112553935.901 8  87704348.37547  21418290.500          49.750          43.900
G05  21496043.420   112962593.884 8  88022859.25147  21496041.480          49.750          44.400
G06  21129127.160   111034316.232 8  86520247.30547  21129126.960          49.950          45.850
G09  22724565.060   119418418.507 7  93053321.10546  22724564.540          46.400          39.600
G12  22457056.820   118012641.326 7  91957895.81346  22457054.280          47.350          41.150
G17  22065274.300   115953774.795 8  90353569.36647  22065272.380          48.150          43.000
G23  25419218.060   133578889.598 6 104087448.15645  25419214.400          36.750          32.150
G25  24448392.720   128477175.596 6 100112098.41644  24448394.660          37.500          26.900
> 2015 08 26 08 51 00.0000000  0  8
G02  21411886.180   112520249.450 8  87678099.21547  21411880.160          49.850          44.150
G05  21484054.580   112899592.367 8  87973767.25047  21484052.600          49.900          44.650
G06  21132589.220   111052509.436 8  86534423.83047  21132589.020          49.950          45.700
G09  22729293.920   119443268.829 7  93072684.99946  22729293.380          46.850          39.800
G12  22459092.360   118023338.071 7  91966230.92346  22459089.820          47.950          41.600
G17  22079406.220   116028038.307 7  90411436.96047  22079404.320          47.950          43.250
G23  25432028.820   133646210.912 5 104139906.27745  25432025.260          35.800          30.950
G25  24439869.220   128432384.354 6 100077196.16845  24439871.100          38.750          31.850
> 2015 08 26 08 51 30.0000000  0  8
G02  21405489.220   112486633.253 8  87651904.80147  21405483.200          49.750          44.750
G05  21472141.080   112836986.775 8  87924983.76347  21472139.060          49.600          44.700
G06  21136078.260   111070844.410 8  86548710.81447  21136078.060          50.000          45.800
G09  22734127.180   119468667.858 7  93092476.46646  22734126.640          46.250          41.000
G12  22461233.620   118034590.300 7  91974998.85547  22461231.100          47.550          42.550
G17  22093610.360   116102681.369 8  90469600.29747  22093608.500          48.550          42.900
G23  25444905.580   133713879.026 6 104192634.62945  25444902.120          41.300          30.200
G25  24431440.760   128388092.343 6 100042682.89845  24431442.560          39.900          30.900
> 2015 08 26 08 52 00.0000000  0  7
G02  21399103.500   112453076.165 8  87625756.44147  21399097.480          49.900          44.600
G05  21460300.900   112774766.472 8  87876500.49847  21460298.840          49.600          44.350
G06  21139592.160   111089310.047 8  86563099.61247  21139591.980          49.850          45.650
G09  22739062.600   119494603.781 7  93112686.30346  22739062.060          47.000          41.200
G12  22463478.220   118046385.664 8  91984190.02846  22463475.700          48.100          41.000
G17  22107884.320   116177691.286 8  90528049.50947  22107882.480          48.800          43.350
G25  24423105.300   128344289.302 5 100008550.72644  24423107.000          35.600          28.350
> 2015 08 26 08 52 30.0000000  0  7
G02  21392732.020   112419593.964 8  87599666.44347  21392726.020          49.850          44.550
G05  21448537.080   112712947.551 8  87828329.98647  21448535.020          49.600          44.750
G06  21143133.920   111107922.195 8  86577602.59147  21143133.760          49.800          45.750
G09  22744103.100   119521091.721 7  93133326.25846  22744102.560          47.150          41.000
G12  22465828.820   118058738.055 7  91993815.24446  22465826.320          47.850          41.650
G17  22122230.820   116253082.400 8  90586795.76247  22122229.000          48.800          42.950
G25  24414866.000   128300991.819 6  99974812.46845  24414867.720          38.900          30.600
> 2015 08 26 08 53 00.0000000  0  7
G02  21386373.160   112386177.953 8  87573628.00347  21386367.140          50.100          45.000
G05  21436847.940   112651521.058 8  87780465.23347  21436845.900          49.800          44.800
G06  21146701.860   111126671.781 8  86592212.63947  21146701.720          49.750          45.750
G09  22749246.780   119548121.769 7  93154388.63546  22749246.220          46.350          41.500
G12  22468283.520   118071637.520 8  92003866.73246  22468281.040          48.000          41.150
G17  22136647.840   116328844.078 7  90645830.75447  22136646.060          47.900          43.400
G25  24406721.400   128258191.778 6  99941461.80145  24406723.140          38.100          31.000
> 2015 08 26 08 53 30.0000000  0  7
G02  21380027.260   112352830.168 8  87547642.74547  21380021.240          50.350          44.300
G05  21425234.020   112590489.791 8  87732908.47747  21425231.980          49.950          44.300
G06  21150296.380   111145561.113 8  86606931.58347  21150296.260          49.750          45.000
G09  22754493.880   119575695.423 7  93175874.60446  22754493.300          46.800          41.200
G12  22470842.400   118085084.415 8  92014344.80546  22470839.940          48.350          41.700
G17  22151135.620   116404977.626 8  90705155.53147  22151133.880          48.400          42.800
G25  24398671.980   128215892.140 6  99908501.08144  24398673.740          40.600          28.600
> 2015 08 26 08 54 00.0000000  0  7
G02  21373693.920   112319548.266 8  87521708.82347  21373687.880          50.100          45.000
G05  21413694.900   112529851.590 8  87685657.97847  21413692.860          49.800          44.800
G06  21153916.980   111164587.582 8  86621757.38847  21153916.900          49.800          45.400
G09  22759843.760   119603809.175 7  93197781.43346  22759843.160          46.050          41.550
G12  22473504.740   118099074.859 8  92025246.39747  22473502.260          48.350          42.750
G17  22165693.300   116481478.535 8  90764766.55047  22165691.600          48.700          42.600
G25  24390717.500   128174091.118 6  99875928.87945  24390719.240          39.250          34.650
> 2015 08 26 08 54 30.0000000  0  7
G02  21367373.760   112286335.700 8  87495828.92347  21367367.720          49.900          44.600
G05  21402231.300   112469610.141 8  87638716.62647  21402229.240          49.700          45.000
G06  21157564.340   111183754.554 8  86636692.67547  21157564.260          49.900          45.650
G09  22765296.900   119632465.619 7  93220111.13646  22765296.300          45.950          41.450
G12  22476270.880   118113610.721 8  92036572.99347  22476268.380          48.400          42.600
G17  22180321.240   116558348.600 8  90824665.21847  22180319.580          49.100          43.100
G25  24382858.680   128132792.740 6  99843748.38045  24382860.380          37.350          34.200
> 2015 08 26 08 55 00.0000000  0  7
G02  21361067.300   112253195.043 8  87470005.05047  21361061.240          50.100          44.800
G05  21390843.620   112409767.708 8  87592086.17947  21390841.580          50.150          45.000
G06  21161238.900   111203064.505 8  86651739.38047  21161238.820          49.900          45.850
G09  22770853.580   119661666.206 7  93242864.85746  22770852.980          45.800          40.550
G12  22479140.940   118128692.775 8  92048325.21447  22479138.440          48.350          42.050
G17  22195019.640   116635588.743 8  90884852.25447  22195017.980          49.000          42.900
G25  24375096.140   128092000.247 6  99811962.03345  24375097.860          36.600          33.300
> 2015 08 26 08 55 30.0000000  0  7
G02  21354774.540   112220126.471 8  87444237.35847  21354768.460          50.050          44.600
G05  21379532.060   112350325.206 8  87545767.39147  21379530.000          50.350          44.950
G06  21164940.740   111222517.689 8  86666897.68547  21164940.660          49.600          45.900
G09  22776513.680   119691410.274 7  93266042.06546  22776513.060          46.150          40.150
G12  22482114.660   118144319.650 7  92060501.97447  22482112.160          47.650          42.000
G17  22209788.240   116713197.861 8  90945326.83247  22209786.560          48.650          43.100
G25  24367430.000   128051714.383 5  99780570.45144  24367431.740          35.950          28.250
> 2015 08 26 08 56 00.0000000  0  7
G02  21348494.940   112187127.000 8  87418523.50147  21348488.860          50.000          44.550
G05  21368296.040   112291279.601 8  87499757.86247  21368293.940          50.250          45.350
G06  21168669.220   111242111.031 8  86682165.21647  21168669.160          49.650          46.000
G09  22782276.460   119721693.824 7  93289639.63746  22782275.820          45.800          40.650
G12  22485191.260   118160487.200 7  92073100.04047  22485188.760          47.900          42.100
G17  22224626.140   116791171.113 8  91006085.13247  22224624.460          48.450          42.600
G25  24359859.780   128011932.923 6  99749571.93845  24359861.560          37.750          33.350
> 2015 08 26 08 56 30.0000000  0  7
G02  21342228.940   112154198.974 8  87392865.31647  21342222.860          49.700          44.250
G05  21357135.900   112232632.767 8  87454059.05647  21357133.780          49.950          45.600
G06  21172424.720   111261846.222 8  86697543.26247  21172424.680          49.700          45.900
G09  22788142.000   119752517.511 7  93313658.11646  22788141.340          45.450          39.850
G12  22488370.580   118177194.466 7  92086118.65847  22488368.080          47.950          42.250
G17  22239533.360   116869508.668 8  91067127.31146  22239531.660          48.300          41.900
G25  24352385.960   127972658.107 6  99718968.25545  24352387.780          37.500          34.050
> 2015 08 26 08 57 00.0000000  0  7
G02  21335975.400   112121336.499 8  87367258.20547  21335969.320          49.650          44.200
G05  21346050.700   112174379.718 8  87408667.11047  21346048.540          50.200          45.400
G06  21176206.120   111281717.608 8  86713027.44947  21176206.100          49.700          45.750
G09  22794109.040   119783874.662 7  93338092.26646  22794108.380          45.600          39.350
G12  22491651.240   118194434.438 8  92099552.38046  22491648.740          48.100          41.300
G17  22254508.480   116948203.249 8  91128447.69446  22254506.800          48.100          41.700
G25  24345007.560   127933884.842 6  99688755.39545  24345009.400          39.850          34.200
> 2015 08 26 08 57 30.0000000  0  8
G02  21329736.040   112088548.486 8  87341709.12447  21329729.940          49.850          43.900
G05  21335042.060   112116529.075 8  87363588.73547  21335039.880          50.050          45.300
G06  21180015.180   111301734.193 8  86728624.76347  21180015.140          49.800          45.750
G09  22800179.120   119815773.222 7  93362948.30546  22800178.440          44.850          40.550
G12  22495034.740   118212214.756 8  92113407.15946  22495032.220          48.250          41.450
G13  25383599.800   133391709.502 6 103941624.91844  25383607.880          41.000          29.250
G17  22269552.940   117027262.073 8  91190051.90146  22269551.240          48.050          41.700
G25  24337726.500   127895622.737 6  99658940.79245  24337728.340          38.250          32.550
> 2015 08 26 08 58 00.0000000  0  8
G02  21323501.320   112055785.011 8  87316179.17247  21323495.200          50.050          43.500
G05  21324100.480   112059030.825 8  87318784.96447  21324098.260          50.050          45.400
G06  21183842.320   111321845.932 8  86744296.23347  21183842.300          49.750          45.900
G09  22806342.480   119848162.052 7  93388186.35146  22806341.800          45.800          40.600
G12  22498511.140   118230483.287 8  92127642.37447  22498508.580          48.350          42.400
G13  25364221.620   133289872.372 6 103862270.21743  25364230.460          41.900          23.800
G17  22284656.880   117106633.554 8  91251899.73447  22284655.180          48.250          42.100
G25  24330533.240   127857822.221 6  99629485.92445  24330535.080          40.250          31.100
> 2015 08 26 08 58 30.0000000  0  8
G02  21317289.960   112023144.238 8  87290744.81647  21317283.840          49.850          43.750
G05  21313244.700   112001983.637 8  87274332.67747  21313242.460          50.000          45.650
G06  21187706.220   111342150.776 8  86760118.16647  21187706.220          49.800          45.250
G09  22812617.580   119881137.983 7  93413881.87346  22812616.900          46.500          40.850
G12  22502098.800   118249336.489 7  92142333.14846  22502096.240          47.950          41.900
G13  25344821.940   133187922.592 6 103782850.49843  25344833.100          40.850          22.100
G17  22299838.620   117186413.855 8  91314066.11947  22299836.960          48.300          42.500
G25  24323446.660   127820581.863 6  99600467.46245  24323448.500          40.800          30.950
> 2015 08 26 08 59 00.0000000  0  8
G02  21311091.180   111990569.445 8  87265361.88147  21311085.020          50.000          44.100
G05  21302463.860   111945330.342 8  87230187.34347  21302461.600          50.000          45.600
G06  21191596.020   111362591.753 8  86776046.18747  21191596.020          49.700          45.400
G09  22818993.380   119914642.941 7  93439989.62646  22818992.700          46.450          41.100
G12  22505786.420   118268714.992 8  92157433.25846  22505783.860          48.300          41.400
G13  25325390.560   133085804.954 6 103703323.14145  25325406.580          41.850          30.650
G17  22315087.000   117266544.325 8  91376505.35647  22315085.380          48.300          42.700
G25  24316455.900   127783845.027 6  99571841.35145  24316457.740          37.250          32.500
> 2015 08 26 08 59 30.0000000  0  8
G02  21304906.980   111958071.384 8  87240038.74147  21304900.800          49.900          43.850
G05  21291760.100   111889081.964 8  87186357.51147  21291757.800          50.050          45.100
G06  21195513.780   111383179.686 8  86792088.73347  21195513.760          49.650          45.400
G09  22825471.660   119948686.553 7  93466517.11646  22825470.980          46.700          40.150
G12  22509575.800   118288628.211 7  92172950.03946  22509573.240          47.900          41.650
G13  25305929.800   132983532.649 6 103623601.26044  25305941.920          41.550          29.250
G17  22330403.740   117347034.077 8  91439224.55747  22330402.180          48.900          42.250
G25  24309563.020   127747623.069 5  99543616.53545  24309564.880          35.950          34.550
> 2015 08 26 09 00 00.0000000  0  8
G02  21298736.560   111925645.545 8  87214771.86147  21298730.360          49.950          43.650
G05  21281132.440   111833233.460 8  87142839.26047  21281130.120          49.950          45.100
G06  21199458.580   111403909.729 8  86808242.00147  21199458.560          49.450          44.700
G09  22832051.300   119983262.826 7  93493459.67346  22832050.600          46.900          39.300
G12  22513465.640   118309069.219 7  92188878.06046  22513463.080          47.550          40.650
G13  25286438.780   132881102.614 6 103543784.55745  25286451.460          41.750          32.150
G17  22345787.620   117427876.447 8  91502218.52246  22345786.080          48.800          41.700
G25  24302767.240   127711911.453 6  99515789.41645  24302769.100          38.400          33.800
> 2015 08 26 09 00 30.0000000  0  8
G02  21292580.300   111893294.246 8  87189563.06947  21292574.080          49.900          44.250
G05  21270581.300   111777787.218 8  87099634.47647  21270578.940          49.850          45.050
G06  21203430.880   111424784.307 8  86824507.89947  21203430.860          49.700          45.500
G09  22838732.500   120018372.898 7  93520818.19546  22838731.800          46.550          40.550
G12  22517456.020   118330038.739 7  92205217.93646  22517453.460          47.650          41.250
G13  25266918.560   132778519.130 6 103463848.28744  25266932.180          41.750          27.050
G17  22361238.740   117509072.242 8  91565487.90546  22361237.200          48.350          41.450
G25  24296069.220   127676713.099 6  99488362.10745  24296071.140          36.900          32.150
> 2015 08 26 09 01 00.0000000  0  8
G02  21286437.740   111861014.901 8  87164410.35247  21286431.500          49.700          43.950
G05  21260106.220   111722740.574 8  87056741.05547  21260103.840          50.250          45.700
G06  21207430.140   111445800.639 8  86840884.25747  21207430.140          49.800          45.750
G09  22845514.560   120054012.790 7  93548589.51946  22845513.860          47.100          39.800
G12  22521546.120   118351532.097 7  92221965.92146  22521543.600          47.600          40.850
G13  25247368.980   132675781.516 6 103383791.98644  25247383.220          38.950          28.550
G17  22376756.240   117590616.910 7  91629029.12347  22376754.720          47.650          42.300
G25  24289468.380   127642025.514 6  99461332.84145  24289470.320          38.600          31.750
> 2015 08 26 09 01 30.0000000  0  8
G02  21280318.960   111828860.621 8  87139355.09547  21280312.720          49.750          43.900
G05  21249717.240   111668146.408 8  87014200.21947  21249714.840          50.250          45.900
G06  21211466.460   111467011.583 8  86857412.25447  21211466.440          49.800          45.800
G09  22852407.240   120090234.071 7  93576813.91646  22852406.500          46.250          40.300
G12  22525745.560   118373600.166 8  92239161.78946  22525743.040          48.300          41.050
G13  25227800.500   132572944.912 6 103303658.63644  25227815.040          40.600          29.900
G17  22392349.800   117672561.306 7  91692881.82147  22392348.300          47.800          42.600
G25  24282974.800   127607901.989 6  99434743.19745  24282976.720          37.950          33.900
> 2015 08 26 09 02 00.0000000  0  8
G02  21274199.620   111796703.493 8  87114297.61547  21274193.380          49.600          44.350
G05  21239390.100   111613877.060 8  86971912.47747  21239387.660          50.200          45.750
G06  21215515.500   111488289.343 8  86873992.32047  21215515.480          49.700          45.100
G09  22859385.980   120126907.578 7  93605390.66546  22859385.260          46.200          40.500
G12  22530029.680   118396113.327 8  92256704.46446  22530027.180          48.400          40.750
G13  25208189.020   132469882.799 6 103223349.56845  25208203.740          36.550          33.500
G17  22407994.780   117754776.002 7  91756945.13946  22407993.300          47.900          41.800
G25  24276564.380   127574214.936 6  99408493.54645  24276566.300          40.050          31.150
> 2015 08 26 09 02 30.0000000  0  8
G02  21268097.820   111764638.410 8  87089311.84847  21268091.560          49.900          44.050
G05  21229142.840   111560027.550 8  86929951.88447  21229140.380          50.000          45.550
G06  21219595.300   111509728.802 8  86890698.38847  21219595.260          49.650          44.350
G09  22866468.600   120164126.940 7  93634392.77546  22866467.860          46.900          39.700
G12  22534416.080   118419163.867 8  92274665.88146  22534413.580          48.700          41.350
G13  25188552.960   132366692.487 6 103142940.70245  25188567.960          37.500          34.300
G17  22423708.940   117837354.158 8  91821291.67647  22423707.480          48.600          42.000
G25  24270255.180   127541059.740 6  99382658.32245  24270257.040          38.700          34.250
> 2015 08 26 09 03 00.0000000  0  8
G02  21262013.900   111732667.365 8  87064399.35047  21262007.660          49.900          43.800
G05  21218975.640   111506598.724 8  86888319.08247  21218973.160          50.050          44.800
G06  21223706.120   111531331.265 8  86907531.46647  21223706.060          49.600          43.900
G09  22873655.080   120201892.063 7  93663820.12846  22873654.340          46.550          39.700
G12  22538904.660   118442751.441 8  92293045.77446  22538902.180          48.400          40.000
G13  25168893.180   132263377.305 6 103062434.48245  25168908.500          40.200          35.500
G17  22439492.120   117920295.034 8  91885920.83646  22439490.680          48.800          41.200
G25  24264047.380   127508437.696 6  99357238.61345  24264049.180          40.500          35.200
> 2015 08 26 09 03 30.0000000  0  8
G02  21255948.580   111700793.949 8  87039562.93047  21255942.340          50.100          43.800
G05  21208889.160   111453594.098 8  86847016.82547  21208886.660          50.150          44.750
G06  21227848.620   111553100.260 8  86924494.31947  21227848.540          49.600          44.250
G09  22880945.820   120240205.110 7  93693674.44246  22880945.060          46.550          39.000
G12  22543495.760   118466877.626 8  92311845.37246  22543493.240          48.400          41.000
G13  25149210.700   132159942.617 6 102981835.21245  25149226.240          39.400          32.700
G17  22455344.680   118003600.502 8  91950834.10646  22455343.260          48.700          40.500
G25  24257941.880   127476352.738 6  99332237.29645  24257943.660          40.900          30.850
> 2015 08 26 09 04 00.0000000  0  8
G02  21249897.580   111668995.753 8  87014785.12547  21249891.320          50.000          44.200
G05  21198879.200   111400991.487 8  86806027.81647  21198876.660          50.200          45.400
G06  21232018.600   111575013.661 8  86941569.69847  21232018.500          49.450          45.000
G09  22888336.380   120279042.558 7  93723937.37246  22888335.580          45.950          40.550
G12  22548184.700   118491517.957 8  92331045.58546  22548182.180          48.450          40.900
G13  25129501.700   132056368.060 6 102901126.92745  25129517.420          40.150          32.550
G17  22471262.000   118087246.195 8  92016012.48546  22471260.560          48.250          41.250
G25  24251934.360   127444782.900 6  99307637.41245  24251936.120          39.600          30.850
> 2015 08 26 09 04 30.0000000  0  8
G02  21243857.220   111637253.528 8  86990050.93247  21243850.980          49.950          43.900
G05  21188942.040   111348771.519 8  86765336.97547  21188939.460          50.250          45.100
G06  21236212.400   111597052.265 8  86958742.62547  21236212.300          49.400          45.350
G09  22895822.760   120318383.713 7  93754592.82846  22895821.940          45.650          40.350
G12  22552967.460   118516651.265 7  92350629.94846  22552964.920          47.650          41.600
G13  25109762.800   131952636.602 6 102820296.54045  25109778.600          40.600          34.700
G17  22487240.100   118171211.188 7  92081439.65746  22487238.640          47.300          41.550
G25  24246021.240   127413709.158 6  99283424.11845  24246022.960          40.900          30.900
> 2015 08 26 09 05 00.0000000  0  8
G02  21237832.700   111605594.517 8  86965381.58347  21237826.440          49.850          43.950
G05  21179082.640   111296960.235 8  86724964.58747  21179080.060          50.150          45.350
G06  21240435.000   111619242.170 8  86976033.44747  21240434.920          49.750          45.350
G09  22903409.660   120358253.245 7  93785659.98946  22903408.860          45.550          40.150
G12  22557848.560   118542301.432 7  92370617.05446  22557846.000          47.500          41.150
G13  25089999.500   131848776.504 6 102739365.92444  25090015.320          39.950          29.700
G17  22503283.540   118255519.498 7  92147134.36046  22503282.060          47.300          40.400
G25  24240207.560   127383157.735 6  99259617.77445  24240209.280          38.350          35.200
> 2015 08 26 09 05 30.0000000  0  8
G02  21231823.760   111574017.303 8  86940775.97847  21231817.480          50.200          43.850
G05  21169300.840   111245556.593 8  86684909.83347  21169298.240          50.050          45.850
G06  21244686.220   111641582.529 8  86993441.50947  21244686.160          49.950          45.200
G09  22911096.700   120398648.813 7  93817137.02646  22911095.900          45.200          40.550
G12  22562827.400   118568465.342 8  92391004.46946  22562824.880          48.050          41.700
G13  25070211.880   131744788.785 6 102658335.93345  25070227.700          39.400          30.050
G17  22519391.840   118340168.755 7  92213094.72646  22519390.340          47.650          41.500
G25  24234493.120   127353127.803 6  99236217.76645  24234494.840          38.700          33.850
> 2015 08 26 09 06 00.0000000  0  8
G02  21225829.160   111542515.512 8  86916229.14147  21225822.860          50.200          43.600
G05  21159595.360   111194554.159 8  86645167.72047  21159592.760          49.950          45.250
G06  21248964.840   111664066.763 8  87010961.69047  21248964.760          49.650          45.450
G09  22918882.280   120439562.346 7  93849017.68346  22918881.500          45.000          41.050
G12  22567902.380   118595134.366 7  92411785.45946  22567899.880          47.850          40.950
G13  25050399.060   131640668.776 6 102577202.92445  25050414.820          38.450          32.850
G17  22535563.300   118425149.899 7  92279313.69046  22535561.820          47.400          41.500
G25  24228876.640   127323613.112 6  99213219.32345  24228878.380          38.200          34.000
> 2015 08 26 09 06 30.0000000  0  8
G02  21219849.900   111511094.307 8  86891745.09147  21219843.580          50.150          43.900
G05  21149967.000   111143957.122 8  86605741.50247  21149964.420          50.150          45.650
G06  21253271.800   111686699.878 8  87028597.86447  21253271.740          49.350          45.650
G09  22926767.060   120480997.244 7  93881304.62146  22926766.300          44.900          39.600
G12  22573074.020   118622311.242 7  92432962.16846  22573071.520          47.750          41.250
G13  25030562.380   131536423.691 6 102495972.48045  25030578.100          37.350          35.050
G17  22551798.520   118510466.115 7  92345793.75446  22551797.040          47.700          41.600
G25  24223359.180   127294618.598 6  99190626.19446  24223360.940          39.000          36.650
> 2015 08 26 09 07 00.0000000  0  8
G02  21213886.280   111479755.278 8  86867325.07247  21213879.960          49.950          44.700
G05  21140416.100   111093767.056 8  86566632.40747  21140413.520          50.400          45.800
G06  21257607.320   111709483.129 8  87046351.03547  21257607.280          49.450          44.950
G09  22934751.000   120522953.203 7  93913997.55746  22934750.280          44.100          39.650
G12  22578342.100   118649994.987 8  92454533.86446  22578339.600          48.000          41.200
G13  25010702.420   131432056.769 6 102414647.14145  25010718.180          37.950          32.000
G17  22568097.380   118596116.879 7  92412534.50346  22568095.940          47.600          41.850
G25  24217940.920   127266145.557 6  99168439.43345  24217942.680          40.200          32.450
> 2015 08 26 09 07 30.0000000  0  8
G02  21207938.540   111448499.614 8  86842970.01447  21207932.200          49.900          44.350
G05  21130942.780   111043984.599 8  86527840.92947  21130940.200          50.300          45.950
G06  21261971.620   111732417.596 8  87064222.01947  21261971.600          49.450          44.950
G09  22942834.020   120565429.773 7  93947096.14446  22942833.340          45.550          40.850
G12  22583706.420   118678184.489 8  92476499.65946  22583703.940          48.200          41.400
G13  24990819.700   131327571.012 6 102333229.33445  24990835.480          39.550          33.850
G17  22584459.780   118682101.474 7  92479535.38047  22584458.360          47.600          42.000
G25  24212622.140   127238195.196 6  99146659.89645  24212623.960          41.900          32.350
> 2015 08 26 09 08 00.0000000  0  8
G02  21202005.220   111417319.878 8  86818674.12247  21201998.900          49.950          44.650
G05  21121545.440   110994601.478 8  86489360.62647  21121542.860          50.100          46.150
G06  21266363.240   111755495.578 8  87082204.84647  21266363.200          49.600          45.050
G09  22951014.340   120608417.521 7  93980593.06846  22951013.660          45.550          40.250
G12  22589165.080   118706869.699 7  92498851.71846  22589162.600          47.900          41.200
G13  24970913.300   131222960.715 6 102251714.47145  24970929.120          40.350          34.500
G17  22600883.780   118768409.701 7  92546788.41946  22600882.380          47.350          41.900
G25  24207401.320   127210759.667 7  99125281.57845  24207403.140          42.600          34.300
> 2015 08 26 09 08 30.0000000  0  8
G02  21196088.780   111386228.929 8  86794447.43047  21196082.460          50.000          44.900
G05  21112226.500   110945630.330 8  86451201.35247  21112223.920          50.050          45.900
G06  21270784.520   111778729.491 8  87100309.17147  21270784.500          49.500          45.300
G09  22959293.960   120651927.336 7  94014496.84346  22959293.300          44.350          40.650
G12  22594719.980   118736060.641 8  92521597.85946  22594717.520          48.250          41.600
G13  24950985.820   131118240.268 6 102170113.91645  24951001.680          40.150          33.400
G17  22617371.340   118855051.991 7  92614301.78146  22617369.980          46.800          41.900
G25  24202280.880   127183851.405 6  99104314.08946  24202282.700          39.350          36.550
> 2015 08 26 09 09 00.0000000  0  8
G02  21190188.700   111355223.807 8  86770287.60747  21190182.400          50.000          44.550
G05  21102985.340   110897068.006 8  86413360.63347  21102982.780          50.050          45.950
G06  21275234.960   111802116.653 8  87118532.92847  21275234.920          49.700          45.300
G09  22967672.100   120695954.793 7  94048803.95446  22967671.460          43.800          41.050
G12  22600370.160   118765752.264 8  92544734.12546  22600367.700          48.100          40.800
G13  24931037.280   131013409.100 6 102088427.10545  24931053.120          40.600          30.050
G17  22633921.480   118942023.335 7  92682071.56147  22633920.180          46.750          42.050
G25  24197260.160   127157467.519 6  99083755.26245  24197261.980          41.250          35.100
> 2015 08 26 09 09 30.0000000  0  8
G02  21184303.960   111324299.423 8  86746190.69747  21184297.700          49.850          44.850
G05  21093821.020   110848909.377 8  86375834.48047  21093818.460          49.850          46.050
G06  21279713.620   111825652.117 8  87136872.22447  21279713.620          49.300          45.850
G09  22976147.480   120740493.268 7  94083509.24146  22976146.900          44.300          39.850
G12  22606114.280   118795937.522 7  92568255.04546  22606111.820          47.850          41.000
G13  24911067.040   130908464.494 6 102006652.01644  24911082.880          40.550          26.800
G17  22650533.000   119029317.202 7  92750092.65347  22650531.780          47.100          42.100
G25  24192338.340   127131603.091 6  99063601.13445  24192340.200          41.600          32.500
> 2015 08 26 09 10 00.0000000  0  8
G02  21178435.340   111293459.617 8  86722159.68447  21178429.080          49.800          45.050
G05  21084734.020   110801157.093 8  86338624.94947  21084731.460          49.850          45.600
G06  21284221.100   111849338.917 8  87155329.43947  21284221.100          49.600          45.550
G09  22984720.340   120785544.104 7  94118613.77846  22984719.820          45.350          39.000
G12  22611952.300   118826616.395 7  92592160.62846  22611949.820          47.550          39.600
G13  24891076.040   130803411.304 6 101924792.42644  24891091.860          40.350          29.550
G17  22667206.080   119116934.448 7  92818365.71146  22667204.900          47.850          41.600
G25  24187515.900   127106260.980 7  99043854.05046  24187517.760          42.700          37.450
> 2015 08 26 09 10 30.0000000  0  8
G02  21172582.440   111262702.457 8  86698193.07347  21172576.200          49.750          44.650
G05  21075723.860   110753808.556 8  86301730.02647  21075721.280          49.850          45.550
G06  21288757.000   111873175.137 8  87173903.09347  21288757.020          49.500          45.050
G09  22993390.020   120831103.562 7  94154114.63446  22993389.520          44.400          40.300
G12  22617883.480   118857784.872 7  92616447.70846  22617881.000          47.400          40.000
G13  24871064.380   130698249.883 6 101842848.61945  24871080.180          41.150          30.900
G17  22683939.940   119204871.084 7  92886887.64446  22683938.820          47.550          40.800
G25  24182792.420   127081439.140 6  99024512.41045  24182794.300          41.800          35.750
> 2015 08 26 09 11 00.0000000  0  8
G02  21166746.820   111232036.180 8  86674297.28347  21166740.580          50.150          44.350
G05  21066792.100   110706872.001 8  86265156.12147  21066789.520          50.150          45.250
G06  21293322.880   111897168.936 8  87192599.53747  21293322.940          49.700          44.700
G09  23002157.720   120877178.112 7  94190016.84846  23002157.260          44.500          40.200
G12  22623908.960   118889448.844 7  92641120.87246  22623906.500          47.550          40.550
G13  24851033.960   130592990.145 6 101760828.27445  24851049.720          41.900          31.450
G17  22700735.700   119293132.799 7  92955662.88846  22700734.580          47.650          40.950
G25  24178169.520   127057145.516 6  99005582.32645  24178171.380          41.300          35.550
> 2015 08 26 09 11 30.0000000  0  8
G02  21160928.180   111201458.965 8  86650470.88647  21160921.940          49.950          44.650
G05  21057938.160   110660344.434 8  86228900.90347  21057935.560          50.000          45.900
G06  21297918.320   111921318.028 8  87211416.99347  21297918.380          49.250          44.750
G09  23011022.620   120923763.571 7  94226317.20246  23011022.180          43.800          40.500
G12  22630027.780   118921603.463 7  92666176.38246  22630025.320          47.350          41.300
G13  24830984.660   130487631.968 7 101678731.43145  24831000.340          43.350          32.150
G17  22717592.520   119381715.437 7  93024688.18946  22717591.420          47.200          40.800
G25  24173646.640   127033377.605 6  98987061.89246  24173648.500          41.100          36.050
> 2015 08 26 09 12 00.0000000  0  9
G02  21155125.780   111170967.174 8  86626711.06347  21155119.520          49.950          44.650
G05  21049161.300   110614221.881 8  86192961.26847  21049158.700          50.300          46.250
G06  21302542.600   111945618.744 8  87230352.60047  21302542.640          49.400          44.550
G09  23019983.700   120970854.561 7  94263011.48646  23019983.300          45.000          39.650
G12  22636238.820   118954242.575 7  92691609.42246  22636236.380          47.800          40.800
G13  24810916.320   130382174.184 7 101596557.13445  24810931.840          42.400          33.500
G17  22734509.360   119470613.482 7  93093959.27346  22734508.240          47.050          40.700
G20  25096449.420                                                          37.850
G25  24169223.040   127010131.557 6  98968948.09845  24169224.920          41.050          34.550
> 2015 08 26 09 12 30.0000000  0  9
G02  21149324.580   111140481.796 8  86602956.23847  21149318.320          50.150          44.400
G05  21040446.360   110568424.628 8  86157275.13247  21040443.740          50.600          46.100
G06  21307180.640   111969991.759 8  87249344.53547  21307180.680          49.450          44.650
G09  23029025.520   121018369.746 7  94300036.27846  23029025.180          46.250          40.150
G12  22642526.440   118987284.194 8  92717356.09946  22642524.040          48.000          40.350
G13  24790814.080   130276538.978 7 101514244.75445  24790829.440          42.050          32.050
G17  22751470.600   119559744.809 7  93163412.12946  22751469.480          47.650          39.700
G20  25078795.760   131789968.614 5 102693503.97144  25078810.640          33.550          26.300
G25  24164883.580   126987327.690 6  98951178.87245  24164885.440          41.750          35.600
> 2015 08 26 09 13 00.0000000  0  9
G02  21143569.960   111110241.090 8  86579392.05747  21143563.700          50.200          44.850
G05  21031838.560   110523190.428 8  86122027.73247  21031835.940          50.350          46.300
G06  21311877.720   111994675.160 8  87268578.34147  21311877.780          49.850          44.950
G09  23038193.120   121066545.638 7  94337575.91846  23038192.760          46.100          39.150
G12  22648935.580   119020964.178 8  92743600.18746  22648933.200          48.300          41.000
G13  24770723.640   130170966.800 7 101431981.73545  24770738.820          42.300          32.500
G17  22768521.160   119649345.597 7  93233230.80246  22768520.060          47.200          39.900
G20  25061196.240                                                          29.600
G25  24160673.540   126965203.857 6  98933939.52845  24160675.380          41.950          35.750
> 2015 08 26 09 13 30.0000000  0  9
G02  21137802.760   111079934.294 8  86555776.39347  21137796.480          50.050          44.600
G05  21023278.560   110478207.417 8  86086976.06747  21023275.920          50.000          45.850
G06  21316574.700   112019357.812 8  87287811.56247  21316574.740          49.700          45.200
G09  23047426.840   121115069.036 7  94375386.35446  23047426.460          46.000          40.150
G12  22655406.400   119054968.375 7  92770096.92546  22655404.040          47.750          41.300
G13  24750586.260   130065148.794 6 101349527.32945  24750601.260          40.550          33.700
G17  22785601.420   119739102.517 7  93303171.14746  22785600.340          46.900          40.850
G20  25043595.660   131604985.078 5 102549381.72044  25043610.200          35.800          26.150
G25  24156533.620   126943448.559 7  98916987.37046  24156535.460          42.650          36.750
> 2015 08 26 09 14 00.0000000  0  9
G02  21132069.320   111049804.850 8  86532298.90447  21132063.040          50.100          44.850
G05  21014812.640   110433718.825 8  86052309.65947  21014809.980          49.950          46.100
G06  21321317.840   112044283.068 8  87307233.80547  21321317.900          49.650          44.850
G09  23056772.640   121164181.354 7  94413655.67546  23056772.240          45.600          38.200
G12  22661984.800   119089537.788 7  92797034.08546  22661982.440          47.600          40.200
G13  24730448.540   129959329.789 6 101267072.30545  24730463.380          38.800          33.850
G17  22802757.280   119829256.707 7  93373421.03646  22802756.240          47.000          40.600
G20  25026038.400   131512720.092 6 102477451.77255  25026047.420          36.850          31.100
G25  24152510.100   126922304.777 6  98900511.69845  24152511.920          41.950          35.550
> 2015 08 26 09 14 30.0000000  0  9
G02  21126351.900   111019759.511 8  86508886.96247  21126345.580          50.100          44.700
G05  21006422.940   110389630.722 8  86017955.32647  21006420.260          50.200          46.150
G06  21326089.400   112069357.656 8  87326772.42747  21326089.440          49.600          44.550
G09  23066212.380   121213787.423 7  94452309.75646  23066211.920          45.950          38.700
G12  22668652.540   119124576.630 7  92824336.99746  22668650.180          47.550          40.400
G13  24710293.240   129853418.916 6 101184545.82845  24710307.880          39.600          32.100
G17  22819970.560   119919712.749 7  93443906.15046  22819969.560          46.600          39.800
G20  25008504.960   131420584.249 6 102405659.31445  25008521.240          38.450          32.050
G25  24148585.100   126901678.897 6  98884439.60445  24148586.940          41.500          34.100
> 2015 08 26 09 15 00.0000000  0  9
G02  21120652.680   110989809.905 8  86485549.60247  21120646.340          50.150          44.500
G05  20998111.420   110345953.579 8  85983921.23147  20998108.720          50.250          45.900
G06  21330891.500   112094592.657 8  87346436.03547  21330891.520          49.600          44.050
G09  23075747.800   121263896.398 7  94491355.72146  23075747.320          46.250          39.750
G12  22675411.160   119160093.160 7  92852012.16246  22675408.800          46.950          40.400
G13  24690122.760   129747428.960 6 101101957.89045  24690137.160          40.050          34.300
G17  22837242.920   120010479.188 7  93514633.12646  22837241.940          47.300          39.800
G20  24990997.800   131328588.736 6 102333976.17644  24991014.660          37.700          28.650
G25  24144760.720   126881581.647 6  98868779.41546  24144762.520          40.350          37.450
> 2015 08 26 09 15 30.0000000  0  9
G02  21114971.340   110959954.285 8  86462285.48747  21114965.000          50.050          44.900
G05  20989877.620   110302684.781 8  85950205.31847  20989874.900          50.150          46.050
G06  21335723.700   112119986.021 8  87366223.06247  21335723.700          49.550          44.100
G09  23085378.180   121314504.206 7  94530790.35846  23085377.680          44.950          40.600
G12  22682259.800   119196082.844 7  92880056.01646  22682257.480          46.700          40.650
G13  24669937.160   129641360.124 6 101019308.60945  24669951.320          40.250          30.350
G17  22854573.580   120101552.085 7  93585598.89946  22854572.620          47.400          40.150
G20  24973516.680   131236732.145 6 102262401.37144  24973533.860          39.950          29.300
G25  24141036.440   126862010.515 6  98853529.17946  24141038.240          40.300          36.350
> 2015 08 26 09 16 00.0000000  0  9
G02  21109307.880   110930192.558 8  86439094.53547  21109301.520          50.050          44.600
G05  20981721.380   110259823.642 8  85916807.07147  20981718.660          50.200          45.800
G06  21340586.000   112145537.448 8  87386133.24347  21340585.980          49.400          44.350
G09  23095103.000   121365608.561 7  94570611.94846  23095102.500          44.550          39.750
G12  22689197.860   119232542.537 7  92908466.09946  22689195.600          46.900          40.300
G13  24649736.880   129535214.027 6 100936599.13745  24649750.760          41.250          33.000
G17  22871962.100   120192928.857 7  93656801.43346  22871961.180          47.900          40.550
G20  24956061.960   131145014.330 6 102190934.77544  24956078.660          41.250          27.800
G25  24137412.100   126842964.724 7  98838688.31146  24137413.900          42.300          38.700
> 2015 08 26 09 16 30.0000000  0  9
G02  21103661.880   110900522.611 8  86415975.09647  21103655.520          50.000          44.600
G05  20973642.260   110217367.746 8  85883724.59147  20973639.520          50.400          45.200
G06  21345478.000   112171245.011 8  87406165.08947  21345477.960          49.750          44.350
G09  23104921.580   121417205.553 7  94610817.35946  23104921.120          45.700          39.650
G12  22696224.520   119269467.548 7  92937238.75346  22696222.300          46.500          39.250
G13  24629521.860   129428990.708 6 100853829.55245  24629535.400          41.800          30.950
G17  22889407.600   120284604.847 7  93728237.12446  22889406.680          47.700          40.800
G20  24938633.480   131053433.868 6 102119575.10644  24938649.600          41.400          28.250
G25  24133887.320   126824441.912 7  98824254.94646  24133889.100          42.000          36.700
> 2015 08 26 09 17 00.0000000  0  9
G02  21098035.560   110870956.129 8  86392936.28147  21098029.220          49.800          44.750
G05  20965642.220   110175327.446 8  85850965.94947  20965639.480          50.500          45.550
G06  21350401.840   112197119.828 8  87426327.26047  21350401.800          49.900          45.050
G09  23114835.640   121469304.200 7  94651413.66746  23114835.180          44.250          38.750
G12  22703341.320   119306866.430 7  92966380.67746  22703339.140          47.350          38.900
G13  24609294.680   129322703.528 7 100771010.21045  24609307.840          42.700          33.200
G17  22906911.720   120376588.954 7  93799912.91846  22906910.820          47.400          41.400
G20  24921233.200   130962002.265 6 102048331.54243  24921248.720          41.250          23.750
G25  24130464.060   126806452.606 7  98810237.28746  24130465.840          43.200          36.800
> 2015 08 26 09 17 30.0000000  0  9
G02  21092425.800   110841476.818 8  86369965.40547  21092419.480          49.850          44.850
G05  20957718.060   110133685.786 8  85818517.94047  20957715.280          50.450          45.550
G06  21355354.380   112223145.533 8  87446607.01847  21355354.340          49.800          45.200
G09  23124841.620   121521886.053 7  94692386.51546  23124841.200          44.200          39.350
G12  22710544.620   119344719.877 7  92995876.81946  22710542.460          46.800          38.900
G13  24589052.620   129216338.057 7 100688129.87545  24589065.380          42.800          32.050
G17  22924471.000   120468862.826 7  93871814.50446  22924470.120          47.500          41.150
G20  24903858.100   130870703.473 6 101977191.46345  24903873.120          40.500          33.050
G25  24127139.100   126788979.860 7  98796622.18146  24127140.860          42.450          38.200
> 2015 08 26 09 18 00.0000000  0  9
G02  21086834.580   110812094.745 8  86347070.29247  21086828.260          50.100          44.850
G05  20949871.380   110092451.409 8  85786387.29047  20949868.600          50.400          45.950
G06  21360337.420   112249331.456 8  87467011.61347  21360337.380          49.450          44.700
G09  23134940.960   121574958.404 7  94733741.59146  23134940.540          44.500          40.250
G12  22717835.740   119383034.816 7  93025732.56446  22717833.580          47.200          39.000
G13  24568797.860   129109905.814 7 100605197.50645  24568810.240          43.850          33.650
G17  22942086.740   120561433.466 7  93943947.33046  22942085.900          47.100          41.600
G20  24886510.240   130779547.507 6 101906162.50044  24886524.940          39.250          29.300
G25  24123914.120   126772032.565 7  98783416.53445  24123915.840          42.100          35.300
> 2015 08 26 09 18 30.0000000  0  9
G02  21081261.640   110782808.879 8  86324250.14047  21081255.340          50.000          44.900
G05  20942101.960   110051622.829 8  85754572.83447  20942099.160          50.250          46.000
G06  21365350.780   112275676.689 8  87487540.34247  21365350.740          49.550          44.750
G09  23145133.080   121628518.219 7  94775476.48246  23145132.680          43.300          39.300
G12  22725213.920   119421807.175 7  93055944.71846  22725211.780          47.350          40.050
G13  24548530.660   129003407.927 7 100522213.94145  24548542.680          44.350          34.500
G17  22959758.260   120654297.247 7  94016308.57746  22959757.460          47.150          40.200
G20  24869189.280   130688533.264 6 101835244.04344  24869203.700          39.350          29.950
G25  24120788.840   126755609.171 6  98770619.11246  24120790.540          40.550          39.250
> 2015 08 26 09 19 00.0000000  0  9
G02  21075707.800   110753623.227 8  86301508.08647  21075701.480          50.200          44.600
G05  20934410.300   110011203.067 8  85723076.94447  20934407.500          50.350          45.850
G06  21370395.140   112302184.922 8  87508196.08847  21370395.120          49.600          44.500
G09  23155418.260   121682567.071 7  94817592.42946  23155417.900          42.750          40.500
G12  22732679.340   119461037.983 7  93086514.11546  22732677.200          47.600          39.800
G13  24528252.100   128896850.215 7 100439183.72645  24528263.760          44.750          32.700
G17  22977485.880   120747455.746 7  94088899.45246  22977485.120          46.550          40.050
G20  24851896.160   130597665.162 6 101764439.36845  24851910.380          36.550          32.050
G25  24117763.820   126739712.657 6  98758232.23746  24117765.520          40.900          36.950
> 2015 08 26 09 19 30.0000000  0  9
G02  21070174.420   110724545.192 8  86278849.87547  21070168.120          50.100          44.650
G05  20926797.680   109971198.631 8  85691904.69647  20926794.880          50.550          46.250
G06  21375471.900   112328863.341 8  87528984.44447  21375471.860          49.700          43.950
G09  23165797.460   121737109.951 7  94860093.33046  23165797.140          42.650          40.200
G12  22740232.840   119500731.649 7  93117444.18546  22740230.720          47.800          40.100
G13  24507963.860   128790241.568 7 100356113.81645  24507975.180          44.700          34.100
G17  22995270.500   120840913.977 7  94161723.89246  22995269.780          46.100          40.600
G20  24834632.280   130506951.029 6 101693754.70346  24834646.380          38.600          36.100
G25  24114840.320   126724349.619 7  98746261.04845  24114842.040          42.450          34.500
> 2015 08 26 09 20 00.0000000  0  9
G02  21064657.160   110695551.837 8  86256257.65747  21064650.860          50.050          44.700
G05  20919259.560   109931585.682 8  85661037.50447  20919256.740          50.500          46.000
G06  21380576.600   112355688.655 8  87549887.27047  21380576.560          49.700          44.000
G09  23176265.840   121792121.439 7  94902959.37146  23176265.560          43.350          37.900
G12  22747869.440   119540861.984 7  93148714.50946  22747867.340          47.300          40.850
G13  24487662.000   128683561.242 7 100272987.99745  24487673.000          43.650          32.850
G17  23013107.160   120934645.725 7  94234761.48446  23013106.440          45.700          39.600
G20  24817393.400   130416367.938 6 101623172.19445  24817407.280          41.050          32.950
G25  24112013.820   126709496.098 7  98734686.84045  24112015.560          42.350          35.850
> 2015 08 26 09 20 30.0000000  0  9
G02  21059159.680   110666662.311 8  86233746.33647  21059153.380          50.200          44.600
G05  20911799.360   109892382.077 8  85630489.26747  20911796.500          50.350          46.100
G06  21385712.840   112382679.592 8  87570919.14247  21385712.780          49.850          43.550
G09  23186826.540   121847618.019 7  94946203.43846  23186826.240          43.550          37.350
G12  22755592.160   119581444.900 7  93180337.49046  22755590.100          47.000          40.500
G13  24467350.400   128576829.666 7 100189822.19045  24467361.140          43.600          33.200
G17  23030999.080   121028667.781 7  94308025.26746  23030998.380          45.750          39.250
G20  24800183.100   130325934.343 6 101552706.11444  24800196.660          40.300          29.800
G25  24109287.680   126695170.091 6  98723523.69146  24109289.420          40.750          37.850
> 2015 08 26 09 21 00.0000000  0  9
G02  21053681.720   110637875.371 8  86211314.95647  21053675.400          50.150          44.850
G05  20904416.640   109853585.750 8  85600258.39447  20904413.780          50.350          46.400
G06  21390880.300   112409834.730 8  87592078.97847  21390880.240          49.400          44.050
G09  23197478.840   121903596.028 7  94989822.64246  23197478.520          42.750          40.600
G12  22763400.220   119622476.225 7  93212309.88846  22763398.180          46.900          40.600
G13  24447029.220   128470047.795 7 100106617.16945  24447039.740          42.750          35.550
G17  23048945.440   121122976.119 7  94381512.15646  23048944.740          45.800          39.950
G20  24783001.140   130235649.328 6 101482355.79745  24783014.340          38.350          32.000
G25  24106661.480   126681369.449 6  98712769.95546  24106663.220          39.750          37.150
> 2015 08 26 09 21 30.0000000  0  9
G02  21048222.860   110609188.910 8  86188961.86547  21048216.540          50.200          44.250
G05  20897110.860   109815193.841 8  85570342.64847  20897108.020          50.600          46.600
G06  21396078.560   112437151.669 8  87613364.87947  21396078.480          49.550          44.700
G09  23208221.880   121960050.984 7  95033813.49846  23208221.560          43.850          38.650
G12  22771292.500   119663950.168 7  93244627.15446  22771290.500          47.000          40.550
G13  24426698.460   128363215.391 7 100023372.75545  24426708.720          42.950          32.250
G17  23066945.420   121217565.988 7  94455218.38846  23066944.720          46.650          38.650
G20  24765847.200   130145510.966 6 101412119.69145  24765860.020          41.050          32.700
G25  24104134.680   126668091.109 6  98702423.20546  24104136.420          41.700          39.200
> 2015 08 26 09 22 00.0000000  0  9
G02  21042783.260   110580603.517 8  86166687.53547  21042776.900          50.050          44.200
G05  20889881.880   109777205.384 8  85540741.28247  20889879.020          50.400          46.300
G06  21401307.660   112464630.688 8  87634777.07747  21401307.580          49.650          44.850
G09  23219055.280   122016980.767 7  95078174.33646  23219054.980          43.300          41.000
G12  22779268.540   119705864.289 7  93277287.45146  22779266.560          47.150          39.450
G13  24406358.520   128256334.617 7  99940090.60645  24406368.520          43.100          31.700
G17  23084998.560   121312435.356 7  94529142.42346  23084997.880          46.700          39.600
G20  24748721.260   130055519.674 6 101341998.20145  24748733.660          38.800          31.050
G25  24101707.180   126655334.466 6  98692482.94146  24101708.920          40.350          39.250
> 2015 08 26 09 22 30.0000000  0  9
G02  21037363.980   110552124.998 8  86144496.48347  21037357.600          50.150          44.350
G05  20882730.520   109739624.922 8  85511457.84147  20882727.660          50.600          46.550
G06  21406568.620   112492277.119 8  87656319.73147  21406568.540          49.650          45.000
G09  23229979.620   122074388.501 7  95122907.59046  23229979.360          43.250          39.300
G12  22787328.860   119748221.249 7  93310292.78446  22787326.900          47.150          40.650
G13  24386010.860   128149413.043 7  99856776.63945  24386020.560          42.000          33.850
G17  23103105.380   121407586.701 7  94603286.17546  23103104.700          47.350          39.650
G20  24731624.520   129965681.372 6 101271995.87145  24731636.500          36.650          34.150
G25  24099379.780   126643103.957 6  98682952.70745  24099381.480          40.200          35.300
> 2015 08 26 09 23 00.0000000  0  8
G02  21031965.760   110523757.208 8  86122391.70947  21031959.380          49.900          44.550
G05  20875657.420   109702455.570 8  85482494.73447  20875654.540          50.250          46.400
G06  21411862.160   112520094.755 8  87677995.78847  21411862.100          49.450          44.400
G09  23240995.220   122132275.704 7  95168014.44246  23240995.020          43.550          39.700
G12  22795473.560   119791021.629 7  93343643.65846  22795471.600          47.750          40.850
G13  24365656.740   128042457.110 6  99773435.80345  24365666.140          40.950          31.950
G17  23121266.200   121503021.661 7  94677650.91146  23121265.520          47.050          39.900
G25  24097153.120   126631402.708 6  98673834.82346  24097154.800          40.400          36.800
> 2015 08 26 09 23 30.0000000  0  9
G02  21026586.060   110495486.754 8  86100362.78247  21026579.680          50.000          44.350
G05  20868659.800   109665682.987 8  85453840.79747  20868656.920          50.200          46.150
G06  21417185.660   112548069.818 8  87699794.50847  21417185.600          49.600          44.250
G09  23252098.940   122190626.210 7  95213482.34346  23252098.780          44.250          38.700
G12  22803699.480   119834248.662 7  93377326.97546  22803697.540          47.800          39.950
G13  24345293.740   127935454.393 7  99690058.47345  24345302.820          42.250          30.250
G17  23139477.880   121598723.939 7  94752223.95346  23139477.200          47.050          39.450
G20  24697515.900   129786331.641 5 101132247.10245  24697527.500          35.550          33.750
G25  24095024.420   126620216.049 6  98665117.89046  24095026.080          41.900          37.250
> 2015 08 26 09 24 00.0000000  0  9
G02  21021226.900   110467324.188 8  86078417.93047  21021220.520          50.200          44.800
G05  20861739.440   109629316.370 8  85425503.18847  20861736.580          50.250          46.600
G06  21422541.060   112576212.498 8  87721723.85047  21422540.980          49.300          44.300
G09  23263292.340   122249447.913 7  95259317.42546  23263292.200          43.600          38.750
G12  22812007.920   119877909.533 7  93411348.36546  22812006.000          47.750          41.450
G13  24324924.220   127828417.339 6  99606654.37945  24324932.980          41.750          35.150
G17  23157742.000   121694701.781 7  94827011.70746  23157741.340          46.700          39.450
G20  24680505.840   129696947.306 6 101062598.33244  24680516.160          36.200          28.350
G25  24092995.360   126609553.217 6  98656809.15946  24092997.020          40.050          38.800
> 2015 08 26 09 24 30.0000000  0  9
G02  21015888.380   110439270.108 8  86056557.59847  21015882.020          50.150          45.100
G05  20854896.280   109593355.443 8  85397481.70547  20854893.420          50.500          46.700
G06  21427928.440   112604523.242 8  87743784.14447  21427928.340          49.400          44.950
G09  23274575.060   122308738.928 7  95305518.18546  23274574.920          44.950          38.650
G12  22820398.440   119922001.640 7  93445705.77546  22820396.540          47.950          40.900
G13  24304548.740   127721348.708 6  99523225.57345  24304557.200          41.250          34.350
G17  23176058.000   121790952.207 7  94902011.86746  23176057.360          46.050          40.750
G20  24663525.100   129607717.507 6 100993069.92645  24663534.640          39.050          32.450
G25  24091065.900   126599413.757 6  98648908.25746  24091067.560          38.850          36.900
> 2015 08 26 09 25 00.0000000  0  9
G02  21010570.160   110411322.689 8  86034780.38847  21010563.800          50.350          44.950
G05  20848129.680   109557796.896 8  85369773.77047  20848126.820          50.500          46.300
G06  21433347.360   112632999.767 8  87765973.60947  21433347.280          49.250          44.300
G09  23285946.200   122368494.557 7  95352080.98646  23285946.040          43.400          40.050
G12  22828870.040   119966519.955 8  93480395.29946  22828868.180          48.050          41.000
G13  24284167.220   127614248.474 7  99439772.11745  24284175.440          42.500          33.150
G17  23194424.980   121887470.586 7  94977220.81446  23194424.380          45.450          40.400
G20  24646573.600   129518640.347 6 100923660.46445  24646582.560          39.900          31.900
G25  24089235.360   126589794.425 6  98641412.67646  24089237.060          41.000          38.100
> 2015 08 26 09 25 30.0000000  0  9
G02  21005273.060   110383486.243 8  86013089.64947  21005266.700          50.250          44.750
G05  20841440.300   109522643.925 8  85342381.86547  20841437.400          50.300          46.200
G06  21438798.560   112661645.848 8  87788295.20047  21438798.480          49.350          44.350
G09  23297406.040   122428716.259 7  95399006.95346  23297405.880          44.250          39.550
G12  22837422.820   120011464.920 7  93515417.29746  22837420.960          47.850          41.650
G13  24263780.860   127507122.269 7  99356298.30445  24263788.820          42.700          34.450
G17  23212843.220   121984258.421 7  95052639.72446  23212842.660          45.400          40.200
G20  24629651.920   129429719.845 6 100854372.95245  24629660.460          39.500          31.700
G25  24087504.380   126580698.051 7  98634324.56746  24087506.120          42.350          39.600
> 2015 08 26 09 26 00.0000000  0  9
G02  20999996.060   110355755.437 8  85991481.22047  20999989.720          50.300          44.250
G05  20834826.780   109487889.700 8  85315300.67247  20834823.860          50.400          46.650
G06  21444280.960   112690455.952 8  87810744.60347  21444280.880          49.300          43.900
G09  23308953.060   122489396.023 7  95446289.84946  23308952.880          43.950          39.250
G12  22846055.180   120056828.015 8  93550765.08946  22846053.360          48.450          41.600
G13  24243388.980   127399966.919 7  99272801.72945  24243396.720          42.400          35.500
G17  23231311.180   122081307.636 7  95128262.31246  23231310.680          45.200          40.100
G20  24612758.940   129340950.372 6 100785203.04845  24612767.260          40.900          32.800
G25  24085871.680   126572118.107 7  98627638.85846  24085873.460          42.700          39.100
> 2015 08 26 09 26 30.0000000  0  9
G02  20994740.520   110328137.306 8  85969960.60147  20994734.140          50.300          44.800
G05  20828290.200   109453539.859 8  85288534.58247  20828287.280          50.550          46.350
G06  21449795.800   112719436.524 8  87833326.83647  21449795.720          49.200          44.100
G09  23320588.040   122550537.937 7  95493932.84446  23320587.880          43.100          38.350
G12  22854767.740   120102612.535 8  93586441.27746  22854765.940          48.450          40.700
G13  24222993.200   127292790.800 7  99189288.90945  24223000.720          43.600          33.400
G17  23249829.620   122178622.230 7  95204091.69846  23249829.200          46.050          40.800
G20  24595896.000   129252338.986 6 100716156.31145  24595904.160          41.950          30.250
G25  24084338.340   126564060.033 7  98621359.79445  24084340.120          43.050          35.900
> 2015 08 26 09 27 00.0000000  0  9
G02  20989506.360   110300631.589 8  85948527.58347  20989499.960          50.250          44.700
G05  20821830.420   109419593.509 8  85262082.90447  20821827.480          50.550          46.700
G06  21455343.040   112748587.483 8  87856041.84947  21455342.980          49.100          44.400
G09  23332310.480   122612139.481 7  95541934.01046  23332310.320          43.650          40.550
G12  22863559.840   120148815.086 7  93622443.20346  22863558.060          47.300          40.750
G13  24202594.000   127185596.290 7  99105761.70345  24202601.280          43.400          34.500
G17  23268398.040   122276199.360 7  95280125.66446  23268397.700          45.750          39.650
G20  24579063.160   129163885.628 7 100647232.66645  24579071.180          42.250          32.250
G25  24082904.060   126556522.725 6  98615486.54046  24082905.820          41.900          38.150
> 2015 08 26 09 27 30.0000000  0  9
G02  20984293.900   110273239.890 8  85927183.39647  20984287.480          49.950          44.750
G05  20815447.420   109386050.686 8  85235945.65247  20815444.480          50.600          46.800
G06  21460922.940   112777909.882 8  87878890.43847  21460922.880          49.250          43.750
G09  23344120.120   122674199.219 7  95590292.18446  23344119.960          43.050          37.750
G12  22872431.160   120195433.911 7  93658769.50146  22872429.400          47.300          40.500
G13  24182191.860   127078386.222 7  99022222.37145  24182198.840          43.400          34.400
G17  23287016.160   122374037.497 7  95356362.97346  23287015.880          44.700          40.750
G20  24562260.660   129075591.504 7 100578432.98044  24562268.540          42.200          29.950
G25  24081568.880   126549506.092 6  98610019.00346  24081570.620          41.350          37.700
> 2015 08 26 09 28 00.0000000  0  9
G02  20979102.540   110245959.038 8  85905925.58747  20979096.120          50.000          44.600
G05  20809140.340   109352906.778 8  85210119.24647  20809137.400          50.650          46.650
G06  21466534.740   112807400.006 8  87901869.71547  21466534.700          49.150          44.300
G09  23356015.760   122736710.964 7  95639002.59546  23356015.600          43.700          37.900
G12  22881380.380   120242462.256 7  93695414.91246  22881378.640          47.900          41.300
G13  24161786.600   126971159.388 7  98938669.89545  24161793.320          43.000          33.150
G17  23305682.760   122472130.606 7  95432799.00246  23305682.560          45.550          38.500
G20  24545487.760   128987453.182 7 100509754.71245  24545495.420          43.150          30.200
G25  24080331.840   126543005.305 6  98604953.41446  24080333.600          41.500          36.550
> 2015 08 26 09 28 30.0000000  0  9
G02  20973933.900   110218797.646 8  85884760.87647  20973927.460          50.100          44.700
G05  20802910.620   109320169.481 8  85184609.69747  20802907.660          50.600          46.450
G06  21472180.080   112837066.434 8  87924986.38347  21472180.060          49.100          43.950
G09  23367998.540   122799680.795 7  95688069.97646  23367998.360          43.350          38.150
G12  22890408.540   120289905.320 7  93732383.46446  22890406.820          47.650          40.150
G13  24141380.220   126863926.569 7  98855112.72045  24141386.660          42.100          34.850
G17  23324399.020   122570484.436 7  95509438.15346  23324398.900          45.950          38.150
G20  24528746.320   128899479.556 7 100441204.69844  24528753.700          43.350          29.050
G25  24079194.380   126537027.868 6  98600295.65246  24079196.140          40.100          36.050
> 2015 08 26 09 29 00.0000000  0  9
G02  20968787.040   110191750.735 8  85863685.35747  20968780.600          50.300          44.800
G05  20796756.960   109287831.921 8  85159411.63147  20796754.000          50.400          46.150
G06  21477857.860   112866903.309 8  87948235.87447  21477857.840          49.150          44.050
G09  23380066.900   122863100.342 7  95737487.76446  23380066.740          44.150          37.300
G12  22899513.920   120337753.961 7  93769668.03746  22899512.200          47.500          40.250
G13  24120971.980   126756683.766 6  98771547.69645  24120978.160          41.250          35.800
G17  23343163.340   122669091.025 7  95586274.28746  23343163.280          45.800          39.000
G20  24512035.160   128811664.855 6 100372778.48645  24512042.300          41.950          33.150
G25  24078155.140   126531566.743 6  98596040.21646  24078156.920          40.950          36.650
> 2015 08 26 09 29 30.0000000  0  9
G02  20963662.000   110164818.355 8  85842699.07947  20963655.540          49.950          45.600
G05  20790679.200   109255893.106 8  85134524.26547  20790676.220          50.200          46.850
G06  21483568.080   112896910.612 8  87971618.15347  21483568.080          48.650          44.600
G09  23392220.340   122926967.066 7  95787254.01846  23392220.200          44.000          38.350
G12  22908695.920   120386005.279 7  93807266.39946  22908694.180          46.450          41.550
G13  24100562.280   126649433.523 6  98687976.88545  24100568.240          40.850          33.650
G17  23361975.200   122767947.252 7  95663304.91646  23361975.220          45.800          39.150
G20  24495354.300   128724009.232 6 100304476.21945  24495361.200          41.450          34.150
G25  24077213.920   126526620.717 7  98592186.14345  24077215.740          42.000          35.700
> 2015 08 26 09 30 00.0000000  0  9
G02  20958558.860   110138001.134 8  85821802.54147  20958552.420          50.050          45.200
G05  20784677.100   109224351.963 8  85109946.77547  20784674.100          50.400          46.650
G06  21489310.740   112927088.471 8  87995133.34547  21489310.760          48.850          43.600
G09  23404458.420   122991278.550 7  95837366.84846  23404458.260          43.250          38.550
G12  22917953.940   120434656.092 7  93845176.06246  22917952.160          46.850          40.750
G13  24080151.640   126542178.005 6  98604401.85545  24080157.420          41.450          34.250
G17  23380834.180   122867051.049 7  95740528.47446  23380834.220          45.500          37.800
G20  24478703.800   128636513.051 6 100236298.13745  24478710.520          40.900          33.150
G25  24076370.580   126522188.775 6  98588732.62546  24076372.400          41.700          37.900
> 2015 08 26 09 30 30.0000000  0  9
G02  20953478.740   110111304.937 8  85801000.29347  20953472.320          50.150          45.200
G05  20778751.540   109193212.985 8  85085682.65347  20778748.540          50.350          46.800
G06  21495086.920   112957442.375 8  88018785.69347  21495086.940          48.950          44.100
G09  23416781.680   123056037.755 7  95887828.53246  23416781.540          44.000          39.600
G12  22927288.360   120483708.540 7  93883398.67146  22927286.620          46.850          41.100
G13  24059741.420   126434924.739 6  98520828.58145  24059747.080          41.800          33.500
G17  23399740.760   122966404.946 7  95817946.90546  23399740.820          45.700          36.950
G20  24462084.640   128549181.853 6 100168248.68845  24462091.160          40.750          34.050
G25  24075625.880   126518275.150 6  98585683.01446  24075627.680          41.500          36.000
> 2015 08 26 09 31 00.0000000  0  9
G02  20948421.300   110084727.918 8  85780290.92747  20948414.900          50.100          45.350
G05  20772901.920   109162473.137 8  85061729.53947  20772898.920          50.400          46.500
G06  21500896.180   112987970.240 8  88042573.61147  21500896.220          49.150          44.000
G09  23429189.300   123121240.044 7  95938635.44646  23429189.200          43.650          37.800
G12  22936698.240   120533157.415 7  93921930.18446  22936696.520          46.650          40.950
G13  24039331.740   126327674.134 6  98437257.35945  24039337.300          41.950          31.950
G17  23418693.960   123066003.786 7  95895556.18546  23418694.020          45.450          38.150
G20  24445496.500   128462013.624 6 100100326.20345  24445502.780          41.500          31.100
G25  24074979.200   126514876.543 6  98583034.70846  24074980.960          39.950          36.550
> 2015 08 26 09 31 30.0000000  0  9
G02  20943387.080   110058272.819 8  85759676.56847  20943380.660          50.100          45.000
G05  20767128.460   109132133.439 8  85038088.23747  20767125.460          50.400          46.650
G06  21506738.980   113018674.183 8  88066498.73047  21506739.000          49.150          44.600
G09  23441681.100   123186884.875 7  95989787.22046  23441681.020          44.250          39.650
G12  22946183.300   120583001.537 7  93960769.66746  22946181.660          46.150          41.800
G13  24018923.360   126220430.439 7  98353691.55445  24018928.820          42.350          34.800
G17  23437693.740   123165847.563 7  95973356.34546  23437693.780          45.600          36.850
G20  24428939.900   128375011.125 6 100032532.84745  24428945.960          40.200          33.050
G25  24074430.680   126511993.738 6  98580788.28646  24074432.440          39.900          38.750
> 2015 08 26 09 32 00.0000000  0  9
G02  20938375.680   110031937.708 8  85739155.69547  20938369.260          50.050          45.200
G05  20761430.520   109102190.641 8  85014756.20547  20761427.520          50.800          46.400
G06  21512614.860   113049551.946 8  88090559.27447  21512614.900          49.000          44.450
G09  23454256.200   123252967.422 7  96041280.07446  23454256.140          44.950          38.650
G12  22955742.500   120633235.233 7  93999912.72146  22955740.920          46.100          40.500
G13  23998516.340   126113193.516 6  98270130.94845  23998521.660          41.900          34.000
G17  23456739.160   123265931.297 7  96051343.48046  23456739.200          45.750          37.800
G20  24412414.400   128288171.874 6  99964866.64445  24412420.240          38.950          33.700
G25  24073979.600   126509623.192 6  98578941.08546  24073981.340          40.100          36.250
> 2015 08 26 09 32 30.0000000  0  9
G02  20933387.520   110005724.831 8  85718730.08547  20933381.120          49.950          45.100
G05  20755808.200   109072645.334 8  84991733.91447  20755805.180          50.850          46.700
G06  21518524.120   113080605.220 8  88114756.59947  21518524.180          48.850          44.000
G09  23466914.480   123319486.746 7  96093113.26746  23466914.400          45.550          38.650
G12  22965375.560   120683857.163 7  94039358.29946  22965374.040          45.750          40.550
G13  23978111.380   126005967.284 7  98186578.68145  23978116.500          42.900          34.050
G17  23475830.100   123366254.052 7  96129516.83846  23475830.120          45.800          36.750
G20  24395920.300   128201497.731 6  99897329.08145  24395925.980          38.850          35.200
G25  24073626.040   126507765.240 6  98577493.28946  24073627.820          39.900          37.350
> 2015 08 26 09 33 00.0000000  0  9
G02  20928422.680   109979634.445 8  85698399.91347  20928416.280          50.000          45.000
G05  20750261.340   109043496.409 8  84969020.48947  20750258.300          50.900          46.950
G06  21524466.780   113111834.064 8  88139090.72747  21524466.860          49.350          44.150
G09  23479655.380   123386440.275 7  96145284.80746  23479655.260          44.600          37.200
G12  22975081.880   120734863.961 7  94079103.76846  22975080.380          46.350          38.900
G13  23957708.920   125898753.901 7  98103036.37644  23957713.820          42.550          29.650
G17  23494966.020   123466813.252 7  96207874.46446  23494966.060          45.550          38.700
G20  24379457.560   128114988.665 6  99829920.18145  24379463.100          36.750          34.700
G25  24073369.780   126506418.592 6  98576443.91746  24073371.620          40.000          38.250
> 2015 08 26 09 33 30.0000000  0  9
G02  20923482.420   109953673.277 8  85678170.43247  20923476.040          49.950          45.600
G05  20744790.920   109014749.142 8  84946620.03747  20744787.860          50.550          47.250
G06  21530444.040   113143244.596 8  88163566.43147  21530444.120          49.150          44.050
G09  23492479.580   123453831.515 7  96197797.43546  23492479.400          43.350          37.250
G12  22984861.960   120786258.523 7  94119151.42046  22984860.500          45.950          39.400
G13  23937310.500   125791561.800 7  98019510.66245  23937315.180          42.600          31.200
G17  23514147.620   123567612.371 7  96286419.00146  23514147.700          44.700          38.850
G20  24363027.480   128028651.009 6  99762644.75344  24363032.920          37.000          29.900
G25  24073211.720   126505588.034 6  98575796.72045  24073213.580          39.350          35.850
> 2015 08 26 09 34 00.0000000  0 10
G02  20918564.760   109927830.925 8  85658033.54147  20918558.400          50.100          45.050
G05  20739394.620   108986391.500 8  84924523.19747  20739391.560          50.500          46.800
G06  21536453.860   113174826.295 8  88188175.51347  21536453.940          49.300          43.700
G09  23505384.580   123521647.296 7  96250640.82946  23505384.400          42.400          37.250
G12  22994713.220   120838027.034 7  94159490.44346  22994711.800          46.750          40.200
G13  23916914.540   125684382.635 7  97935995.03144  23916919.000          43.400          29.200
G17  23533372.320   123668638.100 7  96365140.14146  23533372.460          44.300          38.450
G20  24346628.060   127942474.505 6  99695494.91445  24346633.420          40.800          32.300
G25  24073149.600   126505261.617 6  98575542.35146  24073151.480          40.700          36.750
G29  25034813.440   131558830.466 6                                        41.950
> 2015 08 26 09 34 30.0000000  0 10
G02  20913672.880   109902123.980 8  85638002.14547  20913666.560          50.150          45.000
G05  20734075.280   108958438.253 8  84902741.46347  20734072.240          50.750          46.550
G06  21542499.280   113206594.989 8  88212930.29447  21542499.340          49.550          43.400
G09  23518372.860   123589900.729 7  96303825.26346  23518372.680          42.950          37.050
G12  23004637.980   120890181.784 7  94200130.43646  23004636.600          46.750          39.350
G13  23896524.480   125577234.430 7  97852503.50145  23896528.720          44.000          33.050
G17  23552642.660   123769903.550 7  96444048.05146  23552642.880          44.300          38.550
G20  24330262.340   127856474.906 6  99628482.93445  24330267.560          41.300          35.600
G25  24073186.200   126505453.770 6  98575692.03446  24073188.060          39.950          37.000
G29  25014795.220   131453633.012 7 102431413.16345  25014795.240          43.400          31.150
> 2015 08 26 09 35 00.0000000  0 10
G02  20908803.900   109876537.357 8  85618064.52647  20908797.580          50.100          45.100
G05  20728829.760   108930872.988 8  84881262.05647  20728826.720          50.650          46.450
G06  21548577.360   113238535.237 8  88237818.75847  21548577.380          49.400          43.750
G09  23531440.960   123658573.575 6  96357336.53046  23531440.740          41.800          36.800
G12  23014632.700   120942704.103 7  94241056.85346  23014631.340          46.400          39.700
G13  23876137.820   125470103.934 7  97769025.72745  23876141.860          44.650          35.650
G17  23571955.140   123871390.635 7  96523128.66046  23571955.480          44.900          38.550
G20  24313927.520   127770637.131 6  99561596.95245  24313932.600          41.150          34.250
G25  24073318.220   126506147.511 6  98576232.56645  24073320.100          41.000          35.850
G29  24994782.840   131348465.850 7 102349464.77945  24994782.440          43.150          33.350
> 2015 08 26 09 35 30.0000000  0 10
G02  20903959.840   109851081.750 8  85598228.98847  20903953.540          50.150          45.200
G05  20723659.780   108903704.670 8  84860091.96747  20723656.740          50.600          46.550
G06  21554690.020   113270657.279 8  88262848.89547  21554690.020          48.950          43.650
G09  23544590.280   123727673.568 7  96411180.63846  23544590.080          42.200          36.000
G12  23024698.700   120995601.025 7  94282275.16446  23024697.360          47.150          39.550
G13  23855756.880   125363003.731 7  97685571.59845  23855760.740          45.700          32.150
G17  23591311.220   123973106.757 7  96602387.72946  23591311.660          45.700          39.650
G20  24297625.480   127684971.409 6  99494845.01246  24297630.400          40.600          36.800
G25  24073547.440   126507351.766 7  98577170.86646  24073549.340          42.100          36.800
G29  24974778.520   131243341.333 7 102267549.58545  24974777.860          42.350          31.700
> 2015 08 26 09 36 00.0000000  0 10
G02  20899140.080   109825753.748 8  85578492.87747  20899133.780          50.150          45.000
G05  20718564.360   108876928.223 8  84839227.22547  20718561.320          50.800          46.400
G06  21560836.520   113302957.168 8  88288017.59847  21560836.520          49.100          43.350
G09  23557819.560   123797193.922 7  96465352.33246  23557819.360          43.400          36.200
G12  23034834.580   121048865.048 7  94323779.51646  23034833.240          47.250          39.050
G13  23835381.440   125255932.071 7  97602139.66845  23835385.100          45.900          31.950
G17  23610709.720   124075045.569 7  96681820.31746  23610710.220          46.150          38.150
G20  24281355.320   127599473.503 7  99428223.89246  24281360.080          42.350          38.400
G25  24073872.740   126509060.984 7  98578502.64945  24073874.660          42.950          34.800
G29  24954781.700   131138256.919 7 102185665.64945  24954780.840          42.100          32.700
> 2015 08 26 09 36 30.0000000  0 10
G02  20894345.500   109800558.162 8  85558859.95947  20894339.220          50.300          44.850
G05  20713544.160   108850546.933 8  84818670.39947  20713541.100          50.800          46.550
G06  21567017.720   113335439.457 8  88313328.44847  21567017.700          49.100          44.150
G09  23571129.200   123867136.442 7  96519852.95846  23571129.020          43.650          37.850
G12  23045040.520   121102497.351 7  94365570.85746  23045039.200          47.500          38.550
G13  23815012.780   125148895.877 7  97518735.34345  23815016.240          46.050          33.600
G17  23630150.900   124177208.703 7  96761427.69046  23630151.460          45.600          39.700
G20  24265118.100   127514148.170 7  99361737.16645  24265122.700          42.200          32.900
G25  24074294.720   126511278.200 7  98580230.29646  24074296.640          42.950          37.000
G29  24934793.600   131033218.971 6 102103817.98545  24934792.660          40.850          34.050
> 2015 08 26 09 37 00.0000000  0 10
G02  20889575.940   109775493.813 8  85539329.28547  20889569.640          50.200          44.250
G05  20708598.540   108824557.630 8  84798419.00447  20708595.500          50.800          46.500
G06  21573233.280   113368102.275 8  88338779.94947  21573233.260          49.400          43.850
G09  23584518.280   123937496.566 7  96574679.01445  23584518.140          43.750          35.150
G12  23055315.580   121156492.780 7  94407645.13646  23055314.280          47.700          38.100
G13  23794650.920   125041895.367 7  97435358.81045  23794654.180          45.200          33.950
G17  23649633.860   124279591.393 7  96841206.16246  23649634.440          45.700          38.400
G20  24248913.380   127428993.841 7  99295383.70245  24248917.820          42.550          33.900
G25  24074812.720   126513999.961 7  98582351.11445  24074814.620          44.150          35.350
G29  24914814.220   130928227.169 7 102022006.27346  24914813.300          42.800          36.550
> 2015 08 26 09 37 30.0000000  0 10
G02  20884831.720   109750562.806 8  85519902.52847  20884825.420          50.150          44.550
G05  20703727.660   108798960.948 8  84778473.54647  20703724.600          50.700          46.700
G06  21579483.500   113400947.174 8  88364373.34247  21579483.460          49.500          44.200
G09  23597986.640   124008273.081 7  96629829.51745  23597986.500          44.050          35.350
G12  23065659.380   121210849.438 7  94450000.90546  23065658.060          47.700          38.200
G13  23774296.560   124934934.398 7  97352013.11245  23774299.640          44.700          35.000
G17  23669158.400   124382192.623 7  96921154.93346  23669159.020          46.100          38.350
G20  24232741.520   127344011.909 7  99229164.50845  24232745.780          43.100          31.950
G25  24075426.740   126517226.356 7  98584865.14745  24075428.600          43.100          35.900
G29  24894844.220   130823284.841 7 101940233.12546  24894843.360          42.750          37.000
> 2015 08 26 09 38 00.0000000  0 10
G02  20880113.380   109725767.730 8  85500581.68447  20880107.060          50.100          44.650
G05  20698931.700   108773758.064 8  84758834.95347  20698928.640          50.650          46.250
G06  21585768.800   113433976.420 8  88390110.38247  21585768.760          49.250          44.350
G09  23611534.160   124079465.506 6  96685304.07245  23611534.000          41.200          33.700
G12  23076071.720   121265566.254 7  94492637.30046  23076070.380          47.100          38.350
G13  23753950.620   124828017.515 7  97268701.71245  23753953.540          44.250          35.750
G17  23688724.440   124485011.793 7  97001273.50946  23688725.100          46.750          39.050
G20  24216602.900   127259204.806 7  99163081.55345  24216607.000          42.600          34.200
G25  24076136.880   126520957.935 7  98587772.84546  24076138.700          42.300          36.200
G29  24874884.440   130718396.054 6 101858501.64646  24874883.620          41.850          37.350
> 2015 08 26 09 38 30.0000000  0 10
G02  20875420.840   109701108.195 8  85481366.45647  20875414.500          50.200          44.900
G05  20694210.240   108748946.779 8  84739501.50747  20694207.180          50.600          46.200
G06  21592089.060   113467189.405 8  88415990.59447  21592089.020          49.250          44.000
G09  23625160.120   124151070.393 6  96741100.06845  23625159.960          38.950          33.350
G12  23086551.760   121320638.973 7  94535551.02746  23086550.420          46.700          39.550
G13  23733613.340   124721146.365 7  97185425.97545  23733616.120          44.300          35.000
G17  23708331.360   124588045.776 7  97081559.46546  23708332.080          46.900          37.500
G20  24200497.460   127174571.806 7  99097134.24045  24200501.380          42.950          31.500
G25  24076942.720   126525192.598 7  98591072.54345  24076944.540          43.000          35.300
G29  24854934.940   130613561.594 7 101776812.53246  24854934.180          42.450          38.700
> 2015 08 26 09 39 00.0000000  0 10
G02  20870754.080   109676584.190 8  85462256.83147  20870747.720          50.150          44.700
G05  20689562.880   108724524.798 8  84720471.41047  20689559.800          50.300          46.550
G06  21598444.140   113500585.263 8  88442013.29547  21598444.080          49.250          43.750
G09  23638863.860   124223084.167 6  96797214.63746  23638863.720          39.950          36.550
G12  23097098.720   121376063.365 7  94578738.78946  23097097.380          46.850          38.700
G13  23713285.000   124614321.968 7  97102186.62446  23713287.640          43.900          36.150
G17  23727978.440   124691290.625 7  97162009.71846  23727979.220          46.100          37.750
G20  24184425.060   127090112.193 6  99031321.93545  24184428.860          41.600          33.300
G25  24077843.820   126529927.734 7  98594762.21746  24077845.620          42.850          36.050
G29  24834995.860   130508782.306 7 101695166.45645  24834995.200          42.000          35.100
> 2015 08 26 09 39 30.0000000  0 10
G02  20866112.760   109652193.765 8  85443251.28747  20866106.400          50.100          44.700
G05  20684988.960   108700488.725 8  84701742.01547  20684985.860          50.550          46.600
G06  21604833.560   113534161.682 8  88468176.69747  21604833.500          49.350          44.250
G09  23652644.420   124295501.725 6  96853643.86246  23652644.320          40.000          36.200
G12  23107711.520   121431833.803 7  94622196.20746  23107710.180          46.650          40.350
G13  23692965.620   124507544.589 7  97018983.90645  23692968.140          43.650          35.300
G17  23747664.680   124794741.440 7  97242620.52646  23747665.480          44.900          36.300
G20  24168385.160   127005823.584 6  98965642.91745  24168388.840          41.800          30.300
G25  24078839.440   126535159.511 7  98598838.87346  24078841.200          43.150          37.600
G29  24815067.300   130404057.547 7 101613562.70545  24815066.800          43.300          32.700
> 2015 08 26 09 40 00.0000000  0 10
G02  20861498.080   109627943.358 8  85424354.84647  20861491.700          50.100          44.800
G05  20680489.360   108676843.273 8  84683317.00847  20680486.260          50.650          46.650
G06  21611258.480   113567924.591 8  88494485.41947  21611258.400          49.200          43.650
G09  23666502.420   124368326.067 6  96910390.03146  23666502.400          40.800          38.150
G12  23118390.660   121487952.744 7  94665925.16946  23118389.340          47.550          39.700
G13  23672656.760   124400822.394 7  96935824.18845  23672659.140          43.600          35.950
G17  23767390.720   124898401.350 7  97323394.23246  23767391.560          43.750          36.200
G20  24152378.920   126921711.967 7  98900101.77445  24152382.560          43.200          32.950
G25  24079930.360   126540892.053 7  98603305.72945  24079932.120          43.900          35.850
G29  24795150.580   130299395.097 7 101532007.55545  24795150.200          44.250          35.350
> 2015 08 26 09 40 30.0000000  0 10
G02  20856910.140   109603833.450 8  85405567.88447  20856903.760          50.150          44.750
G05  20676063.820   108653586.990 8  84665195.24147  20676060.720          50.550          46.700
G06  21617718.860   113601873.875 8  88520939.37447  21617718.760          48.950          43.650
G09  23680437.320   124441554.334 6  96967450.93545  23680437.360          40.000          35.950
G12  23129135.420   121544416.469 7  94709922.79246  23129134.120          47.450          39.450
G13  23652358.820   124294157.458 7  96852709.06145  23652361.060          43.600          34.350
G17  23787156.000   125002267.423 6  97404328.53546  23787156.900          41.550          36.200
G20  24136406.300   126837777.019 7  98834698.35545  24136409.840          43.200          32.550
G25  24081116.240   126547123.587 7  98608161.41946  24081118.020          43.400          38.100
G29  24775246.060   130194796.704 7 101450502.36945  24775245.800          43.500          34.250
> 2015 08 26 09 41 00.0000000  0 10
G02  20852348.920   109579864.088 8  85386890.45247  20852342.540          50.300          44.600
G05  20671712.040   108630718.255 8  84647375.46047  20671708.920          50.850          46.750
G06  21624214.600   113636009.083 8  88547538.19247  21624214.500          49.000          43.300
G09  23694448.400   124515183.227 6  97024824.08046  23694448.460          38.050          37.050
G12  23139945.040   121601221.090 7  94754186.06646  23139943.740          47.550          39.800
G13  23632072.160   124187551.751 7  96769640.07845  23632074.280          44.800          32.950
G17  23806959.820   125106336.590 6  97485421.17945  23806960.840          41.050          35.150
G20  24120467.280   126754018.480 7  98769432.35645  24120470.720          43.100          30.900
G25  24082396.620   126553851.846 7  98613404.19346  24082398.420          43.900          37.200
G29  24755353.920   130090263.373 7 101369047.90145  24755353.760          42.150          34.450
> 2015 08 26 09 41 30.0000000  0 10
G02  20847814.540   109556035.660 8  85368322.83447  20847808.140          50.300          45.300
G05  20667433.700   108608235.503 8  84629856.45547  20667430.560          50.650          46.950
G06  21630745.700   113670330.082 8  88574281.78947  21630745.600          49.200          44.000
G09  23708535.140   124589209.688 6  97082507.01545  23708535.240          39.100          35.250
G12  23150818.860   121658363.024 7  94798712.17046  23150817.600          47.200          40.050
G13  23611797.160   124081007.396 7  96686618.87845  23611799.180          44.850          32.450
G17  23826801.800   125210605.994 6  97566669.75746  23826802.960          41.000          37.600
G20  24104561.820   126670436.216 7  98704303.69845  24104565.140          42.700          33.550
G25  24083771.160   126561075.013 7  98619032.60646  24083772.980          43.400          37.650
G29  24735474.520   129985796.841 6 101287645.47245  24735474.440          41.750          33.750
> 2015 08 26 09 42 00.0000000  0 10
G02  20843307.240   109532349.479 8  85349866.05147  20843300.820          50.250          45.550
G05  20663228.720   108586138.289 8  84612637.86547  20663225.580          50.650          46.950
G06  21637312.300   113704837.538 8  88601170.66247  21637312.220          49.300          44.050
G09  23722697.160   124663631.610 6  97140498.06045  23722697.280          41.250          35.550
G12  23161756.340   121715839.425 7  94843498.88946  23161755.100          47.150          40.250
G13  23591534.420   123974527.264 7  96603647.67845  23591536.360          45.000          33.050
G17  23846681.400   125315073.233 6  97648072.50346  23846682.740          41.400          36.050
G20  24088690.020   126587030.839 7  98639312.89645  24088693.220          42.700          34.450
G25  24085239.660   126568791.927 7  98625045.75046  24085241.500          43.800          37.100
G29  24715608.340   129881399.594 7 101206297.05645  24715608.240          42.450          31.300
> 2015 08 26 09 42 30.0000000  0 10
G02  20838827.040   109508805.779 8  85331520.29947  20838820.620          50.000          44.700
G05  20659096.700   108564424.369 8  84595717.94647  20659093.540          50.550          46.900
G06  21643914.300   113739531.158 8  88628204.61347  21643914.240          49.150          44.250
G09  23736933.860   124738445.824 6  97198794.80345  23736933.940          40.500          35.250
G12  23172756.720   121773646.437 7  94888543.21946  23172755.520          46.750          39.650
G13  23571284.260   123868113.227 7  96520727.97845  23571286.120          45.800          32.650
G17  23866598.100   125419735.320 7  97729627.05146  23866599.600          42.650          37.100
G20  24072851.880   126503802.273 6  98574459.86845  24072854.940          40.150          34.200
G25  24086801.780   126577000.629 7  98631442.08145  24086803.600          43.750          35.900
G29  24695755.540   129777072.542 6 101125003.31946  24695755.400          40.700          36.300
> 2015 08 26 09 43 00.0000000  0 10
G02  20834374.500   109485407.526 8  85313287.88247  20834368.080          50.200          44.800
G05  20655037.980   108543095.754 8  84579098.26147  20655034.820          50.750          47.000
G06  21650552.280   113774413.708 8  88655385.77447  21650552.220          49.150          44.850
G09  23751245.220   124813652.221 6  97257397.14745  23751245.240          40.400          34.850
G12  23183819.880   121831783.259 7  94933844.53346  23183818.700          46.150          38.450
G13  23551047.660   123761770.503 7  96437863.85245  23551049.420          46.250          34.050
G17  23886551.840   125524591.912 7  97811333.18346  23886553.460          44.900          37.900
G20  24057047.820   126420752.933 6  98509746.47745  24057050.780          41.300          33.650
G25  24088457.640   126585701.967 7  98638222.28546  24088459.420          43.100          36.300
G29  24675917.000   129672820.807 6 101043768.34046  24675916.800          41.700          36.850
> 2015 08 26 09 43 30.0000000  0 10
G02  20829949.900   109462156.060 8  85295169.85647  20829943.480          50.250          44.800
G05  20651052.400   108522151.382 8  84562777.99147  20651049.220          50.600          46.850
G06  21657226.300   113809485.681 8  88682714.54047  21657226.260          49.100          43.800
G09  23765630.760   124889248.363 6  97316303.18745  23765630.720          40.500          35.600
G12  23194945.220   121890246.937 7  94979400.55746  23194944.060          44.950          39.200
G13  23530825.180   123655501.820 7  96355057.37945  23530826.840          46.050          34.050
G17  23906542.220   125629640.907 7  97893189.24246  23906543.900          44.500          38.500
G20  24041277.980   126337883.341 6  98445173.16645  24041280.820          41.900          35.450
G25  24090206.980   126594894.592 6  98645385.34545  24090208.700          41.600          34.200
G29  24656093.220   129568646.479 6 100962593.64146  24656093.000          41.000          36.700
> 2015 08 26 09 44 00.0000000  0 10
G02  20825553.700   109439053.896 8  85277168.16247  20825547.300          50.250          44.850
G05  20647140.100   108501592.123 8  84546757.79747  20647136.920          50.700          46.850
G06  21663936.760   113844749.186 8  88710192.55447  21663936.740          49.000          43.350
G09  23780090.300   124965233.438 6  97375512.32445  23780090.180          39.050          32.150
G12  23206132.500   121949036.175 7  95025210.25946  23206131.380          45.000          39.350
G13  23510617.640   123549311.642 7  96272312.12145  23510619.180          45.950          34.900
G17  23926569.160   125734881.752 7  97975194.77246  23926570.880          45.200          40.100
G20  24025542.720   126255195.360 7  98380741.33245  24025545.460          42.650          32.500
G25  24092049.860   126604578.777 7  98652931.40346  24092051.560          42.350          36.650
G29  24636284.920   129464553.475 6 100881482.27146  24636284.720          40.750          38.600
> 2015 08 26 09 44 30.0000000  0 10
G02  20821185.640   109416099.481 8  85259281.59247  20821179.220          50.250          45.050
G05  20643300.340   108481414.237 8  84531034.78847  20643297.180          50.750          47.350
G06  21670683.240   113880201.978 8  88737818.06747  21670683.220          48.950          43.850
G09  23794622.940   125041602.317 6  97435020.45845  23794622.780          40.250          35.300
G12  23217380.620   122008145.069 7  95071269.02446  23217379.560          45.100          38.850
G13  23490425.060   123443200.100 7  96189628.08646  23490426.520          44.950          37.400
G17  23946631.620   125840309.283 7  98057345.77946  23946633.380          45.600          38.300
G20  24009841.680   126172687.168 7  98316449.59045  24009844.300          42.500          35.450
G25  24093985.480   126614750.371 7  98660857.29246  24093987.140          42.000          37.750
G29  24616491.940   129360541.084 6 100800433.74446  24616491.740          38.850          38.650
> 2015 08 26 09 45 00.0000000  0 10
G02  20816846.220   109393295.691 8  85241512.38847  20816839.800          50.200          44.750
G05  20639533.340   108461618.539 8  84515609.58947  20639530.160          50.900          47.000
G06  21677466.160   113915846.285 8  88765592.80447  21677466.160          48.800          44.050
G09  23809228.500   125118354.372 6  97494827.17445  23809228.300          40.150          35.250
G12  23228689.340   122067572.392 7  95117575.91246  23228688.320          45.000          38.650
G13  23470248.420   123337172.258 7  96107009.27646  23470249.820          44.000          36.350
G17  23966729.440   125945922.765 7  98139641.69846  23966731.260          44.900          39.400
G20  23994175.180   126090360.508 7  98252299.30845  23994177.660          42.250          33.550
G25  24096013.880   126625409.687 6  98669163.25346  24096015.520          41.800          38.050
G29  24596715.100   129256613.727 6 100719451.54246  24596714.880          39.250          36.600
> 2015 08 26 09 45 30.0000000  0 10
G02  20812535.920   109370644.835 8  85223862.36547  20812529.500          50.250          45.350
G05  20635839.160   108442205.576 8  84500482.62247  20635835.980          50.750          47.400
G06  21684285.880   113951683.977 8  88793518.23147  21684285.900          49.050          44.300
G09  23823906.740   125195488.490 6  97554931.62646  23823906.480          38.650          37.850
G12  23240058.300   122127316.236 7  95164129.47546  23240057.260          45.200          39.600
G13  23450088.220   123231230.921 7  96024457.86246  23450089.600          43.900          36.250
G17  23986862.500   126051721.372 7  98222081.85246  23986864.400          44.900          39.200
G20  23978543.600   126008217.333 7  98188291.94845  23978545.980          42.800          34.600
G25  24098135.120   126636556.695 7  98677849.18046  24098136.780          43.350          39.100
G29  24576955.060   129152774.538 6 100638537.97546  24576954.840          41.400          36.750
> 2015 08 26 09 46 00.0000000  0 10
G02  20808253.940   109348142.839 8  85206328.33847  20808247.520          50.150          45.400
G05  20632216.680   108423169.473 8  84485649.31947  20632213.500          50.750          47.200
G06  21691141.540   113987710.443 8  88821590.74947  21691141.580          49.200          43.700
G09  23838656.260   125272997.204 6  97615327.93745  23838655.940          40.400          35.800
G12  23251485.980   122187368.666 7  95210923.46646  23251484.960          45.800          40.300
G13  23429944.140   123125374.378 7  95941972.54545  23429945.480          43.700          35.750
G17  24007029.400   126157697.649 7  98304660.43746  24007031.360          44.900          37.700
G20  23962946.000   125926252.858 7  98124423.85645  23962948.280          44.100          34.150
G25  24100347.920   126648184.916 7  98686910.07946  24100349.620          43.600          39.650
G29  24557211.420   129049021.212 7 100557691.24146  24557211.200          42.200          36.600
> 2015 08 26 09 46 30.0000000  0 10
G02  20804001.220   109325794.684 8  85188914.19147  20803994.820          50.300          45.050
G05  20628666.340   108404512.387 8  84471111.35847  20628663.140          50.750          47.400
G06  21698033.900   114023929.902 8  88849813.65347  21698033.980          49.250          43.900
G09  23853477.240   125350881.583 6  97676017.04946  23853476.860          39.000          36.800
G12  23262972.460   122247730.171 7  95257958.28846  23262971.500          46.250          40.650
G13  23409817.460   123019609.261 7  95859558.47746  23409818.740          43.950          38.400
G17  24027230.340   126263852.858 7  98387378.44446  24027232.380          44.800          37.800
G20  23947383.240   125844471.137 7  98060698.14945  23947385.400          44.350          35.750
G25  24102652.700   126660296.436 7  98696347.59346  24102654.420          43.250          38.150
G29  24537485.160   128945359.644 7 100476916.11245  24537484.920          43.350          35.650
> 2015 08 26 09 47 00.0000000  0 10
G02  20799778.340   109303603.300 8  85171622.20147  20799771.940          49.950          44.900
G05  20625188.440   108386235.978 8  84456870.01947  20625185.260          50.500          47.150
G06  21704963.500   114060344.949 8  88878188.97347  21704963.580          48.750          43.900
G09  23868369.660   125429141.471 6  97736998.70846  23868369.320          39.250          38.650
G12  23274517.580   122308399.808 7  95305233.21946  23274516.640          45.700          40.700
G13  23389709.120   122913940.537 7  95777219.49145  23389710.360          44.000          35.900
G17  24047465.320   126370186.827 7  98470235.71146  24047467.440          43.250          37.300
G20  23931855.800   125762874.903 7  97997116.94945  23931857.880          44.200          35.500
G25  24105049.600   126672891.960 6  98706162.24646  24105051.340          41.200          39.800
G29  24517777.200   128841794.101 7 100396215.80846  24517776.940          42.650          36.800
> 2015 08 26 09 47 30.0000000  0 10
G02  20795584.980   109281567.021 8  85154451.07147  20795578.560          50.250          45.100
G05  20621782.220   108368336.195 8  84442922.14647  20621779.040          50.550          47.400
G06  21711929.840   114096953.026 8  88906714.68747  21711929.920          48.750          44.200
G09  23883332.440   125507771.272 6  97798268.62546  23883332.180          36.000          36.400
G12  23286120.200   122369371.541 7  95352743.55646  23286119.280          46.550          41.300
G13  23369619.120   122808368.097 7  95694955.54046  23369620.300          44.350          36.250
G17  24067733.320   126476694.301 7  98553228.18046  24067735.500          42.850          37.650
G20  23916363.140   125681461.458 7  97933678.20146  23916365.100          44.200          37.500
G25  24107537.700   126685966.919 7  98716350.48346  24107539.500          42.650          38.200
G29  24498087.420   128738323.932 6 100315589.78046  24498087.140          41.600          36.800
> 2015 08 26 09 48 00.0000000  0 10
G02  20791421.900   109259689.909 8  85137403.96047  20791415.480          50.250          45.400
G05  20618448.060   108350815.231 8  84429269.46247  20618444.880          50.700          46.950
G06  21718933.540   114133757.618 8  88935393.54247  21718933.660          49.200          43.850
G09  23898365.680   125586771.589 6  97859827.23446  23898365.540          38.150          36.400
G12  23297780.240   122430644.926 7  95400488.93446  23297779.340          45.050          40.900
G13  23349548.560   122702897.738 7  95612771.12146  23349549.680          45.650          37.250
G17  24088034.360   126583375.486 6  98636356.01446  24088036.640          41.100          37.350
G20  23900905.940   125600234.238 7  97870384.53446  23900907.800          42.350          37.150
G25  24110117.320   126699522.795 7  98726913.47146  24110119.160          42.550          39.200
G29  24478416.800   128634954.429 6 100235042.18945  24478416.460          41.200          35.650
> 2015 08 26 09 48 30.0000000  0 10
G02  20787288.580   109237969.178 8  85120478.71047  20787282.160          50.500          45.800
G05  20615185.080   108333668.200 8  84415908.15147  20615181.900          50.700          47.050
G06  21725974.020   114170755.370 8  88964222.92247  21725974.140          48.700          43.900
G09  23913468.140   125666136.004 6  97921669.61145  23913468.120          40.950          35.150
G12  23309496.380   122492213.315 7  95448464.21946  23309495.520          44.850          41.700
G13  23329497.200   122597528.199 7  95530665.25746  23329498.240          45.900          37.600
G17  24108367.320   126690224.323 6  98719614.47746  24108369.720          40.400          37.600
G20  23885483.460   125519189.531 7  97807233.06045  23885485.240          42.950          35.000
G25  24112787.420   126713554.139 7  98737846.93946  24112789.280          43.400          38.100
G29  24458765.000   128531684.030 6 100154571.85845  24458764.600          40.500          35.750
> 2015 08 26 09 49 00.0000000  0 10
G02  20783185.060   109216404.909 8  85103675.36047  20783178.640          50.250          45.350
G05  20611992.940   108316893.352 8  84402836.85147  20611989.740          50.600          46.850
G06  21733051.160   114207945.826 8  88993202.44747  21733051.320          48.700          43.750
G09  23928639.300   125745861.066 6  97983792.97546  23928639.340          40.150          36.300
G12  23321267.900   122554072.674 7  95496666.20246  23321267.080          45.850          41.000
G13  23309465.400   122492261.368 7  95448639.40846  23309466.360          46.350          36.750
G17  24128731.620   126797237.810 6  98803001.20446  24128734.180          37.900          36.950
G20  23870095.640   125438327.010 7  97744223.54546  23870097.360          44.000          38.050
G25  24115547.540   126728058.460 7  98749148.96646  24115549.400          43.900          37.350
G29  24439132.340   128428514.210 7 100074179.87546  24439131.900          43.200          37.150
> 2015 08 26 09 49 30.0000000  0 10
G02  20779112.080   109195001.152 8  85086997.09847  20779105.660          50.300          45.450
G05  20608872.000   108300492.791 8  84390057.20747  20608868.800          50.750          47.100
G06  21740165.620   114245332.490 8  89022334.88447  21740165.800          48.300          43.700
G09  23943879.220   125825947.363 6  98046197.84245  23943879.300          41.300          35.650
G12  23333094.740   122616222.838 7  95545094.79546  23333093.960          46.100          41.200
G13  23289454.320   122387103.394 7  95366698.38645  23289455.180          46.650          35.550
G17  24149127.360   126904416.573 6  98886516.73045  24149130.100          40.950          35.850
G20  23854743.040   125357649.533 7  97681358.23046  23854744.700          44.600          36.600
G25  24118397.900   126743037.069 7  98760820.58546  24118399.780          42.250          37.900
G29  24419519.900   128325450.360 7  99993870.40445  24419519.440          44.900          33.450
> 2015 08 26 09 50 00.0000000  0 10
G02  20775069.920   109173759.448 8  85070445.11647  20775063.520          50.050          45.450
G05  20605821.920   108284464.604 8  84377567.71747  20605818.720          50.750          47.350
G06  21747317.540   114282915.875 8  89051620.58647  21747317.740          48.350          43.650
G09  23959187.440   125906392.336 6  98108882.18246  23959187.540          40.100          36.350
G12  23344976.320   122678660.600 7  95593747.48646  23344975.580          46.950          41.050
G13  23269464.440   122282056.701 7  95284844.06846  23269465.200          46.800          36.650
G17  24169554.040   127011757.782 7  98970158.80545  24169556.940          42.600          35.200
G20  23839425.900   125277158.470 7  97618638.19246  23839427.520          45.200          36.350
G25  24121338.260   126758488.484 7  98772860.60145  24121340.120          43.550          35.850
G29  24399928.060   128222494.682 7  99913645.22946  24399927.540          45.600          36.550
> 2015 08 26 09 50 30.0000000  0 10
G02  20771058.960   109152681.816 8  85054020.97547  20771052.600          50.100          45.300
G05  20602842.840   108268809.451 8  84365368.90947  20602839.640          50.750          47.300
G06  21754507.200   114320697.694 8  89081060.92547  21754507.400          48.800          43.500
G09  23974563.620   125987194.755 6  98171845.11446  23974563.740          40.850          36.850
G12  23356912.300   122741384.248 7  95642622.95246  23356911.600          46.250          41.050
G13  23249496.580   122177125.637 7  95203079.83045  23249497.240          46.850          34.200
G17  24190011.480   127119260.597 7  99053926.82145  24190014.500          43.550          30.600
G20  23824144.460   125196854.736 7  97556064.09346  23824146.000          45.150          37.600
G25  24124368.500   126774412.248 7  98785268.67846  24124370.340          43.250          37.250
G29  24380357.500   128119650.816 7  99833507.20946  24380356.900          44.550          36.750
> 2015 08 26 09 51 00.0000000  0 10
G02  20767079.360   109131768.835 8  85037725.13847  20767073.020          50.100          45.100
G05  20599934.480   108253525.945 8  84353459.68647  20599931.280          50.700          47.000
G06  21761734.620   114358677.861 8  89110655.80947  21761734.840          48.800          43.550
G09  23990007.320   126068351.539 6  98235084.05246  23990007.520          39.800          36.850
G12  23368901.980   122804389.901 7  95691718.14846  23368901.300          46.800          40.700
G13  23229551.100   122072312.092 7  95121407.13045  23229551.680          46.400          34.350
G17  24210499.160   127226921.999 7  99137818.35945  24210502.240          43.650          31.150
G20  23808898.600   125116738.084 7  97493635.77045  23808900.100          45.550          35.650
G25  24127488.200   126790806.109 7  98798043.06046  24127490.020          43.400          36.300
G29  24360808.600   128016920.830 7  99753457.91446  24360807.960          44.050          36.650
> 2015 08 26 09 51 30.0000000  0 10
G02  20763131.340   109111021.918 8  85021558.70547  20763125.020          50.200          44.850
G05  20597096.700   108238613.384 8  84341839.53547  20597093.480          50.750          47.150
G06  21768999.940   114396857.154 8  89140405.86347  21769000.160          48.600          43.350
G09  24005518.000   126149860.403 7  98298597.39446  24005518.220          42.750          36.300
G12  23380944.800   122867674.882 7  95741031.01046  23380944.160          46.600          40.650
G13  23209628.640   121967619.702 7  95039828.86745  23209629.140          46.650          34.750
G17  24231016.580   127334739.806 7  99221831.81145  24231019.640          43.000          31.600
G20  23793688.520   125036809.373 7  97431353.89945  23793689.940          44.450          35.550
G25  24130697.120   126807668.703 7  98811182.67646  24130698.940          42.300          37.650
G29  24341281.840   127914307.326 7  99673499.40746  24341281.160          43.700          38.200
> 2015 08 26 09 52 00.0000000  0 10
G02  20759214.960   109090441.170 8  85005521.74947  20759208.660          50.250          45.000
G05  20594329.100   108224069.551 8  84330506.68247  20594325.880          50.700          47.250
G06  21776302.980   114435234.686 8  89170310.37647  21776303.220          48.450          43.750
G09  24021094.960   126231717.454 7  98362382.06545  24021095.180          43.100          35.500
G12  23393039.920   122931234.486 7  95790557.83346  23393039.300          45.950          40.400
G13  23189729.440   121863049.491 7  94958345.78145  23189729.860          46.150          33.700
G17  24251563.080   127442710.351 7  99305964.25345  24251566.100          44.050          32.750
G20  23778513.940   124957067.352 7  97369217.47545  23778515.320          43.650          35.650
G25  24133994.620   126824996.988 7  98824685.19546  24133996.440          42.700          36.600
G29  24321777.300   127811810.823 7  99593632.10746  24321776.600          42.100          37.050
> 2015 08 26 09 52 30.0000000  0 10
G02  20755331.480   109070033.272 8  84989619.47647  20755325.180          50.150          45.050
G05  20591632.560   108209899.187 8  84319464.84647  20591629.340          50.500          47.050
G06  21783644.940   114473816.818 8  89200374.31347  21783645.220          48.450          43.900
G09  24036738.820   126313925.970 7  98426440.59646  24036739.040          42.300          36.300
G12  23405187.760   122995071.301 7  95840300.71246  23405187.160          45.750          39.700
G13  23169855.180   121758610.359 7  94876964.81545  23169855.540          45.650          33.600
G17  24272139.260   127550836.999 7  99390218.31745  24272142.280          43.150          34.150
G20  23763376.000   124877518.194 7  97307231.39645  23763377.300          43.950          34.600
G25  24137381.500   126842795.113 7  98838553.82246  24137383.340          42.600          37.750
G29  24302296.760   127709440.149 7  99513862.78946  24302296.060          43.300          38.850
> 2015 08 26 09 53 00.0000000  0 10
G02  20751479.260   109049789.653 8  84973845.21347  20751472.960          50.200          45.050
G05  20589004.960   108196091.056 8  84308705.26447  20589001.760          50.650          46.650
G06  21791024.060   114512594.205 8  89230590.42847  21791024.360          48.800          43.550
G09  24052447.220   126396473.681 7  98490763.41346  24052447.440          43.000          37.300
G12  23417385.980   123059172.778 7  95890249.79446  23417385.400          45.250          38.000
G13  23150004.500   121654295.306 7  94795680.55346  23150004.840          46.200          36.250
G17  24292742.840   127659107.829 7  99474584.72145  24292745.900          44.200          34.050
G20  23748273.060   124798152.575 7  97245388.28245  23748274.260          42.650          33.500
G25  24140855.640   126861051.526 7  98852779.50745  24140857.520          43.800          35.450
G29  24282838.680   127607187.651 7  99434185.58346  24282837.980          43.100          38.200
