     3.01           OBSERVATION DATA    M (MIXED)           RINEX VERSION / TYPE
teqc  2010Mar17     UNAVCO Archive Ops  20100416 05:01:05UTCPGM / RUN BY / DATE 
gfzrnx-1.10-7329    FILE CONVERSION     20181205 082317 UTC COMMENT             
Solaris 5.10|UltraSparc IIIi|cc -m64 SS12.1|=+|*Sparc       COMMENT             
BIT 2 OF LLI FLAGS DATA COLLECTED UNDER A/S CONDITION       COMMENT             
P494                                                        MARKER NAME         
                                                            MARKER NUMBER       
Michael Jackson     UNAVCO/PBO                              OBSERVER / AGENCY   
4532254564          TRIMBLE NETRS       1.1-2               REC # / TYPE / VERS 
12693979            TRM41249.00     SCIT                    ANT # / TYPE        
 -2330982.7158 -4836495.7229  3431549.6574                  APPROX POSITION XYZ 
        0.0083        0.0000        0.0000                  ANTENNA: DELTA H/E/N
     1     1                                                WAVELENGTH FACT L1/2
    15                  GPS                                 LEAP SECONDS        
RINEX file created by UNAVCO GPS Archive.                   COMMENT             
For more information contact archive@unavco.org             COMMENT             
Monument ID: 18793                                          COMMENT             
UNAVCO 4-char name:   P494                                  COMMENT             
4-char name from Log or data file: P494                     COMMENT             
Monument location: 32.759655 -115.732065 -44.3328           COMMENT             
Visit ID: 92847                                             COMMENT             
End of DB comments                                          COMMENT             
 SNR is mapped to RINEX snr flag value [0-9]                COMMENT             
  L1 & L2: min(max(int(snr_dBHz/6), 0), 9)                  COMMENT             
                                                            COMMENT             
*********************************************************** COMMENT             
*                 WARNING - FORMAT CONVERSION             * COMMENT             
* ------------------------------------------------------- * COMMENT             
*  The data values: observation, loss of lock (LLI) and   * COMMENT             
*  signal strength (SSI) indicators are left as they are. * COMMENT             
*    The LLI meaning differs between versions 2 and 3     * COMMENT             
*    and the Interpretation of bit 1 and 2 has to be      * COMMENT             
*                   used with caution !!!                 * COMMENT             
*********************************************************** COMMENT             
                                                            COMMENT             
RINEX 2 -> 3 TYPE CONVERSION DETAILS:                       COMMENT             
-------------------------------------                       COMMENT             
   G C1  -> C1C                                             COMMENT             
   G P2  -> C2W                                             COMMENT             
-------------------------------------                       COMMENT             
                                                            COMMENT             
G    6 C1C L1C L2W C2W S1  S2                               SYS / # / OBS TYPES 
    28                                                      # OF SATELLITES     
   G02   861   856   833   836   861   836                  PRN / # OF OBS      
   G03  1190  1181  1129  1133  1190  1133                  PRN / # OF OBS      
   G04  1019  1010   960   965  1019   965                  PRN / # OF OBS      
   G05  1094  1083  1071  1079  1094  1079                  PRN / # OF OBS      
   G06  1169  1155  1090  1097  1169  1097                  PRN / # OF OBS      
   G07   983   981   971   973   983   973                  PRN / # OF OBS      
   G08   939   935   918   922   939   922                  PRN / # OF OBS      
   G10  1092  1087  1041  1042  1092  1042                  PRN / # OF OBS      
   G11  1196  1182  1135  1141  1196  1141                  PRN / # OF OBS      
   G12   878   868   836   841   878   841                  PRN / # OF OBS      
   G13   873   869   856   856   873   856                  PRN / # OF OBS      
   G14   864   856   825   827   864   827                  PRN / # OF OBS      
   G15  1172  1169  1153  1154  1172  1154                  PRN / # OF OBS      
   G16  1072  1065  1036  1037  1072  1037                  PRN / # OF OBS      
   G17   867   856   828   833   867   833                  PRN / # OF OBS      
   G18   932   928   907   909   932   909                  PRN / # OF OBS      
   G19  1127  1124  1111  1114  1127  1114                  PRN / # OF OBS      
   G20   960   940   898   906   960   906                  PRN / # OF OBS      
   G21   974   973   947   947   974   947                  PRN / # OF OBS      
   G22   959   958   947   948   959   948                  PRN / # OF OBS      
   G23   940   939   929   930   940   930                  PRN / # OF OBS      
   G24   965   958   941   944   965   944                  PRN / # OF OBS      
   G26  1056  1051  1027  1029  1056  1029                  PRN / # OF OBS      
   G27  1098  1082  1042  1049  1098  1049                  PRN / # OF OBS      
   G28   971   965   955   960   971   960                  PRN / # OF OBS      
   G29   876   873   867   869   876   869                  PRN / # OF OBS      
   G30  1015  1004   982   990  1015   990                  PRN / # OF OBS      
   G31  1009  1003   976   980  1009   980                  PRN / # OF OBS      
    30.000                                                  INTERVAL            
  2010     4     4     0     0    0.0000000     GPS         TIME OF FIRST OBS   
  2010     4     4    23    59   30.0000000     GPS         TIME OF LAST OBS    
                                                            END OF HEADER      
> 2010 04 04 00 00 00.0000000  0 10
G03  25029945.4144   -1467185.70845  -2290867.12743  25029940.2934         35.2504         18.2504
G04  24877591.2034   -4235926.90245  -3274071.64643  24877584.6174         34.2504         18.2504
G06  24981511.523     -684399.272 5                                        34.000
G07  23896314.6724   -7162125.63347  -7399558.02244  23896307.7934         43.2504         29.5004
G11  25595288.2894    2774601.71145   2170983.24942  25595285.7464         34.2504         16.7504
G13  22473784.5864  -15206784.35447 -12824227.09645  22473776.4774         45.7504         32.0004
G16  21253487.4614  -20076766.05847 -15342193.98945  21253477.4184         44.5004         34.7504
G20  20355539.8364  -27762869.05748 -21610396.89847  20355530.0864         50.0004         42.7504
G23  21006223.9224  -23706789.56348 -19277364.55046  21006212.8834         52.2504         40.0004
G31  24791349.3914    2081515.23046   -464736.06444  24791340.9304         40.0004         24.7504
> 2010 04 04 00 00 30.0000000  0 10
G03  25015433.6484   -1543447.14646  -2350291.52943  25015427.5314         37.5004         18.2504
G04  24876523.8594   -4241543.09746  -3278447.89243  24876517.2734         36.0004         19.0004
G06  24969594.656                                                          30.750
G07  23881161.5474   -7241752.34347  -7461604.74444  23881155.1954         44.0004         29.0004
G11  25607183.0084    2837115.32945   2219694.78542  25607181.6374         32.7504         15.5004
G13  22461111.5084  -15273385.24947 -12876123.86545  22461102.6954         45.2504         31.2504
G16  21255559.3054  -20065878.45347 -15333710.14145  21255549.9654         46.2504         34.5004
G20  20359852.2274  -27740206.80448 -21592738.01647  20359842.6524         50.0004         43.2504
G23  20997839.1254  -23750852.07148 -19311698.96846  20997827.6764         53.2504         40.2504
G31  24808480.4454    2171539.20646   -394587.55544  24808471.8094         40.7504         26.0004
> 2010 04 04 00 01 00.0000000  0 10
G03  25000897.3834   -1619840.00846  -2409818.34443  25000889.6844         37.5004         18.2504
G04  24875545.4694   -4246684.17846  -3282453.90142  24875538.8244         36.2504         17.7504
G06  24957669.344     -809685.903 5                                        32.250
G07  23866047.4144   -7321181.41547  -7523497.47245  23866040.5944         44.5004         30.0004
G11  25619039.398     2899413.455 5                                        33.500
G13  22448445.9614  -15339940.21247 -12927984.84845  22448437.2074         45.0004         31.5004
G16  21257747.9224  -20054379.72147 -15324750.08545  21257737.9384         45.0004         35.2504
G20  20364271.6884  -27716982.99448 -21574641.55747  20364261.6454         49.5004         43.0004
G23  20989482.5944  -23794766.25348 -19345917.80646  20989471.2034         53.0004         40.2504
G31  24825599.1564    2261491.57946   -324494.82644  24825589.4064         40.5004         25.5004
> 2010 04 04 00 01 30.0000000  0 10
G03  24986334.9064   -1696357.22045  -2469442.07242  24986328.9654         33.0004         17.7504
G04  24874658.5314   -4251345.97245  -3286086.45443  24874651.4184         33.5004         19.0004
G06  24945734.711     -872401.956 5                                        33.000
G07  23850970.2274   -7400408.24347  -7585232.60144  23850963.7584         44.7504         29.2504
G11  25630855.188     2961499.064 5                                        35.000
G13  22435790.8524  -15406443.85447 -12979805.83345  22435781.6294         46.5004         31.2504
G16  21260053.0084  -20042265.14847 -15315310.14145  21260043.3164         46.2504         35.5004
G20  20368798.2344  -27693193.34348 -21556104.18047  20368788.4844         50.0004         42.5004
G23  20981155.4844  -23838525.99648 -19380016.30746  20981143.9184         52.0004         40.2504
G31  24842702.1954    2351376.44046   -254454.69043  24842693.6174         38.7504         22.7504
> 2010 04 04 00 02 00.0000000  0 10
G03  24971751.0864   -1772996.54945  -2529160.96442  24971745.8484         33.5004         16.7504
G04  24873860.1024   -4255529.98545  -3289346.75643  24873854.9804         31.7504         18.5004
G06  24933793.680     -935162.187 5                                        35.500
G07  23835932.5554   -7479432.85347  -7646810.14944  23835925.7344         45.2504         28.5004
G11  25642628.945     3023369.512 6                                        36.750
G13  22423145.8754  -15472896.24147 -13031586.87845  22423136.3014         46.2504         32.0004
G16  21262475.4144  -20029536.11447 -15305391.40445  21262465.3714         46.7504         34.5004
G20  20373433.1884  -27668838.80648 -21537126.63547  20373423.1454         50.0004         42.0004
G23  20972857.5474  -23882131.01348 -19413994.22746  20972846.2734         53.0004         40.0004
G31  24859793.7664    2441191.61946   -184468.87043  24859784.3674         37.5004         22.0004
> 2010 04 04 00 02 30.0000000  0 10
G03  24957141.3834                                   24957138.3134         28.2504         15.5004
G04  24873154.8754   -4259238.17845  -3292236.27743  24873149.1684         34.5004         18.2504
G06  24921840.797     -997965.225 5                                        32.500
G07  23820932.7194   -7558256.10847  -7708230.80245  23820926.3094         45.5004         30.2504
G11  25654358.742     3085021.631 5                                        34.000
G13  22410510.1954  -15539298.26347 -13083328.69145  22410501.1484         46.5004         33.5004
G16  21265013.9924  -20016194.50747 -15294995.34745  21265004.5354         47.0004         35.0004
G20  20378175.0004  -27643921.49248 -21517710.56247  20378164.9574         49.2504         43.0004
G23  20964588.9694  -23925581.67548 -19447851.88446  20964577.5784         52.7504         40.7504
G31  24876870.9774    2530934.77346   -114539.17543  24876861.8714         37.0004         20.2504
> 2010 04 04 00 03 00.0000000  0  9
G04  24872541.0394   -4262469.75645  -3294754.38643  24872534.2774         33.2504         19.0004
G06  24909882.422    -1060807.502 5                                        32.500
G07  23805971.6724   -7636876.25147  -7769493.16545  23805965.5554         45.0004         30.0004
G11  25666051.297     3146454.945 6                                        37.000
G13  22397884.0084  -15605648.02047 -13135029.75845  22397875.2544         46.5004         33.0004
G16  21267670.0004  -20002239.47547 -15284121.28445  21267659.6054         46.7504         35.2504
G20  20383023.6884  -27618440.40648 -21497855.18047  20383014.1724         49.7504         43.2504
G23  20956350.7974  -23968875.28848 -19481587.16246  20956338.9384         52.7504         39.5004
G31  24893936.0234    2620606.59446    -44665.03843  24893926.1564         36.5004         19.2504
> 2010 04 04 00 03 30.0000000  0 10
G03  24927862.750    -2003631.453 5                                        32.250
G04  24872016.2194   -4265226.01345  -3296902.17043  24872009.8094         33.5004         19.5004
G06  24897916.281    -1123686.638 5                                        32.000
G07  23791048.9144   -7715293.43347  -7830597.41744  23791041.7424         45.0004         27.5004
G11  25677700.336     3207666.864 5                                        35.500
G13  22385267.9844  -15671945.23848 -13186689.90945  22385258.8204         48.0004         33.0004
G16  21270441.8914  -19987671.88847 -15272769.92045  21270431.9654         46.0004         35.0004
G20  20387979.2894  -27592397.25748 -21477561.83647  20387970.1254         50.2504         43.5004
G23  20948142.1334  -24012011.46748 -19515199.76246  20948130.2154         52.7504         40.0004
G31  24910985.7814    2710205.11045     25151.94143  24910976.0904         35.7504         19.7504
> 2010 04 04 00 04 00.0000000  0 10
G03  24913191.703    -2080737.260 5                                        31.750
G04  24871583.9614   -4267507.48846  -3298679.95043  24871575.2074         36.0004         19.7504
G06  24885946.8054   -1186600.07845  -1349395.11143  24885934.1254         34.2504         19.5004
G07  23776165.2194   -7793507.33747  -7891543.25844  23776158.2814         45.0004         27.0004
G11  25689305.367     3268655.631 5                                        35.000
G13  22372661.9454  -15738189.34948 -13238308.66145  22372652.8404         48.0004         33.0004
G16  21273330.6254  -19972492.16047 -15260941.55545  21273320.5824         43.5004         35.5004
G20  20393042.2664  -27565792.31848 -21456830.72547  20393032.8674         49.7504         43.0004
G23  20939964.1174  -24054988.89148 -19548688.65246  20939952.1994         52.5004         40.0004
G31  24928022.5704    2799729.75345     94911.35743  24928013.1724         35.5004         20.7504
> 2010 04 04 00 04 30.0000000  0 10
G03  24898496.180                                                          28.000
G04  24871238.8914   -4269317.33746  -3300090.20843  24871231.5434         36.0004         21.5004
G06  24873968.3524   -1249547.49045  -1398445.04143  24873959.7154         33.5004         18.2504
G07  23761320.5234   -7871519.45047  -7952331.87544  23761311.7704         45.0004         26.0004
G11  25700868.000     3329417.025 5                                        35.250
G13  22360065.9614  -15804382.01148 -13289887.32545  22360056.1524         48.0004         31.7504
G16  21276334.9614  -19956703.04847 -15248638.34945  21276325.5634         44.0004         34.7504
G20  20398211.5864  -27538628.38348 -21435664.03847  20398201.7194         48.7504         43.5004
G23  20931815.3524  -24097808.77248 -19582054.79646  20931803.7854         52.0004         40.5004
G31  24945042.9694    2889176.67045    164610.21443  24945033.9224         35.7504         22.7504
> 2010 04 04 00 05 00.0000000  0 10
G03  24883782.984    -2235278.079 5                                        32.000
G04  24870984.1254   -4270651.21845  -3301129.60443  24870977.5984         34.5004         20.5004
G06  24861985.1484   -1312520.65545  -1447514.99542  24861975.8094         30.2504         16.7504
G07  23746514.1884   -7949324.37747  -8012959.04744  23746505.0824         44.0004         25.2504
G11  25712388.766     3389954.574 5                                        31.000
G13  22347480.6024  -15870517.37148 -13341421.34645  22347471.0274         48.5004         33.0004
G16  21279456.0864  -19940300.40647 -15235857.06845  21279446.9224         45.0004         34.7504
G20  20403487.6254  -27510900.82348 -21414058.16447  20403478.1684         48.7504         43.0004
G23  20923698.2814  -24140464.76948 -19615293.22746  20923686.2464         52.5004         40.0004
G31  24962048.6644    2978550.61345    234252.21743  24962042.0784         34.5004         22.0004
> 2010 04 04 00 05 30.0000000  0  8
G03  24869049.547    -2312698.778 6                                        36.250
G04  24870821.4064   -4271505.94046  -3301795.63043  24870814.8794         39.0004         20.0004
G07  23731748.2274   -8026918.18847  -8073421.71744  23731739.0634         44.2504         26.5004
G13  22334907.2274  -15936591.24247 -13392907.45745  22334897.6524         47.5004         32.2504
G16  21282694.7504  -19923280.83147 -15222595.04345  21282685.3524         46.0004         35.2504
G20  20408871.7584  -27482607.03348 -21392011.07347  20408862.3594         48.2504         43.2504
G23  20915613.1414  -24182952.07748 -19648400.21846  20915601.8094         53.0004         39.7504
G31  24979042.7424    3067853.96245    303839.21643  24979036.3914         35.5004         22.7504
> 2010 04 04 00 06 00.0000000  0  8
G03  24854296.078    -2390228.604 5                                        35.750
G04  24870747.4924   -4271896.30246  -3302099.81543  24870740.4964         37.5004         20.2504
G07  23717020.3834   -8104314.22847  -8133730.24844  23717010.5164         43.0004         26.2504
G13  22322343.3054  -16002616.47048 -13444355.67345  22322333.1454         48.5004         32.7504
G16  21286048.3524  -19905658.73947 -15208863.55345  21286039.0124         46.0004         35.0004
G20  20414360.9304  -27453761.38448 -21369533.95847  20414351.7664         49.5004         43.2504
G23  20907558.0704  -24225283.08048 -19681385.41446  20907545.9774         52.5004         40.7504
G31  24996020.1804    3157072.27645    373359.94643  24996013.7704         33.5004         22.5004
> 2010 04 04 00 06 30.0000000  0  9
G03  24839523.977    -2467857.941 6                                        38.000
G04  24870762.3754   -4271815.54946  -3302036.93343  24870755.6134         37.2504         21.0004
G06  24826003.328                                                          27.500
G07  23702331.5704   -8181504.52147  -8193878.47244  23702322.0554         43.0004         25.7504
G13  22309789.9144  -16068585.00648 -13495759.71345  22309780.1054         48.5004         33.5004
G16  21289517.6254  -19887427.03747 -15194657.03145  21289507.8754         44.0004         35.5004
G20  20419956.4304  -27424356.91748 -21346621.40947  20419946.9144         49.2504         43.7504
G23  20899533.9694  -24267449.13148 -19714242.08046  20899522.2274         51.7504         40.2504
G31  25012982.8054    3246212.03345    442819.42743  25012976.4534         32.0004         19.7504
> 2010 04 04 00 07 00.0000000  0  8
G03  24824733.2734   -2545583.44846  -3131177.54342  24824725.9844         38.7504         17.2504
G04  24870868.8054   -4271264.08046  -3301607.21143  24870860.7544         38.5004         21.0004
G07  23687681.5234   -8258488.06347  -8253865.59244  23687672.8284         42.5004         25.5004
G13  22297247.5164  -16134495.56448 -13547118.57345  22297237.4144         48.5004         33.0004
G16  21293102.9224  -19868586.08847 -15179975.77345  21293093.1724         44.0004         35.0004
G20  20425658.1644  -27394393.90148 -21323273.62047  20425648.8244         49.5004         43.7504
G23  20891541.6564  -24309448.47448 -19746968.83846  20891530.0904         52.5004         40.5004
G31  25029927.9694    3335272.69844    512217.25242  25029924.5474         25.2504         17.2504
> 2010 04 04 00 07 30.0000000  0  7
G03  24809924.8674   -2623404.65246  -3191817.44543  24809917.4024         39.0004         18.2504
G04  24871063.2274   -4270245.01046  -3300813.14843  24871054.8244         40.0004         22.0004
G07  23673071.5474   -8335267.08647  -8313693.33044  23673062.9104         43.7504         27.7504
G13  22284715.6564  -16200349.98647 -13598433.68945  22284706.3164         47.5004         33.5004
G16  21296803.6644  -19849138.87047 -15164822.09345  21296793.9144         43.7504         35.0004
G20  20431466.0084  -27363875.50048 -21299493.07047  20431456.5514         50.0004         43.5004
G23  20883580.9144  -24351282.38648 -19779566.67746  20883569.4064         51.7504         40.2504
> 2010 04 04 00 08 00.0000000  0  7
G03  24795097.0394   -2701317.33646  -3252528.59742  24795091.9774         36.5004         16.7504
G04  24871346.3524   -4268757.67946  -3299654.18343  24871338.7114         37.5004         22.2504
G07  23658499.2114   -8411839.47347  -8373360.05544  23658491.6884         42.5004         27.7504
G13  22272194.6484  -16266145.79548 -13649703.11045  22272185.7774         48.0004         33.2504
G16  21300619.5784  -19829084.58647 -15149195.37445  21300610.1214         44.7504         35.0004
G20  20437379.1804  -27332800.86448 -21275279.08947  20437369.8404         49.0004         43.5004
G23  20875652.1724  -24392948.05448 -19812033.42746  20875640.6054         52.0004         40.2504
> 2010 04 04 00 08 30.0000000  0  9
G03  24780253.6564   -2779323.58746  -3313312.60042  24780246.9534         36.0004         13.7504
G04  24871716.8054   -4266807.67246  -3298134.71343  24871709.6914         38.0004         21.7504
G06  24777985.578                                                          29.250
G07  23643967.2814   -8488209.51247  -8432869.12344  23643958.9964         44.0004         27.7504
G13  22259684.7584  -16331887.22548 -13700930.17145  22259675.5354         48.2504         33.2504
G16  21304549.9384  -19808428.84447 -15133099.97845  21304540.7154         45.5004         34.0004
G20  20443397.2194  -27301175.63148 -21250636.06547  20443387.8794         49.0004         43.5004
G23  20867754.7894  -24434449.10148 -19844371.89846  20867743.2814         52.7504         40.5004
G31  25080681.2584      52802.40145    593082.23843  25080673.0314         34.7504         19.0004
> 2010 04 04 00 09 00.0000000  0  9
G03  24765393.9384   -2857409.98446  -3374159.05442  24765386.4734         36.5004         14.7504
G04  24872176.5164   -4264385.17546  -3296247.07843  24872170.3404         38.5004         22.5004
G06  24765974.211     -269592.761 5                                        30.000
G07  23629475.3674   -8564366.40147  -8492212.08944  23629467.0824         44.2504         28.7504
G13  22247187.0944  -16397562.79548 -13752105.91945  22247177.6954         48.5004         33.5004
G16  21308597.3594  -19787161.70347 -15116528.19145  21308587.7854         46.7504         34.5004
G20  20449522.1334  -27268989.74448 -21225556.18447  20449512.6174         50.0004         44.0004
G23  20859891.1334  -24475773.49948 -19876572.73546  20859879.3914         53.0004         40.5004
G31  25097565.6954     141534.55046    662224.12043  25097557.4694         37.0004         18.2504
> 2010 04 04 00 09 30.0000000  0  9
G03  24750518.1094   -2935579.90046  -3435070.67342  24750511.3484         36.5004         14.7504
G04  24872725.9774   -4261497.34546  -3293996.84643  24872719.8594         39.5004         22.7504
G06  24753964.836     -332707.262 5                                        31.000
G07  23615022.5234   -8640315.77347  -8551393.35244  23615014.4144         44.5004         29.5004
G13  22234700.8754  -16463177.74948 -13803234.43645  22234691.2424         48.2504         33.0004
G16  21312759.3364  -19765289.93547 -15099485.25645  21312749.3524         45.7504         34.5004
G20  20455752.0394  -27236250.61748 -21200045.18647  20455742.7584         50.7504         43.5004
G23  20852060.2194  -24516926.12648 -19908639.70646  20852048.3594         53.5004         41.0004
G31  25114435.0474     230182.29546    731300.26842  25114426.9384         38.2504         16.7504
> 2010 04 04 00 10 00.0000000  0  9
G03  24735627.8834   -3013832.53846  -3496046.67342  24735621.0634         37.5004         15.5004
G04  24873364.4694   -4258146.58546  -3291385.88443  24873357.2974         40.5004         22.0004
G06  24741956.469     -395825.623 5                                        33.500
G07  23600608.7584   -8716059.15247  -8610414.12445  23600601.2934         45.0004         30.5004
G13  22222226.2894  -16528733.11048 -13854316.52145  22222216.6564         48.0004         33.7504
G16  21317036.1484  -19742815.99147 -15081973.09945  21317026.6914         45.5004         34.0004
G20  20462087.2114  -27202960.47148 -21174104.84247  20462077.8134         49.2504         43.2504
G23  20844261.4534  -24557907.38548 -19940573.15146  20844250.0634         53.0004         40.7504
G31  25131287.2114     318743.23246    800308.89542  25131279.0434         40.0004         16.2504
> 2010 04 04 00 10 30.0000000  0 10
G03  24720721.9614   -3092167.11446  -3557086.58142  24720714.6724         38.7504         16.2504
G04  24874089.1254   -4254336.07146  -3288416.66843  24874082.3054         41.2504         22.0004
G06  24729946.195     -458947.430 5                                        35.000
G07  23586234.9144   -8791597.90747  -8669275.41144  23586226.7464         45.7504         29.7504
G11  25836158.469      -24583.228 5                                        32.250
G13  22209762.6954  -16594229.95147 -13905352.99645  22209753.1804         47.5004         33.5004
G16  21321426.8284  -19719742.87247 -15063994.04645  21321416.9024         45.5004         35.0004
G20  20468526.0554  -27169122.37248 -21147737.51347  20468516.5984         50.2504         43.2504
G23  20836495.6484  -24598718.00048 -19972373.62646  20836484.2584         52.5004         41.0004
G31  25148122.1724     407214.12146    869247.35942  25148113.0084         39.5004         15.5004
> 2010 04 04 00 11 00.0000000  0 10
G03  24705801.5084   -3170571.23546  -3618180.66943  24705795.3914         39.0004         18.5004
G04  24874903.5704   -4250057.46246  -3285082.68243  24874896.6334         38.7504         22.0004
G06  24717936.109     -522060.707 5                                        35.000
G07  23571900.7734   -8866922.82447  -8727970.11245  23571893.4844         45.2504         30.5004
G11  25847134.898       33091.761 5                                        35.500
G13  22197311.8524  -16659658.33848 -13956336.13945  22197302.8054         48.2504         33.7504
G16  21325933.7274  -19696062.04847 -15045541.45545  21325923.4494         45.5004         34.2504
G20  20475071.3444  -27134727.91548 -21120936.65247  20475061.8284         50.0004         43.2504
G23  20828764.2344  -24639347.46548 -20004032.94846  20828752.2584         53.0004         40.7504
G31  25164943.2274     495603.89146    938122.54242  25164933.6524         41.0004         17.2504
> 2010 04 04 00 11 30.0000000  0 10
G03  24690868.8364   -3249048.07346  -3679331.39642  24690862.3674         38.7504         16.7504
G04  24875806.3524   -4245316.99646  -3281388.83543  24875799.3554         39.7504         21.7504
G06  24705927.359     -585168.049 6                                        36.250
G07  23557606.6804   -8942038.70547  -8786501.90945  23557599.3914         46.2504         31.2504
G11  25858061.719       90516.857 5                                        34.500
G13  22184873.1254  -16725023.16447 -14007269.73745  22184864.7814         47.7504         33.7504
G16  21330554.0314  -19671779.90647 -15026620.31545  21330544.3984         46.5004         33.5004
G20  20481721.0474  -27099783.69948 -21093707.41547  20481711.3554         50.7504         43.0004
G23  20821066.4924  -24679799.93248 -20035554.34046  20821054.5744         52.7504         40.0004
G31  25181745.1094     583906.07046   1006929.42543  25181737.4104         40.7504         21.0004
> 2010 04 04 00 12 00.0000000  0 10
G03  24675921.3524   -3327594.33446  -3740536.27842  24675914.1214         38.5004         16.2504
G04  24876795.5634   -4240115.60546  -3277335.84643  24876789.4454         41.0004         22.7504
G06  24693919.703     -648266.642 5                                        34.500
G07  23543352.0234   -9016944.93447  -8844870.36445  23543344.6174         46.0004         31.0004
G11  25868943.375      147690.425 5                                        33.500
G13  22172447.0394  -16790322.90247 -14058152.61945  22172438.9304         47.7504         34.0004
G16  21335289.2194  -19646897.12547 -15007231.13145  21335278.9414         46.0004         34.0004
G20  20488474.9774  -27064289.91448 -21066049.93847  20488465.7544         50.5004         43.2504
G23  20813402.2114  -24720073.96348 -20066936.69446  20813390.6454         52.5004         40.5004
G31  25198532.6024     672120.03246   1075667.54543  25198524.2584         39.7504         22.7504
> 2010 04 04 00 12 30.0000000  0 10
G03  24660963.3754   -3406207.92546  -3801793.54942  24660954.7974         40.0004         17.2504
G04  24877872.0234   -4234454.80946  -3272924.86643  24877866.9614         39.0004         22.0004
G06  24681914.250     -711353.940 5                                        35.000
G07  23529138.1024   -9091641.72047  -8903075.59145  23529130.6954         46.0004         31.7504
G11  25879775.656      204610.230 4                                        29.250
G13  22160033.2894  -16855557.76247 -14108984.95645  22160024.5944         47.7504         34.5004
G16  21340137.7814  -19621415.02547 -14987374.94845  21340128.3834         43.7504         34.7504
G20  20495333.6024  -27028248.21748 -21037965.51447  20495324.2624         51.2504         42.5004
G23  20805772.4064  -24760168.68348 -20098179.33246  20805761.1914         52.0004         40.7504
G31  25215303.1954     760244.56346   1144336.02243  25215293.9144         40.0004         22.0004
> 2010 04 04 00 13 00.0000000  0  9
G03  24645991.1024   -3484880.36646  -3863096.73442  24645982.7584         36.0004         16.7504
G04  24879037.1804   -4228330.43046  -3268152.63443  24879031.5314         39.5004         20.7504
G06  24669912.359     -774422.194 5                                        35.750
G07  23514965.0234   -9166123.71947  -8961113.46745  23514956.7974         47.0004         31.2504
G13  22147633.6024  -16920721.49647 -14159761.87145  22147624.3204         47.7504         33.2504
G16  21345102.5084  -19595329.54447 -14967048.59945  21345091.9964         44.5004         34.2504
G20  20502297.1724  -26991654.43248 -21009450.89447  20502287.7734         50.5004         43.2504
G23  20798177.8914  -24800077.78448 -20129277.32646  20798166.3834         52.5004         40.7504
G31  25232057.2894     848284.07146   1212938.22143  25232046.4844         38.2504         21.7504
> 2010 04 04 00 13 30.0000000  0  9
G03  24631006.7344   -3563618.60845  -3924451.15342  24630998.9184         34.5004         16.2504
G04  24880289.2194   -4221752.91546  -3263027.33843  24880282.7504         39.7504         19.2504
G06  24657912.6724    -837477.82745  -2065020.66142  24657906.4964         34.2504         17.2504
G07  23500830.6644   -9240399.96847  -9018991.02645  23500822.0274         46.7504         31.5004
G13  22135244.9144  -16985822.53547 -14210489.93845  22135235.7504         47.2504         33.5004
G16  21350179.0784  -19568650.94647 -14946260.07645  21350168.7424         45.0004         34.2504
G20  20509363.9304  -26954519.05748 -20980514.25147  20509354.3554         51.0004         42.7504
G23  20790617.5704  -24839809.02648 -20160236.72546  20790605.3014         53.0004         40.7504
G31  25248791.9534     936228.46746   1281466.27643  25248782.3204         36.5004         22.7504
> 2010 04 04 00 14 00.0000000  0  9
G03  24616012.1414   -3642415.83745  -3985851.52942  24616004.0904         32.5004         13.7504
G04  24881628.6024   -4214718.95246  -3257546.34043  24881620.4924         39.5004         19.5004
G06  24645917.2274    -900513.95446  -2114139.64742  24645911.4614         36.7504         16.2504
G07  23486735.5474   -9314465.82947  -9076704.62544  23486727.4964         46.0004         29.7504
G13  22122869.0864  -17050855.67848 -14261165.09345  22122860.1564         48.2504         33.0004
G16  21355369.2424  -19541375.84047 -14925006.73845  21355359.2584         45.5004         34.2504
G20  20516533.9924  -26916838.92348 -20951153.12147  20516524.6524         50.5004         42.0004
G23  20783091.8054  -24879356.97448 -20191053.29746  20783079.8284         52.5004         40.2504
G31  25265509.6024    1024081.20845   1349922.95643  25265499.6174         33.2504         19.0004
> 2010 04 04 00 14 30.0000000  0  9
G03  24601005.2034                                   24601000.1994         30.0004         13.7504
G04  24883054.5944   -4207227.40846  -3251708.77843  24883045.8984         40.5004         20.2504
G06  24633925.6094    -963525.25746  -2163239.37442  24633919.7854         36.0004         15.5004
G07  23472682.5394   -9388318.57347  -9134252.17645  23472674.4304         47.0004         32.0004
G13  22110507.5944  -17115817.73947 -14311784.87045  22110498.4884         47.5004         33.5004
G16  21360673.1484  -19513502.92447 -14903287.58345  21360663.0474         45.5004         34.5004
G20  20523808.5704  -26878612.55548 -20921366.37147  20523798.9964         50.7504         42.2504
G23  20775601.4844  -24918717.67948 -20221723.98146  20775589.9184         52.5004         41.0004
G31  25282209.9384                                   25282200.3634         28.7504         16.7504
> 2010 04 04 00 15 00.0000000  0  8
G03  24585992.3984   -3800170.69745  -4108777.15842  24585986.6914         32.2504         16.2504
G04  24884566.8134   -4199281.90246  -3245517.46243  24884557.1214         40.7504         19.2504
G06  24621939.9844   -1026511.88846  -2212319.78442  24621934.2194         37.0004         17.2504
G07  23458668.4924   -9461960.35247  -9191635.32045  23458660.4414         46.2504         30.5004
G13  22098158.3594  -17180710.77647 -14362350.85845  22098149.7234         47.7504         33.7504
G16  21366090.3674  -19485035.88347 -14881105.47345  21366080.7344         44.7504         33.0004
G20  20531185.8984  -26839843.68248 -20891156.87247  20531176.3834         50.0004         42.0004
G23  20768146.9144  -24957892.75248 -20252250.00146  20768135.4654         52.2504         41.0004
> 2010 04 04 00 15 30.0000000  0  8
G03  24570967.9144   -3879125.91645  -4170300.72943  24570962.9694         34.7504         18.5004
G04  24886164.3204   -4190884.55946  -3238974.14643  24886156.1524         38.0004         18.5004
G06  24609958.2814   -1089471.72546  -2261379.34742  24609953.5124         37.5004         16.2504
G07  23444694.4774   -9535392.26947  -9248854.94145  23444687.7154         46.0004         31.0004
G13  22085822.8524  -17245534.75347 -14412863.02745  22085814.1564         47.2504         34.2504
G16  21371620.1094  -19455976.86447 -14858462.08345  21371609.8914         45.0004         34.0004
G20  20538666.5004  -26800534.34348 -20860526.24047  20538656.9844         50.5004         42.5004
G23  20760727.5164  -24996881.58448 -20282630.90446  20760715.7734         53.0004         40.7504
> 2010 04 04 00 16 00.0000000  0  9
G03  24555933.0314   -3958133.61445  -4231865.09542  24555927.7934         34.2504         17.7504
G04  24887847.2814   -4182040.09346  -3232082.37543  24887839.7584         39.0004         19.2504
G06  24597982.9844   -1152405.54846  -2310418.64342  24597977.8054         36.7504         16.2504
G07  23430760.6334   -9608617.53747  -9305913.53745  23430753.3444         46.2504         31.0004
G13  22073499.8754  -17310292.11148 -14463323.28745  22073491.3554         48.2504         33.7504
G16  21377261.4614  -19426330.32847 -14835360.88345  21377251.4774         44.5004         34.2504
G20  20546248.6174  -26760689.15148 -20829478.05547  20546239.1604         50.2504         42.5004
G23  20753343.2424  -25035686.33348 -20312868.37146  20753331.4414         52.7504         40.2504
G31  25332204.1724      11734.42745   1510745.63543  25332193.3674         33.0004         20.0004
> 2010 04 04 00 16 30.0000000  0  9
G03  24540891.9304   -4037179.56346  -4293459.29942  24540884.5824         37.5004         17.7504
G04  24889616.4924   -4172738.91446  -3224834.73543  24889610.1994         39.0004         19.5004
G06  24586014.2734   -1215300.04045  -2359427.25342  24586007.9224         34.0004         15.5004
G07  23416867.6174   -9681624.98247  -9362802.40845  23416859.8594         46.5004         30.5004
G13  22061192.5394  -17374971.36148 -14513722.68245  22061182.9064         48.5004         33.5004
G16  21383016.7584  -19396086.91847 -14811794.59445  21383006.4804         44.0004         33.5004
G20  20553934.7664  -26720298.53848 -20798004.86547  20553925.4264         50.5004         42.7504
G23  20745996.3284  -25074294.89648 -20342952.96546  20745984.7624         52.2504         40.7504
G31  25348832.5944      99120.37045   1578838.53543  25348823.3134         34.2504         19.2504
> 2010 04 04 00 17 00.0000000  0  9
G03  24525841.3204   -4116267.76645  -4355086.43243  24525834.2074         35.5004         18.2504
G04  24891472.1174   -4162988.98446  -3217237.42343  24891465.4144         39.0004         19.0004
G06  24574054.3914   -1278158.88745  -2408408.33542  24574042.6484         35.5004         13.7504
G07  23403015.3444   -9754420.78947  -9419526.37345  23403006.8244         46.5004         30.7504
G13  22048897.8834  -17439578.35248 -14564065.77245  22048888.6024         48.7504         33.5004
G16  21388883.6484  -19365254.22647 -14787769.11845  21388873.4884         43.2504         33.7504
G20  20561723.0004  -26679370.62048 -20766112.99847  20561713.5434         51.0004         42.5004
G23  20738685.6094  -25112712.93448 -20372889.09146  20738673.8094         52.5004         41.0004
G31  25365442.8754     186409.66146   1646856.09143  25365433.8874         36.7504         21.2504
> 2010 04 04 00 17 30.0000000  0  9
G03  24510783.8364   -4195395.03745  -4416744.02042  24510776.3134         35.0004         16.7504
G04  24893413.4694   -4152790.84946  -3209290.84043  24893405.0664         40.0004         19.0004
G06  24562100.0634   -1340979.04646  -2457358.95942  24562088.4964         37.0004         15.5004
G07  23389203.2034   -9827004.85447  -9476085.31645  23389194.9184         46.7504         31.0004
G13  22036617.6724  -17504111.52647 -14614351.34145  22036607.6884         47.2504         33.7504
G16  21394862.9774  -19333833.09947 -14763285.12545  21394853.1684         45.0004         33.7504
G20  20569613.5864  -26637905.87748 -20733802.82947  20569604.1294         49.0004         42.5004
G23  20731411.5234  -25150938.46848 -20402675.22646  20731399.6054         52.5004         40.5004
G31  25382034.8914     273602.01646   1714798.16943  25382026.0204         36.5004         22.5004
> 2010 04 04 00 18 00.0000000  0  9
G03  24495719.5234   -4274558.52845  -4478429.82742  24495711.8244         35.2504         17.7504
G04  24895438.6564   -4142145.97246  -3200996.15443  24895430.6644         38.5004         20.2504
G06  24550152.5704   -1403757.56745  -2506277.30942  24550143.6414         35.5004         15.5004
G07  23375430.2894   -9899376.66447  -9532478.89645  23375423.2934         46.5004         30.0004
G13  22024351.7344  -17568570.10247 -14664578.78445  22024342.0434         47.2504         33.5004
G16  21400954.1024  -19301824.77347 -14738343.57645  21400944.6454         44.0004         34.2504
G20  20577605.8284  -26595905.50048 -20701075.27647  20577596.6054         48.5004         42.5004
G23  20724174.3674  -25188970.08748 -20432310.25146  20724162.6254         52.2504         41.0004
G31  25398609.4064     360696.52346   1782663.99343  25398599.5984         38.2504         22.7504
> 2010 04 04 00 18 30.0000000  0  9
G03  24480647.8914   -4353754.77345  -4540141.11742  24480641.9494         34.7504         17.7504
G04  24897549.2344   -4131054.97946  -3192353.81943  24897541.3014         39.2504         19.0004
G06  24538216.2274   -1466490.89545  -2555160.31342  24538207.9414         35.0004         17.2504
G07  23361698.9454   -9971534.99847  -9588706.11545  23361691.6564         45.7504         32.5004
G13  22012099.9774  -17632952.49247 -14714746.86345  22012090.5204         47.5004         33.7504
G16  21407156.7344  -19269229.65647 -14712944.77645  21407146.8674         43.7504         33.0004
G20  20585700.1724  -26553370.09348 -20667930.83647  20585690.7154         51.0004         43.0004
G23  20716974.5084  -25226805.61448 -20461792.47946  20716963.1174         52.0004         41.2504
G31  25415163.9144     447693.49846   1850453.83043  25415154.6334         38.7504         22.7504
> 2010 04 04 00 19 00.0000000  0  9
G03  24465571.2664   -4432980.55246  -4601875.39442  24465566.6134         36.0004         17.7504
G04  24899743.9694   -4119519.22046  -3183364.96043  24899736.3284         38.7504         19.5004
G06  24526286.9304   -1529176.62345  -2604006.25142  24526279.6994         33.5004         15.5004
G07  23348009.1484  -10043480.05147  -9644767.15045  23348000.8634         46.0004         31.2504
G13  21999862.8054  -17697257.84648 -14764854.91445  21999853.2304         48.0004         34.7504
G16  21413470.8594  -19236049.14247 -14687089.83445  21413461.1094         46.0004         34.0004
G20  20593896.0474  -26510301.03348 -20634370.55147  20593887.1764         49.7504         42.5004
G23  20709811.8134  -25264443.79148 -20491120.92446  20709800.2464         52.0004         41.0004
G31  25431700.1024     534592.28746   1918167.15343  25431691.4654         39.2504         21.7504
> 2010 04 04 00 19 30.0000000  0  9
G03  24450491.1724   -4512233.91946  -4663631.19443  24450485.7584         38.2504         18.5004
G04  24902023.5634   -4107540.29046  -3174030.75243  24902015.8054         37.2504         20.2504
G06  24514366.8984   -1591812.36545  -2652813.22743  24514360.4304         31.2504         18.2504
G07  23334358.6024  -10115212.23047  -9700662.29045  23334350.4924         46.0004         32.2504
G13  21987640.9304  -17761485.88147 -14814902.71445  21987631.1214         47.7504         34.0004
G16  21419896.0474  -19202285.34947 -14660780.37345  21419886.0044         45.5004         33.5004
G20  20602192.7274  -26466700.51448 -20600396.13747  20602183.7974         50.5004         42.2504
G23  20702687.3204  -25301884.08448 -20520295.17046  20702675.7544         51.5004         40.7504
G31  25448216.8054     621391.62146   1985803.00743  25448208.6374         39.0004         19.7504
> 2010 04 04 00 20 00.0000000  0  9
G03  24435404.6724   -4591511.61946  -4725405.92743  24435399.9614         38.5004         18.5004
G04  24904387.2734   -4095119.04846  -3164351.88443  24904380.0434         40.0004         19.0004
G06  24502458.7974   -1654394.78445  -2701578.67942  24502450.9224         34.5004         17.7504
G07  23320749.5004  -10186730.78547  -9756391.00345  23320740.3954         47.0004         32.0004
G13  21975433.7664  -17825634.90848 -14864888.95545  21975424.1914         48.7504         35.0004
G16  21426432.2274  -19167938.71647 -14634016.78245  21426422.0084         46.5004         34.0004
G20  20610590.8834  -26422568.89348 -20566007.88547  20610581.4844         50.0004         42.5004
G23  20695600.9774  -25339124.23748 -20549313.48546  20695589.0594         52.0004         41.7504
G31  25464715.5314     708091.19646   2053361.13643  25464707.2464         39.0004         18.2504
> 2010 04 04 00 20 30.0000000  0  9
G03  24420315.0004   -4670810.71946  -4787197.38743  24420309.3524         39.2504         19.2504
G04  24906834.8284   -4082257.61346  -3154330.01143  24906828.2424         39.0004         18.5004
G06  24490559.5784   -1716921.61845  -2750300.88442  24490551.6454         33.5004         17.7504
G07  23307180.4304  -10258035.97047  -9811953.43145  23307171.2074         46.2504         32.5004
G13  21963241.5634  -17889704.60648 -14914813.35945  21963232.3984         48.2504         34.2504
G16  21433077.8754  -19133011.23547 -14606800.55745  21433068.5944         46.0004         34.0004
G20  20619089.5634  -26377907.98248 -20531207.19246  20619080.1054         50.7504         41.7504
G23  20688552.5864  -25376163.52948 -20578175.26446  20688540.8444         51.7504         41.0004
G31  25481193.7734     794690.04346   2120840.79242  25481187.1884         37.5004         17.7504
> 2010 04 04 00 21 00.0000000  0  9
G03  24405221.7194   -4750128.14246  -4849003.08143  24405214.7234         40.2504         19.7504
G04  24909366.5944   -4068956.62246  -3143965.60743  24909359.1294         39.5004         19.7504
G06  24478670.9694   -1779389.48744  -2798977.07042  24478664.1484         28.7504         16.7504
G07  23293652.2894  -10329126.93647  -9867348.93745  23293643.3014         47.2504         32.2504
G13  21951064.7424  -17953693.58047 -14964674.87445  21951055.2274         47.7504         34.7504
G16  21439834.7664  -19097503.53647 -14579132.22845  21439825.0164         45.0004         33.5004
G20  20627688.7034  -26332718.70248 -20495994.78147  20627679.2464         51.0004         42.7504
G23  20681542.8284  -25413000.76448 -20606879.60746  20681530.9694         51.7504         40.5004
G31  25497653.3524     881188.03246   2188241.83542  25497647.5864         36.0004         15.5004
> 2010 04 04 00 21 30.0000000  0  9
G03  24390125.5004   -4829461.05746  -4910820.89143  24390118.7974         41.0004         18.5004
G04  24911981.0164   -4055217.63946  -3133259.92143  24911974.0784         41.7504         20.0004
G06  24466795.9774   -1841795.95344  -2847605.43142  24466788.6884         29.5004         14.7504
G07  23280164.6484  -10400003.90147  -9922577.71645  23280156.2464         47.0004         31.7504
G13  21938903.8054  -18017601.01547 -15014472.84845  21938894.2304         47.5004         34.2504
G16  21446701.8134  -19061417.52147 -14551013.24545  21446691.9454         46.0004         34.2504
G20  20636388.3364  -26287002.79748 -20460372.02546  20636378.8794         50.5004         41.7504
G23  20674571.4694  -25449633.85548 -20635424.87046  20674559.8444         51.0004         40.7504
G31  25514093.7344     967584.17445   2255563.54742  25514087.3244         35.5004         16.7504
> 2010 04 04 00 22 00.0000000  0  9
G03  24375025.7814   -4908806.66746  -4972648.63543  24375019.0784         40.2504         19.7504
G04  24914677.8834   -4041042.26846  -3122214.21243  24914670.1254         40.7504         19.7504
G06  24454932.7584   -1904138.25745  -2896183.67142  24454924.4734         33.5004         15.5004
G07  23266717.3524  -10470666.90947  -9977639.74845  23266709.4774         46.5004         33.0004
G13  21926758.3594  -18081426.30847 -15064206.82645  21926748.9024         47.5004         35.7504
G16  21453678.1804  -19024754.67847 -14522444.80945  21453668.8984         45.2504         34.0004
G20  20645187.7814  -26240761.73448 -20424340.05447  20645178.5004         51.0004         42.7504
G23  20667639.6024  -25486061.32048 -20663809.90746  20667628.2704         51.2504         41.0004
G31  25530515.8054    1053877.84445   2322805.39142  25530508.6334         34.2504         16.2504
> 2010 04 04 00 22 30.0000000  0  9
G03  24359924.7504   -4988161.84046  -5034483.78043  24359918.1644         39.5004         19.0004
G04  24917459.1024   -4026431.63546  -3110829.31043  24917450.2304         40.2504         19.0004
G06  24443081.8284   -1966413.00045  -2944709.42542  24443075.1844         31.7504         17.2504
G07  23253311.7664  -10541115.04647 -10032534.35845  23253304.0084         46.5004         33.5004
G13  21914628.4614  -18145167.65247 -15113875.38545  21914619.2974         47.5004         35.0004
G16  21460765.0394  -18987516.05347 -14493427.69645  21460755.3484         46.5004         33.2504
G20  20654086.9924  -26193996.56348 -20387899.68347  20654077.4774         51.0004         42.0004
G23  20660747.2114  -25522281.90248 -20692033.73946  20660735.2934         52.0004         41.2504
G31  25546919.1174    1140068.87745   2389967.25342  25546909.0744         33.5004         16.7504
> 2010 04 04 00 23 00.0000000  0  9
G03  24344822.5554   -5067524.15546  -5096324.57242  24344816.2034         38.0004         16.7504
G04  24920321.3204   -4011387.65046  -3099106.77443  24920313.6804         38.7504         19.2504
G06  24431244.4144   -2028618.35545  -2993181.01942  24431238.5314         33.7504         17.7504
G07  23239946.8524  -10611349.09147 -10087262.13845  23239938.0394         46.2504         33.5004
G13  21902514.9224  -18208824.98347 -15163478.46345  21902505.8754         47.7504         34.5004
G16  21467960.5634  -18949703.62247 -14463963.47645  21467950.9304         46.0004         34.0004
G20  20663085.2194  -26146709.15248 -20351052.38147  20663076.0554         51.0004         42.2504
G23  20653894.0394  -25558294.45648 -20720095.45346  20653882.3554         51.5004         40.5004
G31  25563299.9694    1226155.89245   2457047.98342  25563290.5124         30.5004         16.2504
> 2010 04 04 00 23 30.0000000  0  9
G03  24329719.4534   -5146891.07746  -5158168.80142  24329711.7544         36.0004         16.2504
G04  24923266.9224   -3995912.12646  -3087047.98743  24923258.8714         40.5004         19.2504
G06  24419422.4224   -2090751.64745  -3041596.52142  24419414.6054         33.0004         16.2504
G07  23226622.5704  -10681369.25947 -10141823.26545  23226613.8164         46.7504         33.0004
G13  21890417.2424  -18272397.40147 -15213015.39145  21890408.5474         46.2504         35.2504
G16  21475264.5554  -18911319.21147 -14434053.55345  21475255.5664         46.0004         34.7504
G20  20672182.7664  -26098901.37848 -20313799.59147  20672173.6024         51.0004         42.2504
G23  20647080.6094  -25594098.38548 -20747994.61646  20647068.9264         50.2504         41.0004
G31  25579662.7504    1312137.80545   2524046.85842  25579653.6454         31.2504         17.2504
> 2010 04 04 00 24 00.0000000  0  9
G03  24314614.9224   -5226259.59846  -5220014.37842  24314608.4534         36.5004         16.2504
G04  24926294.1094   -3980006.61946  -3074654.06443  24926285.7664         40.0004         19.0004
G06  24407613.0784   -2152809.90345  -3089953.58642  24407604.5004         33.2504         15.5004
G07  23213338.5164  -10751175.42847 -10196217.64245  23213329.2344         45.0004         32.5004
G13  21878336.3134  -18335883.60147 -15262485.12845  21878327.2074         47.5004         34.0004
G16  21482677.7664  -18872364.49747 -14403699.21945  21482667.7234         46.0004         33.2504
G20  20681378.9224  -26050574.70748 -20276142.46446  20681369.5234         50.0004         41.5004
G23  20640307.3444  -25629692.21148 -20775730.05646  20640295.7774         51.0004         40.7504
G31  25596003.7344    1398014.41144   2590963.69842  25595995.1564         29.0004         16.7504
> 2010 04 04 00 24 30.0000000  0  9
G03  24299514.4844   -5305618.43046  -5281852.40242  24299507.0784         37.5004         16.7504
G04  24929402.7584   -3963664.29146  -3061919.78743  24929396.5234         38.7504         18.2504
G06  24395820.8054   -2214782.25945  -3138243.64242  24395811.8164         33.2504         17.7504
G07  23200096.8754  -10820759.09647 -10250438.64345  23200088.3554         44.7504         33.2504
G13  21866273.7034  -18399275.20748 -15311881.17245  21866264.3054         48.0004         35.5004
G16  21490200.1804  -18832832.40347 -14372895.00145  21490190.7814         45.5004         34.0004
G20  20690675.2424  -26001722.50848 -20238075.84847  20690666.2544         49.7504         42.7504
G23  20633575.7424  -25665066.00048 -20803294.05346  20633564.6454         50.5004         41.2504
G31  25612329.1174                                   25612318.3714         28.5004         16.2504
> 2010 04 04 00 25 00.0000000  0  9
G03  24284413.7664   -5384978.26846  -5343691.18843  24284406.4774         38.2504         18.2504
G04  24932592.6804   -3946900.19846  -3048856.92842  24932586.2704         40.0004         17.7504
G06  24384042.0084   -2276679.60445  -3186475.28343  24384033.3134         34.7504         19.2504
G07  23186895.5314  -10890133.91347 -10304496.89745  23186886.4264         44.0004         32.5004
G13  21854226.2734  -18462584.42747 -15361213.00845  21854216.9344         46.5004         35.5004
G16  21497830.5394  -18792738.05747 -14341652.65745  21497820.7894         46.0004         34.0004
G20  20700068.8524  -25952360.00548 -20199611.57447  20700059.1604         49.0004         42.5004
G23  20626884.1644  -25700232.18148 -20830696.25646  20626872.4224         49.5004         41.5004
G31  25628630.1644                                   25628620.7074         29.5004         16.2504
> 2010 04 04 00 25 30.0000000  0  9
G03  24269313.0704   -5464329.27146  -5405523.10142  24269305.9574         37.0004         16.7504
G04  24935864.4144   -3929709.55346  -3035461.61042  24935857.4774         38.7504         17.2504
G06  24372277.4774   -2338492.50645  -3234641.10643  24372272.1214         34.0004         18.5004
G07  23173735.0004  -10959293.00647 -10358387.06845  23173726.5984         44.2504         33.0004
G13  21842195.8984  -18525803.50547 -15410474.62445  21842186.5004         46.5004         35.2504
G16  21505567.4844  -18752077.00147 -14309968.72645  21505557.4414         46.0004         33.5004
G20  20709560.2664  -25902481.92248 -20160745.56547  20709551.3364         49.2504         42.5004
G23  20620233.6024  -25735182.68048 -20857930.40746  20620221.6844         50.7504         41.0004
G31  25644912.6414                                   25644902.2464         33.0004         18.2504
> 2010 04 04 00 26 00.0000000  0  9
G03  24254212.6174   -5543675.88945  -5467351.63242  24254206.9694         35.7504         17.2504
G04  24939215.5394   -3912100.40546  -3021740.26142  24939207.7234         40.0004         17.2504
G06  24360530.6254   -2400224.81546  -3282744.12543  24360525.2704         37.0004         20.5004
G07  23160613.9694  -11028243.27647 -10412114.50845  23160606.1524         44.5004         32.7504
G13  21830181.5554  -18588938.25248 -15459670.50645  21830172.4494         48.2504         35.2504
G16  21513411.6024  -18710857.47047 -14277849.61145  21513401.9104         45.7504         33.5004
G20  20719147.9844  -25852096.73148 -20121484.40447  20719139.1134         49.5004         42.2504
G23  20613622.3204  -25769922.79848 -20885000.62946  20613611.1054         50.5004         40.5004
G31  25661170.5944    1740469.82345   2857811.93343  25661162.1914         35.5004         19.2504
> 2010 04 04 00 26 30.0000000  0  9
G03  24239118.3284   -5623001.98146  -5529164.11842  24239111.6844         36.5004         17.7504
G04  24942647.3984   -3894061.57846  -3007684.00942  24942639.4064         38.2504         16.7504
G06  24348800.1804   -2461861.01245  -3330772.30343  24348795.8204         35.0004         19.5004
G07  23147535.4304  -11096971.52047 -10465668.95145  23147527.4384         44.0004         32.5004
G13  21818186.0004  -18651974.79747 -15508789.86745  21818176.7774         47.2504         35.2504
G16  21521363.2344  -18669068.10047 -14245286.48845  21521354.0704         46.2504         33.5004
G20  20728834.7194  -25801193.44748 -20081819.53047  20728825.9654         49.7504         42.0004
G23  20607054.5864  -25804438.15548 -20911895.70946  20607042.8444         50.2504         41.0004
G31  25677412.1414    1825816.55845   2924315.87243  25677403.8554         35.0004         20.5004
> 2010 04 04 00 27 00.0000000  0  9
G03  24224025.9304   -5702308.49846  -5590961.36442  24224021.1604         36.7504         16.7504
G04  24946161.4224   -3875598.68546  -2993297.40742  24946152.4344         39.0004         15.5004
G06  24337089.3204   -2523402.16645  -3378726.35343  24337084.3754         35.5004         19.0004
G07  23134498.6724  -11165481.56447 -10519053.36545  23134490.2114         45.0004         33.7504
G13  21806208.8444  -18714915.93947 -15557834.89845  21806199.7384         46.5004         35.5004
G16  21529423.3914  -18626714.14447 -14212283.40945  21529413.9924         47.0004         33.2504
G20  20738618.9844  -25749777.34248 -20041755.05746  20738609.9964         49.5004         41.7504
G23  20600528.6884  -25838731.35248 -20938617.68546  20600516.8874         49.5004         41.0004
G31  25693632.4774    1911058.24745   2990737.93443  25693623.7814         34.5004         20.5004
> 2010 04 04 00 27 30.0000000  0  9
G03  24208937.5784   -5781597.51546  -5652744.91442  24208933.2774         36.5004         16.7504
G04  24949754.3444   -3856718.11146  -2978585.27242  24949745.6484         40.0004         16.7504
G06  24325396.7894   -2584850.24945  -3426607.90643  24325391.1994         34.2504         20.0004
G07  23121501.8834  -11233778.74547 -10572271.91845  23121493.4804         45.2504         33.5004
G13  21794249.2424  -18777765.54148 -15606808.59645  21794240.1374         48.5004         35.7504
G16  21537588.9694  -18583802.37047 -14178845.66845  21537579.5124         46.0004         33.0004
G20  20748499.4224  -25697854.77648 -20001295.93847  20748490.4344         49.5004         42.5004
G23  20594044.3984  -25872805.84548 -20965169.23046  20594033.0664         50.5004         41.7504
G31  25709832.2504    1996189.30045   3057073.80643  25709823.7894         34.5004         21.2504
> 2010 04 04 00 28 00.0000000  0  9
G03  24193852.1094   -5860863.29845  -5714510.38142  24193849.3324         35.2504         17.2504
G04  24953427.0784   -3837419.33046  -2963547.32542  24953418.7934         41.0004         17.7504
G06  24313722.4144   -2646200.37545  -3474413.16643  24313717.1764         35.5004         19.7504
G07  23108546.2114  -11301860.01947 -10625322.23645  23108538.1024         43.5004         32.7504
G13  21782306.8834  -18840520.38647 -15655708.45845  21782298.1294         47.2504         35.7504
G16  21545860.8674  -18540332.53147 -14144973.07245  21545851.9964         46.0004         34.0004
G20  20758476.6484  -25645425.41048 -19960441.91247  20758467.4844         49.0004         42.2504
G23  20587602.6804  -25906657.98348 -20991547.52147  20587591.4654         51.0004         42.0004
G31  25726010.7194    2081210.98245   3123324.46043  25726002.3164         35.0004         21.2504
> 2010 04 04 00 28 30.0000000  0  9
G03  24178775.0084   -5940103.90846  -5776256.22842  24178769.7704         37.5004         16.7504
G04  24957179.0234   -3817704.62446  -2948185.17942  24957171.2074         39.7504         17.2504
G06  24302067.4694   -2707450.43546  -3522140.42743  24302062.2304         36.2504         20.2504
G07  23095631.8754  -11369726.68847 -10678205.30645  23095623.5904         44.0004         32.5004
G13  21770382.8204  -18903180.02047 -15704534.11745  21770374.1254         47.0004         35.0004
G16  21554239.1024  -18496306.93747 -14110667.40645  21554229.0594         46.5004         32.5004
G20  20768549.5784  -25592491.65248 -19919194.84846  20768540.6484         49.2504         41.5004
G23  20581203.3364  -25940287.01148 -21017751.95046  20581191.8284         50.5004         40.5004
G31  25742170.0314    2166122.19145   3189489.06243  25742160.5164         35.2504         20.5004
> 2010 04 04 00 29 00.0000000  0  9
G03  24163702.0864   -6019315.59846  -5837979.53543  24163695.5004         39.0004         19.0004
G04  24961008.5234   -3797575.19546  -2932499.97442  24961002.4064         40.0004         17.7504
G06  24290431.9454   -2768596.86646  -3569786.98143  24290425.3594         36.7504         19.7504
G07  23082758.1174  -11437377.64247 -10730920.32445  23082750.2424         43.7504         33.5004
G13  21758478.0784  -18965742.88547 -15753284.39746  21758468.8554         47.2504         36.0004
G16  21562722.2504  -18451726.66947 -14075929.55745  21562713.0864         46.2504         33.0004
G20  20778718.2344  -25539054.72348 -19877555.72147  20778709.1884         49.0004         42.0004
G23  20574846.8134  -25973690.88748 -21043780.94146  20574835.4804         50.2504         41.5004
G31  25758307.5164    2250923.12645   3255567.68743  25758297.5314         35.5004         19.7504
> 2010 04 04 00 29 30.0000000  0  9
G03  24148635.3134   -6098495.13046  -5899677.81942  24148626.6764         39.7504         17.2504
G04  24964918.5314   -3777031.98846  -2916492.29642  24964911.0664         40.5004         16.7504
G06  24278815.3754   -2829636.50445  -3617350.30343  24278809.4924         35.7504         19.7504
G07  23069925.9454  -11504812.77647 -10783467.14645  23069917.5434         44.5004         33.5004
G13  21746591.5234  -19028207.30447 -15801957.94745  21746582.0664         47.2504         34.2504
G16  21571311.3364  -18406592.86447 -14040760.36745  21571301.2344         47.0004         32.7504
G20  20788982.6254  -25485115.72748 -19835525.36046  20788973.2854         50.7504         41.7504
G23  20568533.4224  -26006867.91148 -21069633.16246  20568521.9734         50.2504         41.5004
G31  25774422.8594    2335613.75846   3321560.40743  25774413.9884         36.0004         21.2504
> 2010 04 04 00 30 00.0000000  0  9
G03  24133575.7194   -6177638.81446  -5961348.18043  24133565.7934         40.5004         19.7504
G04  24968905.6254   -3756076.64546  -2900163.46542  24968897.3404         40.0004         17.2504
G06  24267219.6484   -2890566.18845  -3664827.93443  24267213.9414         33.7504         19.0004
G07  23057134.3984  -11572031.64447 -10835845.44545  23057125.9384         44.2504         33.5004
G13  21734723.4454  -19090571.84047 -15850553.68745  21734714.8094         47.0004         35.7504
G16  21580004.7504  -18360906.89847 -14005160.93845  21579995.2344         46.2504         32.5004
G20  20799342.1094  -25430675.80948 -19793104.67047  20799333.1804         49.7504         42.5004
G23  20562263.6564  -26039816.10748 -21095307.07846  20562252.2074         50.0004         41.5004
G31  25790519.0004    2420194.29246   3387467.33143  25790509.1914         36.5004         21.0004
> 2010 04 04 00 30 30.0000000  0  9
G03  24118522.2974   -6256743.19446  -6022987.89843  24118512.8404         40.5004         19.2504
G04  24972971.6644   -3734710.08546  -2883514.23742  24972962.1484         39.5004         16.2504
G06  24255647.5084   -2951382.54845  -3712217.21042  24255640.9804         33.0004         17.2504
G07  23044384.6884  -11639033.46747 -10888054.62345  23044375.6994         44.5004         33.7504
G13  21722875.3524  -19152834.96947 -15899070.39246  21722866.6564         47.0004         36.5004
G16  21588803.5474  -18314670.39347 -13969132.49545  21588793.5044         46.5004         32.2504
G20  20809796.8204  -25375736.37848 -19750294.74246  20809787.5394         49.7504         41.7504
G23  20556037.6804  -26072533.34948 -21120801.03347  20556026.1134         50.2504         42.0004
G31  25806591.9614    2504664.63145   3453288.35943  25806583.9694         35.0004         19.7504
> 2010 04 04 00 31 00.0000000  0  9
G03  24103475.4144   -6335807.13046  -6084596.09643  24103468.3014         39.0004         19.5004
G04  24977115.5394   -3712935.68146  -2866547.18043  24977106.3754         39.0004         18.2504
G06  24244096.5004   -3012084.37145  -3759517.28342  24244089.4454         34.5004         17.2504
G07  23031675.2114  -11705819.84147 -10940095.92645  23031666.8094         44.7504         33.5004
G13  21711046.5784  -19214996.88647 -15947508.22346  21711037.1804         47.5004         36.0004
G16  21597706.2664  -18267886.42347 -13932677.45045  21597696.3984         46.0004         32.5004
G20  20820345.7584  -25320300.98648 -19707098.36947  20820336.5944         49.0004         42.0004
G23  20549855.6884  -26105019.87948 -21146115.20746  20549844.3554         50.2504         41.5004
G31  25822644.1564    2589023.08945   3519022.24343  25822637.1604         33.5004         19.7504
> 2010 04 04 00 31 30.0000000  0  9
G03  24088438.5084   -6414826.56046  -6146169.59343  24088431.5704         38.7504         19.0004
G04  24981335.7504   -3690754.34446  -2849263.02442  24981326.1764         39.7504         16.2504
G06  24232568.7664   -3072667.70745  -3806724.99843  24232560.5984         35.0004         18.2504
G07  23019007.2814  -11772389.84547 -10991968.61445  23018999.1724         44.7504         33.5004
G13  21699236.9614  -19277055.69847 -15995865.73145  21699228.0904         47.0004         35.7504
G16  21606712.5634  -18220556.11647 -13895796.69545  21606703.3404         46.5004         31.7504
G20  20830989.2894  -25264370.21548 -19663515.97347  20830980.1254         48.5004         42.2504
G23  20543718.1884  -26137273.12848 -21171247.60646  20543706.4454         49.7504         41.5004
G31  25838676.5394    2673269.78945   3584669.03643  25838668.0204         35.5004         20.2504
> 2010 04 04 00 32 00.0000000  0  9
G03  24073409.1804   -6493798.54446  -6207706.14443  24073403.8834         36.0004         18.2504
G04  24985634.1024   -3668168.17146  -2831663.44942  24985624.5274         39.7504         17.7504
G06  24221062.9774   -3133130.24145  -3853838.62742  24221054.1054         35.5004         16.7504
G07  23006380.6884  -11838743.78247 -11043672.95045  23006372.1684         45.2504         33.0004
G13  21687447.4844  -19339010.66747 -16044142.30646  21687438.2624         47.7504         36.7504
G16  21615822.6024  -18172681.72847 -13858491.98345  21615813.2034         46.0004         32.7504
G20  20841726.3754  -25207946.33448 -19619549.34347  20841717.1524         48.5004         42.0004
G23  20537624.8984  -26169292.12048 -21196197.46146  20537613.5664         49.5004         41.7504
G31  25854687.5704    2757403.70745   3650227.90743  25854678.6414         34.2504         18.5004
> 2010 04 04 00 32 30.0000000  0  9
G03  24058390.1024   -6572719.78646  -6269203.04942  24058386.0354         36.0004         17.7504
G04  24990008.7664   -3645178.41646  -2813749.36542  24990000.7734         39.7504         16.7504
G06  24209580.1884   -3193468.70245  -3900855.58742  24209571.9614         33.5004         16.2504
G07  22993794.8594  -11904881.44947 -11095208.76145  22993786.6334         44.7504         34.5004
G13  21675677.9384  -19400860.25247 -16092336.76946  21675668.8914         47.7504         36.7504
G16  21625036.0394  -18124264.49247 -13820764.27445  21625026.3484         46.0004         32.5004
G20  20852557.0704  -25151030.85648 -19575199.65446  20852547.9654         48.5004         41.7504
G23  20531577.2584  -26201075.01048 -21220963.35047  20531565.7504         50.0004         42.0004
G31  25870675.8134    2841425.22345   3715699.23242  25870667.9964         32.0004         17.7504
> 2010 04 04 00 33 00.0000000  0  9
G03  24043384.3444   -6651587.87846  -6330658.62543  24043377.9344         40.0004         20.5004
G04  24994460.6724   -3621787.65846  -2795522.79943  24994452.7384         40.5004         18.2504
G06  24198122.7194   -3253681.36445  -3947774.53442  24198113.4384         32.2504         15.5004
G07  22981250.9384  -11970803.31447 -11146576.41545  22981242.5944         45.5004         34.0004
G13  21663928.7894  -19462604.04748 -16140448.80646  21663919.5664         48.0004         37.0004
G16  21634352.7194  -18075307.05847 -13782615.62645  21634343.0864         45.0004         33.2504
G20  20863480.4614  -25093626.33348 -19530468.87747  20863471.2384         48.5004         42.0004
G23  20525574.2274  -26232621.09748 -21245544.71146  20525562.3094         49.5004         41.5004
G31  25886643.7114    2925333.26145   3781082.09043  25886634.6644         35.7504         20.2504
> 2010 04 04 00 33 30.0000000  0  9
G03  24028388.0474   -6730398.53146  -6392069.46343  24028381.1684         40.7504         21.2504
G04  24998987.6484   -3597996.60746  -2776984.37143  24998980.2424         39.7504         19.7504
G06  24186687.9614                                   24186681.9614         31.0004         17.2504
G07  22968747.2424  -12036508.54947 -11197775.27645  22968739.0744         47.0004         34.7504
G13  21652199.4774  -19524239.45447 -16188476.38346  21652190.4304         47.7504         37.2504
G16  21643771.5394  -18025810.12847 -13744046.58845  21643761.8484         46.0004         32.5004
G20  20874497.4304  -25035733.18848 -19485357.35946  20874488.1484         48.7504         41.5004
G23  20519616.6254  -26263927.64848 -21269939.42446  20519604.8834         50.0004         41.5004
G31  25902588.8674    3009128.61946   3846377.23243  25902579.9964         37.2504         21.5004
> 2010 04 04 00 34 00.0000000  0  9
G03  24013402.2734   -6809149.89046  -6453434.10543  24013394.9264         41.5004         22.0004
G04  25003590.7424   -3573807.84346  -2758135.95743  25003582.8674         40.0004         18.2504
G06  24175279.5944                                   24175274.3554         30.5004         16.2504
G07  22956284.9614  -12101997.90747 -11248805.89845  22956277.2624         46.0004         33.5004
G13  21640491.2504  -19585766.41048 -16236419.44246  21640482.2034         48.5004         36.5004
G16  21653292.2664  -17975776.67647 -13705059.47045  21653282.6914         45.7504         32.5004
G20  20885606.7584  -24977354.40848 -19439867.41346  20885597.3014         48.5004         41.0004
G23  20513705.0474  -26294994.09948 -21294147.03346  20513693.4224         49.7504         41.5004
G31  25918512.4064    3092809.65645   3911583.20543  25918504.0634         35.5004         18.2504
> 2010 04 04 00 34 30.0000000  0  9
G03  23998429.4774   -6887838.01347  -6514749.43643  23998419.6684         42.0004         21.2504
G04  25008268.3054   -3549222.54646  -2738978.62743  25008260.6644         39.2504         18.2504
G06  24163896.484                                                          30.500
G07  22943864.1254  -12167270.29147 -11299667.47545  22943855.8404         46.5004         34.7504
G13  21628803.9614  -19647182.83047 -16284276.37846  21628795.0314         47.2504         37.5004
G16  21662915.5314  -17925207.68847 -13665655.07745  21662905.7814         45.7504         32.7504
G20  20896808.1484  -24918491.08848 -19393999.91846  20896798.9264         49.2504         41.5004
G23  20507839.2194  -26325817.88648 -21318165.58347  20507827.2424         49.7504         42.2504
G31  25934414.9144    3176377.02145   3976700.65942  25934405.8094         32.7504         17.2504
> 2010 04 04 00 35 00.0000000  0  9
G03  23983467.2034   -6966461.18346  -6576014.19843  23983457.3954         41.5004         21.5004
G04  25013022.2274   -3524243.92746  -2719514.76342  25013012.9454         39.7504         16.2504
G06  24152542.4694   -3493210.36345  -4134422.07243  24152536.4104         33.0004         18.5004
G07  22931484.0234  -12232327.62947 -11350361.46845  22931476.4414         45.7504         34.5004
G13  21617138.1024  -19708489.10947 -16332047.47746  21617128.6454         47.5004         36.7504
G16  21672640.1804  -17874106.78247 -13625836.18645  21672630.1954         45.0004         32.5004
G20  20908100.5554  -24859146.76048 -19347757.61346  20908091.2734         48.7504         41.0004
G23  20502020.0864  -26356399.35648 -21341995.28247  20502008.3444         50.7504         42.0004
G31  25950294.5704    3259829.17245   4041728.26843  25950286.6954         34.5004         19.5004
> 2010 04 04 00 35 30.0000000  0  9
G03  23968518.4064   -7045015.53546  -6637225.33043  23968509.4184         41.5004         21.0004
G04  25017849.9694   -3498873.14846  -2699745.36642  25017841.9184         40.7504         17.7504
G06  24141213.1094   -3552747.32045  -4180814.47643  24141205.8204         34.0004         18.5004
G07  22919145.1174  -12297168.93347 -11400887.12245  22919136.8914         47.5004         35.5004
G13  21605493.0554  -19769683.08947 -16379731.08846  21605483.8914         47.5004         36.2504
G16  21682465.3284  -17822475.03447 -13585603.66045  21682454.9924         45.5004         33.2504
G20  20919484.9534  -24799322.27048 -19301141.15347  20919475.8484         49.0004         42.0004
G23  20496247.0314  -26386736.25048 -21365634.43347  20496235.4654         50.5004         42.0004
G31  25966152.7504    3343166.45045   4106666.45442  25966146.1644         32.2504         17.7504
> 2010 04 04 00 36 00.0000000  0  9
G03  23953585.0314   -7123496.00947  -6698378.91743  23953575.5164         42.0004         21.0004
G04  25022753.3674   -3473110.21146  -2679670.39743  25022744.9064         40.2504         19.2504
G06  24129909.8914                                   24129904.1844         31.5004         18.2504
G07  22906847.8674  -12361792.44647 -11451243.08045  22906839.6994         46.7504         35.2504
G13  21593870.3364  -19830761.94247 -16427324.98446  21593860.8204         47.5004         36.5004
G16  21692391.2894  -17770312.68747 -13544957.67545  21692381.6564         45.7504         32.5004
G20  20930960.7274  -24739017.85648 -19254150.72746  20930951.3874         48.5004         41.0004
G23  20490520.9924  -26416825.20148 -21389080.35947  20490509.5434         49.5004         42.2504
G31  25981991.9224    3426390.35146   4171516.29342  25981983.0514         37.0004         16.7504
> 2010 04 04 00 36 30.0000000  0  9
G03  23938663.3134   -7201902.78546  -6759475.09443  23938655.1454         41.0004         18.5004
G04  25027729.5784   -3446960.23546  -2659293.84243  25027721.5274         40.0004         20.5004
G06  24118636.1724   -3671385.82745  -4273259.92342  24118629.5864         33.0004         17.7504
G07  22894590.9844  -12426201.61947 -11501432.01045  22894582.4064         46.7504         35.2504
G13  21582268.7504  -19891727.44847 -16474830.55946  21582259.2934         47.2504         36.5004
G16  21702417.2894  -17717624.76047 -13503902.15945  21702407.8324         45.5004         31.0004
G20  20942526.4144  -24678238.40248 -19206790.14546  20942517.1914         48.5004         41.2504
G23  20484842.1174  -26446667.64348 -21412334.21147  20484830.9614         49.5004         42.2504
G31  25997806.0634    3509497.73345   4236275.19142  25997797.7774         35.0004         14.7504
> 2010 04 04 00 37 00.0000000  0  8
G03  23923755.4304   -7280239.34246  -6820516.48543  23923749.0784         40.0004         20.5004
G04  25032778.1484   -3420431.58446  -2638622.20643  25032770.5084         39.7504         21.5004
G06  24107389.2424   -3730491.42745  -4319316.15142  24107381.3094         33.2504         16.7504
G07  22882374.2814  -12490402.83747 -11551458.89845  22882365.8794         45.7504         35.0004
G13  21570687.4144  -19952584.91647 -16522251.94346  21570678.8364         47.0004         36.7504
G16  21712541.6484  -17664420.16047 -13462444.03045  21712532.3674         44.7504         32.5004
G20  20954181.1644  -24616992.80648 -19159066.32446  20954171.8834         48.7504         40.7504
G23  20479209.6254  -26476268.79048 -21435400.04047  20479197.8834         49.5004         42.0004
> 2010 04 04 00 37 30.0000000  0  8
G03  23908865.3054   -7358487.01046  -6881488.60443  23908859.5984         39.2504         20.5004
G04  25037900.4144   -3393510.46646  -2617644.72643  25037893.1844         40.5004         20.2504
G06  24096172.3444   -3789437.49045  -4365248.12143  24096164.8794         34.5004         19.2504
G07  22870199.1644  -12554380.66147 -11601311.71245  22870191.0554         46.7504         35.7504
G13  21559130.8204  -20013317.54447 -16569576.04646  21559122.0664         47.0004         37.0004
G16  21722767.2894  -17610685.01847 -13420572.49545  21722757.7734         44.5004         32.7504
G20  20965927.3834  -24555267.36348 -19110968.60246  20965917.8674         48.5004         41.2504
G23  20473625.7194  -26505611.35648 -21458264.38147  20473614.4454         49.7504         42.0004
> 2010 04 04 00 38 00.0000000  0  8
G03  23893991.5704   -7436650.44346  -6942395.11743  23893985.6294         37.7504         19.2504
G04  25043095.6724   -3366206.80746  -2596369.19143  25043088.9694         40.0004         20.5004
G06  24084984.8364   -3848228.81645  -4411059.55143  24084977.7814         34.7504         19.5004
G07  22858065.8834  -12618142.69947 -11650996.39245  22858057.6564         47.2504         35.5004
G13  21547596.5004  -20073931.90347 -16616808.00446  21547587.3954         47.5004         37.2504
G16  21733091.7974  -17556429.18247 -13378295.22045  21733082.3404         42.7504         32.0004
G20  20977762.4774  -24493071.87948 -19062504.61346  20977753.1954         48.5004         41.0004
G23  20468089.8674  -26534701.64348 -21480932.13947  20468078.3594         49.5004         42.0004
> 2010 04 04 00 38 30.0000000  0  8
G03  23879134.5704   -7514725.11246  -7003232.43143  23879128.8634         37.5004         19.7504
G04  25048364.3364   -3338521.07646  -2574795.89343  25048356.5784         40.0004         19.7504
G06  24073826.3364   -3906861.40745  -4456747.18143  24073820.5124         33.2504         19.5004
G07  22845973.4454  -12681687.80547 -11700512.02645  22845965.6294         47.0004         35.2504
G13  21536085.4534  -20134425.16647 -16663945.60646  21536075.2344         47.5004         36.7504
G16  21743515.3834  -17501653.31147 -13335612.71645  21743505.4574         43.0004         32.7504
G20  20989687.1644  -24430407.00748 -19013674.86646  20989678.2344         48.5004         41.5004
G23  20462602.9224  -26563536.69048 -21503400.99946  20462591.1214         49.5004         41.5004
> 2010 04 04 00 39 00.0000000  0  8
G03  23864294.1254   -7592709.64846  -7063999.54243  23864288.4184         39.0004         19.7504
G04  25053704.8594   -3310456.98546  -2552927.80143  25053697.1024         39.7504         20.2504
G06  24062699.4454   -3965333.91545  -4502310.09743  24062693.4454         33.5004         19.7504
G07  22833922.1564  -12745017.87947 -11749860.10246  22833913.9304         47.0004         36.0004
G13  21524596.0394  -20194797.97447 -16710989.33546  21524587.0514         47.2504         37.0004
G16  21754037.2424  -17446361.69147 -13292528.35345  21754027.6684         43.5004         32.5004
G20  21001700.5784  -24367276.48248 -18964482.28046  21001691.8244         48.5004         41.0004
G23  20457164.0164  -26592117.16648 -21525671.50047  20457152.6844         49.5004         42.0004
> 2010 04 04 00 39 30.0000000  0  8
G03  23849472.4694   -7670601.13146  -7124694.17743  23849466.8204         39.0004         19.7504
G04  25059116.7274   -3282016.96246  -2530766.74343  25059108.7934         39.7504         21.7504
G06  24051604.3984   -4023644.10145  -4547746.56743  24051597.6954         34.0004         19.5004
G07  22821912.1724  -12808133.10447 -11799040.76445  22821903.3594         46.5004         35.5004
G13  21513130.7034  -20255049.70347 -16757938.72346  21513121.7734         47.5004         36.2504
G16  21764656.8594  -17390556.28247 -13249043.61145  21764646.4654         42.5004         32.2504
G20  21013801.7664  -24303682.84248 -18914928.81646  21013792.8954         48.7504         40.7504
G23  20451774.2114  -26620441.61348 -21547742.49046  20451762.4694         49.2504         41.2504
> 2010 04 04 00 40 00.0000000  0  9
G03  23834667.8524   -7748395.58246  -7185313.13843  23834662.1454         37.7504         19.0004
G04  25064600.7814   -3253201.79546  -2508313.39443  25064593.1414         40.5004         22.0004
G06  24040539.0474   -4081788.02145  -4593053.48943  24040532.0514         34.5004         19.5004
G07  22809942.2194  -12871032.73547 -11848053.43145  22809933.6414         46.7504         35.5004
G13  21501688.9144  -20315177.47547 -16804791.52846  21501679.5744         47.5004         37.7504
G16  21775373.2664  -17334238.34047 -13205159.52045  21775363.9264         42.5004         32.5004
G19  25482048.922     -159016.987 5                                        33.000
G20  21025991.6724  -24239626.88148 -18865015.11146  21025982.3914         49.2504         41.0004
G23  20446433.3204  -26648507.30248 -21569611.85646  20446421.6954         49.7504         41.7504
> 2010 04 04 00 40 30.0000000  0  9
G03  23819883.4304   -7826089.46146  -7245853.78243  23819877.8984         38.2504         18.5004
G04  25070155.0164   -3224012.96946  -2485568.88443  25070147.8444         40.7504         22.5004
G06  24029506.3984   -4139762.32945  -4638228.17243  24029499.1684         33.7504         18.2504
G07  22798014.0944  -12933716.34047 -11896897.76346  22798005.3984         46.7504         36.0004
G13  21490270.7194  -20375179.67848 -16851546.46946  21490261.7894         48.5004         38.0004
G16  21786187.4064  -17277409.49447 -13160877.30345  21786177.8324         43.7504         31.5004
G19  25468329.047     -231114.589 5                                        33.500
G20  21038269.0554  -24175110.03548 -18814742.26546  21038259.5394         50.2504         40.5004
G23  20441142.1024  -26676312.34448 -21591278.11746  20441130.4774         49.2504         41.5004
> 2010 04 04 00 41 00.0000000  0  9
G03  23805116.7274   -7903682.86646  -7306316.13343  23805111.4304         38.0004         18.5004
G04  25075779.0234   -3194455.79446  -2462537.34743  25075773.0234         40.5004         22.5004
G06  24018505.5084   -4197567.25345  -4683270.92943  24018499.1564         32.2504         19.0004
G07  22786126.6094  -12996187.07347 -11945576.22745  22786118.1484         45.7504         35.7504
G13  21478876.2974  -20435058.19247 -16898205.04646  21478867.1334         47.7504         37.2504
G16  21797097.4064  -17220075.08447 -13116201.14845  21797088.4774         43.5004         31.5004
G19  25454569.617     -303410.397 5                                        33.500
G20  21050632.4144  -24110137.88248 -18764114.63846  21050623.6024         50.7504         40.2504
G23  20435900.3524  -26703858.27648 -21612742.47946  20435888.8444         50.7504         41.5004
> 2010 04 04 00 41 30.0000000  0  9
G03  23790372.3594   -7981165.25446  -7366691.94543  23790366.8874         38.2504         18.2504
G04  25081474.4924   -3164525.40346  -2439214.98943  25081468.0824         40.2504         22.5004
G06  24007538.8524   -4255193.27045  -4728174.25243  24007533.6134         33.0004         19.5004
G07  22774280.2034  -13058438.46447 -11994083.75345  22774271.9774         46.5004         35.5004
G13  21467506.7504  -20494804.91648 -16944760.91246  21467497.4694         48.0004         36.7504
G16  21808105.2194  -17162230.61847 -13071127.54345  21808095.8204         42.2504         31.5004
G19  25440776.945     -375895.583 5                                        34.250
G20  21063083.4384  -24044705.62448 -18713128.49046  21063075.1524         50.0004         40.7504
G23  20430709.1334  -26731136.89748 -21633998.54046  20430698.0944         51.0004         41.5004
> 2010 04 04 00 42 00.0000000  0 10
G03  23775648.9144   -8058538.58146  -7426982.78542  23775642.9144         37.2504         17.7504
G04  25087240.1884   -3134228.88046  -2415607.32343  25087233.8364         39.5004         22.5004
G06  23996608.3054   -4312642.65145  -4772939.91243  23996602.4804         35.5004         20.0004
G07  22762474.8364  -13120475.21347 -12042424.03746  22762466.7274         45.5004         36.2504
G08  25886645.1884    -175422.70646   -119686.06943  25886639.3634         40.5004         20.5004
G13  21456161.6564  -20554423.38347 -16991216.84946  21456152.0824         47.5004         37.0004
G16  21819208.9304  -17103883.05847 -13025661.95145  21819199.1214         42.0004         32.0004
G19  25426946.133     -448572.504 5                                        33.000
G20  21075621.7114  -23978820.58548 -18661789.52346  21075612.4884         51.0004         40.7504
G23  20425568.9064  -26758151.65748 -21655049.00046  20425557.3984         50.5004         41.7504
> 2010 04 04 00 42 30.0000000  0 10
G03  23760945.2504   -8135801.45546  -7487187.59342  23760939.3094         36.0004         16.2504
G04  25093074.1094   -3103569.80746  -2391717.14343  25093067.2894         40.0004         22.7504
G06  23985708.8914   -4369913.97045  -4817566.87743  23985704.0634         34.7504         21.2504
G07  22750710.4144  -13182299.36047 -12090598.67046  22750701.8954         45.7504         36.0004
G08  25871634.0784    -254306.73347   -181153.74144  25871630.8324         43.2504         26.5004
G13  21444841.1174  -20613913.90948 -17037573.08446  21444831.9534         48.2504         37.5004
G16  21830406.6884  -17045036.48947 -12979807.44945  21830397.2304         42.0004         31.7504
G19  25413080.055     -521440.172 5                                        33.250
G20  21088244.5314  -23912486.30448 -18610100.50246  21088235.5434         50.7504         40.5004
G23  20420478.3054  -26784902.34648 -21675893.68347  20420466.9144         51.0004         42.5004
> 2010 04 04 00 43 00.0000000  0 10
G03  23746265.0634   -8212946.69846  -7547300.74842  23746259.4144         37.5004         17.2504
G04  25098977.4774   -3072546.07546  -2367542.85843  25098971.0084         39.2504         22.7504
G06  23974846.1724   -4427000.36145  -4862049.72243  23974840.2304         34.2504         20.2504
G07  22738986.9304  -13243906.38747 -12138604.10646  22738978.3524         45.7504         36.5004
G08  25856642.2894    -333088.81947   -242541.97844  25856638.1644         42.7504         25.5004
G13  21433546.0394  -20673271.10147 -17083825.42646  21433536.7584         47.7504         38.2504
G16  21841699.8754  -16985688.51546 -12933562.28645  21841691.1804         41.5004         32.5004
G19  25399180.3524    -594491.99046   -431871.38943  25399170.0744         37.0004         19.5004
G20  21100953.3054  -23845700.50548 -18558059.65946  21100944.3164         50.5004         40.5004
G23  20415439.3524  -26811383.34248 -21696528.22447  20415427.8444         50.0004         42.0004
> 2010 04 04 00 43 30.0000000  0 10
G03  23731605.9384   -8289972.51645  -7607320.77442  23731601.6374         35.0004         17.7504
G04  25104950.1884   -3041161.11046  -2343087.06643  25104944.1884         39.2504         22.2504
G06  23964019.1414   -4483900.37045  -4906387.36143  23964012.0864         34.7504         20.2504
G07  22727303.9694  -13305298.37747 -12186441.98746  22727295.8014         45.5004         36.0004
G08  25841669.4224    -411770.50547   -303852.06343  25841665.2974         42.0004         21.5004
G13  21422275.7894  -20732494.76647 -17129973.72546  21422266.2734         47.7504         37.5004
G16  21853088.0704  -16925843.04946 -12886929.46645  21853078.9654         41.5004         32.0004
G19  25385241.9774    -667727.38345   -488937.79142  25385234.6294         35.7504         17.2504
G20  21113747.7894  -23778467.11348 -18505670.01846  21113737.9804         51.0004         40.5004
G23  20410451.3834  -26837594.78448 -21716952.71446  20410439.8754         50.5004         41.7504
> 2010 04 04 00 44 00.0000000  0 10
G03  23716973.0704   -8366877.07946  -7667246.30942  23716966.9534         37.0004         17.2504
G04  25110990.9924   -3009418.33046  -2318352.45443  25110983.9964         38.7504         22.5004
G06  23953227.3204   -4540612.33045  -4950578.46243  23953221.0864         34.5004         21.0004
G07  22715662.2814  -13366476.31047 -12234113.07245  22715653.7624         45.7504         35.5004
G08  25826715.1564    -490352.18846   -365084.12443  25826712.4384         39.0004         22.0004
G13  21411031.2504  -20791584.77447 -17176017.86146  21411022.0864         47.7504         37.5004
G16  21864570.6884  -16865503.27246 -12839911.44345  21864560.9964         41.7504         31.5004
G19  25371273.3834    -741145.26646   -546146.44342  25371264.2774         37.5004         17.7504
G20  21126626.2114  -23710789.41548 -18452934.17946  21126617.3984         51.2504         40.0004
G23  20405514.9384  -26863536.13148 -21737166.74346  20405503.3134         50.0004         41.2504
> 2010 04 04 00 44 30.0000000  0 10
G03  23702363.8524   -8443656.17246  -7727074.15942  23702355.9184         39.5004         17.7504
G04  25117098.9304   -2977319.26946  -2293340.23743  25117092.2854         38.7504         22.7504
G06  23942471.0394   -4597133.05645  -4994620.54243  23942464.6884         35.0004         20.2504
G07  22704061.1724  -13427439.88747 -12281617.13646  22704053.0634         45.7504         36.0004
G08  25811780.6724    -568833.73446   -426238.15043  25811777.7774         38.2504         20.2504
G13  21399812.8284  -20850539.45648 -17221956.56246  21399803.0784         48.2504         38.0004
G16  21876146.2894  -16804670.96846 -12792509.67845  21876137.0664         41.5004         31.2504
G19  25357267.5394    -814742.44546   -603494.79442  25357258.4344         36.7504         17.7504
G20  21139589.0554  -23642669.44648 -18399853.72346  21139580.1254         50.7504         41.5004
G23  20400630.2504  -26889205.13648 -21757168.56147  20400618.6254         50.5004         42.0004
> 2010 04 04 00 45 00.0000000  0 10
G03  23687777.8134   -8520306.13946  -7786801.38243  23687770.9344         39.0004         19.5004
G04  25123274.4304   -2944865.74546  -2268051.79843  25123267.5514         38.0004         22.7504
G06  23931753.4534   -4653459.21445  -5038510.98743  23931746.2234         35.0004         20.7504
G07  22692501.2114  -13488188.94347 -12328954.03146  22692492.3404         45.5004         36.2504
G08  25796865.5084    -647214.00146   -487313.33843  25796861.4414         39.5004         19.5004
G13  21388620.1724  -20909356.81848 -17267788.25046  21388610.8914         48.0004         37.5004
G16  21887815.7114  -16743348.66746 -12744726.06745  21887806.4884         41.5004         31.7504
G19  25343230.3984    -888516.21045   -660980.82642  25343220.0634         35.5004         17.2504
G20  21152635.5554  -23574108.80548 -18346429.86546  21152626.9184         51.0004         40.5004
G23  20395797.5234  -26914600.24348 -21776956.94446  20395786.1334         50.5004         41.5004
> 2010 04 04 00 45 30.0000000  0 10
G03  23673216.7814   -8596824.85346  -7846426.29643  23673210.1954         39.7504         20.5004
G04  25129516.9304   -2912059.81646  -2242488.75743  25129511.0474         38.2504         22.0004
G06  23921073.0704   -4709588.18945  -5082247.82743  23921065.5474         35.0004         21.5004
G07  22680981.7034  -13548723.64947 -12376123.91046  22680973.3014         46.2504         36.5004
G08  25781969.9064    -725492.68546   -548309.31143  25781965.1374         37.5004         20.0004
G13  21377454.1174  -20968035.47648 -17313511.87146  21377444.8364         48.0004         38.0004
G16  21899577.9844  -16681537.99547 -12696561.91245  21899568.4104         42.2504         30.7504
G19  25329156.3284    -962464.35846   -718602.65542  25329146.5204         36.0004         17.7504
G20  21165765.7114  -23505109.51248 -18292664.21846  21165757.3094         51.0004         40.5004
G23  20391017.6024  -26939719.92148 -21796530.72046  20391005.8594         51.0004         41.0004
> 2010 04 04 00 46 00.0000000  0 10
G03  23658681.2504   -8673207.32546  -7905945.02043  23658675.4264         39.7504         20.5004
G04  25135827.2814   -2878902.45546  -2216651.89343  25135820.6954         37.5004         22.5004
G06  23910429.6884   -4765516.01746  -5125827.86743  23910423.3954         36.0004         22.0004
G07  22669503.3754  -13609042.66447 -12423125.70346  22669495.2074         46.5004         36.2504
G08  25767092.2504                                   25767087.8324         27.5004         14.7504
G13  21366314.7424  -21026572.98848 -17359125.49746  21366305.3444         48.5004         37.5004
G16  21911432.8364  -16619240.43747 -12648018.36445  21911423.6724         42.0004         32.0004
G19  25315052.5704   -1036583.37945   -776357.57042  25315043.1724         35.0004         17.7504
G20  21178979.3364  -23435672.72448 -18238557.65546  21178970.5824         51.2504         40.5004
G23  20386290.3444  -26964561.08048 -21815887.45946  20386279.1294         51.2504         41.2504
> 2010 04 04 00 46 30.0000000  0  9
G03  23644173.0634   -8749453.78346  -7965357.80743  23644165.5984         41.5004         21.5004
G04  25142202.8674   -2845399.45346  -2190545.71743  25142195.2854         37.7504         21.2504
G06  23899824.8914   -4821243.33745  -5169251.73943  23899818.8914         34.7504         22.0004
G07  22658065.4064  -13669150.16047 -12469962.68146  22658056.9454         47.0004         36.5004
G13  21355201.8284  -21084971.55548 -17404630.85046  21355192.8404         49.0004         37.7504
G16  21923379.3444  -16556461.90347 -12599100.03145  21923370.0044         42.0004         31.0004
G19  25300914.6954   -1110874.45045   -834246.68642  25300904.7704         32.0004         16.2504
G20  21192274.9534  -23365804.22148 -18184114.70546  21192266.1414         50.7504         40.5004
G23  20381615.8984  -26989125.73948 -21835028.74546  20381604.2154         51.0004         41.2504
> 2010 04 04 00 47 00.0000000  0  9
G03  23629692.2194   -8825552.47146  -8024655.46043  23629683.8754         40.7504         19.7504
G04  25148645.1254   -2811544.02246  -2164164.87343  25148637.3674         37.0004         21.2504
G06  23889261.4454   -4876758.41645  -5212510.15843  23889254.3914         35.0004         20.2504
G07  22646668.8674  -13729037.16947 -12516627.85046  22646660.9344         46.7504         36.5004
G13  21344117.1334  -21143221.05947 -17450020.06246  21344108.4384         47.7504         37.5004
G16  21935418.0004  -16493195.69846 -12549801.69845  21935409.4224         41.7504         32.0004
G19  25286745.8914   -1185325.98345   -892260.73142  25286736.6684         30.2504         13.7504
G20  21205653.8914  -23295497.59848 -18129330.34846  21205644.6684         51.2504         41.0004
G23  20376996.0634  -27013403.40748 -21853946.40546  20376984.3204         51.2504         41.7504
> 2010 04 04 00 47 30.0000000  0 10
G03  23615235.7504   -8901512.60446  -8083845.12443  23615228.8134         39.7504         20.2504
G04  25155151.8594   -2777351.00046  -2137521.00443  25155144.7464         36.0004         21.5004
G06  23878736.3524   -4932071.38746  -5255611.14643  23878728.3594         36.2504         21.5004
G07  22635312.6954  -13788716.66847 -12563131.33046  22635303.6484         46.7504         36.2504
G08  25722579.281     -236639.660 5                                        33.250
G13  21333059.0164  -21201332.38348 -17495301.60046  21333050.0274         48.0004         38.0004
G16  21947547.9304  -16429456.78046 -12500135.01945  21947537.8284         41.7504         30.5004
G19  25272542.8594   -1259948.34344   -950407.92642  25272535.9224         28.5004         12.5004
G20  21219113.4924  -23224767.44648 -18074215.97046  21219104.3284         51.0004         40.7504
G23  20372428.2504  -27037405.78448 -21872649.56446  20372416.8594         50.0004         41.5004
> 2010 04 04 00 48 00.0000000  0 10
G03  23600809.0004   -8977326.97046  -8142921.20843  23600802.0044         39.5004         19.5004
G04  25161722.5084   -2742818.46546  -2110612.59043  25161716.2154         36.0004         20.5004
G06  23868248.8984   -4987175.00345  -5298548.97243  23868242.0204         33.5004         18.5004
G07  22623996.2344  -13848184.49547 -12609469.87945  22623987.0704         47.5004         35.5004
G08  25707778.047     -314411.604 5                                        33.500
G13  21322028.2894  -21259299.90148 -17540471.08346  21322019.1844         48.7504         38.0004
G16  21959767.4224  -16365243.10847 -12450098.41045  21959757.7894         42.5004         31.7504
G19  25258316.5944   -1334734.77745  -1008682.95742  25258305.6724         34.5004         14.7504
G20  21232653.7734  -23153612.52048 -18018770.59546  21232644.3754         52.0004         41.0004
G23  20367914.6884  -27061126.49348 -21891133.23346  20367902.9454         51.0004         41.5004
> 2010 04 04 00 48 30.0000000  0 10
G03  23586411.3364   -9052987.41946  -8201877.34243  23586404.3984         39.2504         19.2504
G04  25168360.4694   -2707943.67845  -2083437.48043  25168353.4734         35.5004         20.5004
G06  23857804.1804   -5042061.83845  -5341317.91443  23857797.1254         34.0004         18.5004
G07  22612721.0314  -13907436.02547 -12655639.86846  22612712.1024         46.0004         36.0004
G08  25692999.000     -392077.987 6                                        36.500
G13  21311025.6174  -21317117.63948 -17585523.85046  21311016.5124         50.0004         37.5004
G16  21972077.0864  -16300552.64046 -12399690.24845  21972067.8054         41.5004         30.5004
G19  25244053.1024   -1409678.41845  -1067080.50942  25244042.8834         34.2504         14.7504
G20  21246275.2034  -23082030.12248 -17962992.13346  21246266.0984         51.2504         40.5004
G23  20363455.4304  -27084559.55448 -21909392.76147  20363443.5704         51.0004         42.0004
> 2010 04 04 00 49 00.0000000  0 10
G03  23572043.0394   -9128493.71446  -8260713.34943  23572034.3444         38.7504         18.2504
G04  25175062.1024   -2672731.52045  -2055999.45743  25175054.1684         35.5004         19.7504
G06  23847401.7504   -5096731.66045  -5383917.72043  23847393.8164         34.2504         19.2504
G07  22601486.3834  -13966474.06247 -12701643.51446  22601477.5704         46.0004         36.7504
G08  25678239.023     -469641.610 6                                        38.000
G13  21300051.8054  -21374786.75048 -17630460.80546  21300042.3484         49.0004         38.5004
G16  21984477.6254  -16235390.29847 -12348914.42045  21984467.5824         43.0004         31.5004
G19  25229763.7424   -1484779.06146  -1125600.42242  25229752.1764         36.7504         15.5004
G20  21259977.6954  -23010024.87848 -17906884.18746  21259968.6484         51.5004         40.5004
G23  20359050.8754  -27107705.94948 -21927428.92246  20359038.9574         51.0004         41.5004
> 2010 04 04 00 49 30.0000000  0 10
G03  23557705.0784   -9203842.05346  -8319426.37442  23557695.5044         37.7504         17.7504
G04  25181824.5474   -2637183.83745  -2028300.00443  25181818.5474         32.0004         18.2504
G06  23837038.8054   -5151181.17045  -5426345.84342  23837032.3364         35.2504         17.7504
G07  22590291.9454  -14025298.24047 -12747480.48546  22590283.8954         45.7504         36.5004
G08  25663497.969     -547101.730 6                                        40.500
G13  21289106.5234  -21432305.15948 -17675280.31546  21289097.1844         49.5004         38.0004
G16  21996966.9224  -16169757.77446 -12297772.18145  21996957.3484         41.5004         31.5004
G19  25215441.7584   -1560033.97545  -1184240.52742  25215432.4184         35.2504         15.5004
G20  21273759.8284  -22937598.65948 -17850448.19546  21273751.0164         51.5004         40.5004
G23  20354701.0394  -27130563.74448 -21945240.18146  20354689.4734         50.5004         41.5004
> 2010 04 04 00 50 00.0000000  0 10
G03  23543397.6884   -9279029.89246  -8378014.22243  23543388.2894         39.0004         20.5004
G04  25188651.4924   -2601303.59544  -2000341.48242  25188645.7274         29.5004         16.7504
G06  23826720.8134   -5205408.48545  -5468600.83143  23826713.1724         35.0004         18.2504
G07  22579139.2274  -14083909.48147 -12793151.55946  22579130.4144         46.0004         36.7504
G08  25648776.992     -624458.682 6                                        40.250
G13  21278189.9614  -21489672.08348 -17719981.80646  21278180.8554         50.0004         38.7504
G16  22009544.9534  -16103658.38346 -12246266.17845  22009535.9654         41.2504         30.7504
G19  25201092.7584   -1635441.02945  -1242999.25442  25201082.7734         35.5004         15.5004
G20  21287621.6724  -22864754.62748 -17793686.64946  21287612.2734         50.7504         40.0004
G23  20350406.6884  -27153131.72648 -21962825.62947  20350394.9454         50.0004         42.0004
> 2010 04 04 00 50 30.0000000  0 10
G03  23529121.1954   -9354053.86746  -8436474.40943  23529112.3244         39.2504         20.0004
G04  25195542.0004   -2565092.99844  -1972125.43042  25195536.4104         28.2504         15.5004
G06  23816444.0004   -5259410.86645  -5510680.57342  23816435.5394         33.5004         16.7504
G07  22568026.3984  -14142308.19447 -12838657.02746  22568017.1764         46.5004         37.0004
G08  25634076.547     -701712.979 6                                        39.750
G13  21267302.5084  -21546886.12148 -17764564.15846  21267292.5824         49.0004         38.5004
G16  22022211.3284  -16037094.80447 -12194398.47645  22022202.2234         42.2504         30.2504
G19  25186714.1174   -1710998.25646  -1301874.89542  25186705.3054         37.5004         16.2504
G20  21301562.6414  -22791495.58448 -17736601.69346  21301553.1844         51.0004         39.7504
G23  20346167.3134  -27175408.80948 -21980184.39047  20346156.1564         51.0004         42.0004
> 2010 04 04 00 51 00.0000000  0  9
G03  23514876.9064   -9428913.95146  -8494806.88643  23514866.4534         39.7504         19.5004
G06  23806208.8364   -5313188.48445  -5552585.18242  23806202.4844         32.7504         16.2504
G07  22556953.4924  -14200497.40247 -12883999.23846  22556944.3874         46.5004         37.0004
G08  25619393.508     -778866.180 6                                        40.000
G13  21256443.8054  -21603948.75948 -17809028.54146  21256433.9384         48.0004         37.0004
G16  22034966.0634  -15970072.05247 -12142172.96645  22034955.7274         43.7504         30.5004
G19  25172307.0474   -1786705.98946  -1360867.94342  25172298.4104         37.7504         15.5004
G20  21315581.2734  -22717826.86348 -17679197.52646  21315572.1684         51.0004         40.2504
G23  20341983.0004  -27197396.11048 -21997317.35046  20341972.0204         51.5004         41.7504
> 2010 04 04 00 51 30.0000000  0 10
G03  23500664.2344   -9503600.50246  -8553004.16443  23500654.5434         39.7504         20.2504
G04  25209512.750    -2491699.257 5                                        32.250
G06  23796021.9694   -5366732.09745  -5594307.50642  23796013.2734         35.2504         17.2504
G07  22545921.3594  -14258471.08647 -12929173.50846  22545912.4884         47.2504         36.2504
G08  25604732.4924    -855912.34047  -1132857.58743  25604727.4884         42.0004         19.7504
G13  21245615.3754  -21660852.28248 -17853368.94346  21245605.6254         49.2504         38.5004
G16  22047807.5784  -15902586.22547 -12089586.60445  22047798.2384         42.0004         30.5004
G19  25157874.1024   -1862554.87346  -1419970.86242  25157863.5904         38.5004         17.7504
G20  21329678.5634  -22643743.83248 -17621470.50846  21329669.5744         51.0004         39.0004
G23  20337855.8984  -27219085.63348 -22014218.28346  20337844.4494         51.5004         41.2504
> 2010 04 04 00 52 00.0000000  0 10
G03  23486484.5234   -9578114.57946  -8611067.03443  23486475.6524         38.5004         21.2504
G04  25216589.3914   -2454511.55045  -1885958.75942  25216581.5744         32.7504         17.7504
G06  23785876.1254   -5420043.14745  -5635848.50042  23785869.4804         34.5004         17.7504
G07  22534929.1094  -14316233.57347 -12974183.21346  22534920.7074         46.0004         36.7504
G08  25590089.8444    -932855.93446  -1192813.41442  25590084.7234         39.7504         17.7504
G13  21234816.7584  -21717599.43048 -17897587.48046  21234807.1844         49.0004         38.7504
G16  22060736.7584  -15834643.88847 -12036644.52945  22060727.1254         43.0004         31.0004
G19  25143412.2814   -1938546.95546  -1479185.46343  25143404.3484         37.5004         19.0004
G20  21343853.8054  -22569253.28148 -17563425.94946  21343844.6414         51.2504         39.5004
G23  20333784.7424  -27240480.39248 -22030889.51546  20333773.6454         52.0004         41.7504
> 2010 04 04 00 52 30.0000000  0 10
G03  23472337.8674   -9652451.50446  -8668991.88043  23472330.5784         38.5004         22.0004
G04  25223724.7344                                   25223718.6174         31.2504         16.7504
G06  23775776.3054   -5473117.96545  -5677205.43643  23775769.7774         35.0004         18.2504
G07  22523977.2734  -14373784.02547 -13019027.68046  22523968.6954         46.0004         37.0004
G08  25575467.7034   -1009694.99546  -1252687.79543  25575462.9344         40.2504         21.2504
G13  21224048.5864  -21774187.18248 -17941681.82246  21224038.8954         48.7504         38.7504
G16  22073752.3444  -15766246.87647 -11983348.17045  22073742.7114         43.2504         30.7504
G19  25128925.1724   -2014678.47046  -1538508.64643  25128917.2974         38.5004         19.2504
G20  21358106.1954  -22494356.72148 -17505065.02746  21358097.0314         51.0004         39.0004
G23  20329770.2034  -27261577.39448 -22047328.73947  20329758.7544         51.2504         42.2504
> 2010 04 04 00 53 00.0000000  0 10
G03  23458226.0314   -9726607.80046  -8726775.94643  23458220.0314         37.2504         20.5004
G04  25230922.8054   -2379173.02745  -1827253.50742  25230917.6254         31.7504         16.2504
G06  23765722.2814   -5525953.00745  -5718375.50243  23765716.1054         35.0004         19.0004
G07  22513066.9224  -14431121.87947 -13063706.50046  22513057.9924         46.2504         36.7504
G08  25560865.1564   -1086429.06946  -1312480.36243  25560860.1524         39.5004         21.0004
G13  21213311.0784  -21830613.72848 -17985650.54546  21213301.6214         49.0004         38.5004
G16  22086854.3444  -15697396.89047 -11929698.83544  22086844.4184         42.5004         29.7504
G19  25114413.0004   -2090946.42746  -1597938.12743  25114402.7814         39.5004         19.7504
G20  21372435.3754  -22419055.99048 -17446389.16146  21372426.6804         51.2504         39.0004
G23  20325812.7194  -27282374.63348 -22063534.37547  20325801.3284         52.0004         42.5004
> 2010 04 04 00 53 30.0000000  0 10
G03  23444148.6804   -9800580.97746  -8784417.29643  23444142.5634         36.7504         21.7504
G04  25238182.8674   -2341026.89645  -1797529.29242  25238176.6914         31.0004         17.7504
G06  23755714.5634   -5578546.25745  -5759357.21143  23755707.7424         35.5004         19.2504
G07  22502195.9614  -14488248.24247 -13108220.52546  22502187.3834         46.5004         37.5004
G08  25546283.2034   -1163058.84046  -1372191.64943  25546278.7854         41.2504         21.7504
G13  21202603.9384  -21886878.10348 -18029492.91046  21202594.5984         48.7504         38.5004
G16  22100041.6254  -15628096.91147 -11875698.87345  22100032.0514         43.2504         30.0004
G19  25099874.2584   -2167348.88246  -1657472.44243  25099865.7384         39.2504         21.7504
G20  21386840.9454  -22343354.16748 -17387400.76146  21386831.9574         51.5004         39.0004
G23  20321911.9224  -27302871.08248 -22079505.62647  20321900.7664         51.7504         42.0004
> 2010 04 04 00 54 00.0000000  0 10
G03  23430106.6484   -9874368.75146  -8841914.19343  23430101.4694         37.0004         21.0004
G04  25245502.1884   -2302567.15645  -1767560.73042  25245495.4844         31.0004         16.7504
G06  23745752.2664   -5630896.01146  -5800149.21343  23745745.2704         38.2504         19.0004
G07  22491365.3834  -14545164.10247 -13152570.51646  22491356.4534         46.2504         36.2504
G08  25531720.7734   -1239585.35246  -1431822.48143  25531715.3014         39.5004         19.5004
G13  21191928.2424  -21942979.74848 -18073208.47146  21191918.6684         48.7504         38.5004
G16  22113313.5554  -15558350.43547 -11821350.96645  22113304.1564         43.0004         30.2504
G19  25085309.0234   -2243884.06046  -1717110.14143  25085301.1484         37.5004         20.7504
G20  21401322.2344  -22267254.69148 -17328102.49646  21401313.1294         51.5004         39.0004
G23  20318069.2274  -27323066.26148 -22095242.12047  20318058.1884         51.5004         42.0004
> 2010 04 04 00 54 30.0000000  0 10
G03  23416100.9144   -9947967.63645  -8899263.88543  23416096.6724         35.7504         21.2504
G04  25252880.7424   -2263796.25245  -1737349.69743  25252873.4534         35.5004         18.5004
G06  23735836.6954   -5682999.59146  -5840749.36943  23735830.2854         37.5004         19.2504
G07  22480574.0314  -14601869.84247 -13196756.78646  22480565.6294         46.0004         37.0004
G08  25517176.7814   -1316007.96846  -1491372.36843  25517172.3054         39.0004         21.0004
G13  21181283.4614  -21998917.43448 -18116796.27246  21181274.1804         48.7504         39.0004
G16  22126670.1024  -15488160.22247 -11766657.30844  22126660.3524         42.2504         29.7504
G19  25070719.7974   -2320549.53146  -1776849.34943  25070712.0394         36.0004         19.5004
G20  21415878.7194  -22190759.86148 -17268496.16546  21415869.7894         51.2504         39.5004
G23  20314283.9304  -27342958.82448 -22110742.82247  20314272.0124         51.2504         42.5004
> 2010 04 04 00 55 00.0000000  0 10
G03  23402132.8984  -10021373.74146  -8956463.40243  23402128.1884         36.2504         20.5004
G04  25260316.5394   -2224715.34745  -1706897.04443  25260310.3054         33.0004         20.0004
G06  23725970.9534   -5734853.05846  -5881154.58943  23725962.3754         37.0004         20.0004
G07  22469822.8594  -14658364.45447 -13240778.52146  22469814.9844         46.7504         36.7504
G08  25502654.6254   -1392325.28846  -1550840.23743  25502649.6804         38.5004         21.2504
G13  21170670.8594  -22054688.35148 -18160254.10946  21170661.4614         50.2504         38.2504
G16  22140111.8524  -15417527.35147 -11711618.71644  22140102.1604         42.0004         29.0004
G19  25056106.7034   -2397341.39945  -1836687.06643  25056099.3554         33.5004         19.7504
G20  21430510.0704  -22113871.04048 -17208582.82346  21430501.1414         51.5004         39.0004
G23  20310556.5164  -27362545.76348 -22126005.36146  20310545.1254         52.0004         41.7504
> 2010 04 04 00 55 30.0000000  0 10
G03  23388202.2194  -10094583.81146  -9013510.10743  23388195.8674         39.2504         21.2504
G04  25267811.1884   -2185326.83245  -1676204.77343  25267806.3014         34.5004         20.2504
G06  23716151.9224   -5786453.99146  -5921363.09043  23716143.2854         39.0004         19.0004
G07  22459112.6954  -14714648.48947 -13284636.19046  22459104.1764         47.5004         37.2504
G08  25488151.0864   -1468537.78446  -1610226.34443  25488147.0784         37.0004         20.2504
G13  21160089.9304  -22110290.95248 -18203580.80646  21160080.5314         50.5004         39.0004
G16  22153636.1174  -15346454.83547 -11656237.54645  22153626.4844         42.5004         31.2504
G19  25041469.3364   -2474257.68945  -1896621.71343  25041462.2234         33.7504         20.7504
G20  21445216.2424  -22036591.14148 -17148364.76346  21445207.0204         51.2504         39.2504
G23  20306887.6884  -27381825.87948 -22141028.83047  20306876.2384         51.7504         42.0004
> 2010 04 04 00 56 00.0000000  0 10
G03  23374309.4454  -10167595.20446  -9070402.03943  23374301.9224         39.2504         21.5004
G04  25275365.1644   -2145633.57445  -1645274.96943  25275359.3984         35.0004         19.5004
G06  23706380.1724   -5837799.85246  -5961372.79543  23706372.7074         39.7504         21.5004
G07  22448442.2424  -14770722.52247 -13328330.22046  22448434.1914         47.0004         37.2504
G08  25473668.3834   -1544645.55346  -1669530.91743  25473662.9694         39.0004         20.0004
G13  21149541.5634  -22165724.25948 -18246775.58246  21149532.3404         50.2504         38.7504
G16  22167243.6024  -15274945.02947 -11600515.63244  22167234.0274         42.2504         28.7504
G19  25026810.3444   -2551295.60345  -1956651.10743  25026802.5274         35.0004         20.5004
G20  21459996.2584  -21958922.78848 -17087843.98946  21459987.1524         51.0004         39.5004
G23  20303277.0164  -27400797.79848 -22155812.12847  20303266.0354         51.2504         42.2504
> 2010 04 04 00 56 30.0000000  0 10
G03  23360454.5864  -10240404.98446  -9127136.89843  23360445.4224         40.5004         21.7504
G04  25282977.1334   -2105638.11745  -1614109.74043  25282970.7814         34.2504         21.5004
G06  23696659.0394   -5888888.26546  -6001181.90743  23696651.0474         38.7504         20.5004
G07  22437811.9454  -14826587.10347 -13371861.02846  22437803.7194         47.0004         37.7504
G08  25459205.8204   -1620648.62346  -1728753.93343  25459200.3484         38.0004         20.5004
G13  21139025.3364  -22220986.85548 -18289837.33146  21139016.3484         50.5004         40.0004
G16  22180934.3984  -15203000.91447 -11544455.30044  22180924.7074         42.0004         29.2504
G19  25012127.1484   -2628453.14245  -2016773.83043  25012119.6254         35.5004         21.2504
G20  21474849.2344  -21880868.76448 -17027022.70446  21474840.2464         52.0004         39.0004
G23  20299725.8984  -27419460.53848 -22170354.52147  20299714.4494         51.2504         42.0004
> 2010 04 04 00 57 00.0000000  0 10
G03  23346637.7424  -10313008.82746  -9183711.27743  23346629.1644         40.5004         22.7504
G04  25290644.9924   -2065342.15146  -1582710.34343  25290638.3484         36.5004         21.2504
G06  23686986.1094   -5939715.82146  -6040787.76643  23686978.4694         37.5004         20.5004
G07  22427221.1644  -14882241.65247 -13415228.18446  22427212.9384         47.2504         37.0004
G08  25444762.5164   -1696546.43446  -1787894.88343  25444756.6914         37.2504         19.0004
G13  21128542.3674  -22276076.22048 -18332764.10446  21128532.4414         50.0004         39.2504
G16  22194707.1334  -15130624.66247 -11488058.21544  22194698.0274         42.5004         29.2504
G19  24997422.9064   -2705726.89945  -2076987.04243  24997415.5594         33.0004         19.7504
G20  21489775.3914  -21802430.84748 -16965902.27546  21489766.6954         51.0004         39.0004
G23  20296233.9384  -27437811.39448 -22184653.88347  20296222.4884         51.7504         42.0004
> 2010 04 04 00 57 30.0000000  0 10
G03  23332861.7114  -10385404.48046  -9240123.43743  23332852.2544         40.5004         22.5004
G04  25298369.6724   -2024748.66946  -1551079.07843  25298363.4964         37.5004         21.2504
G06  23677363.0704   -5990280.66546  -6080188.86343  23677356.3674         38.2504         20.5004
G07  22416669.8524  -14937687.28247 -13458432.53846  22416661.8014         47.0004         38.0004
G08  25430340.5704   -1772339.36245  -1846954.19543  25430333.5744         35.5004         19.2504
G13  21118091.9224  -22330991.67148 -18375555.35046  21118082.9344         50.0004         39.2504
G16  22208561.6174  -15057819.48347 -11431326.92644  22208552.2774         42.5004         29.2504
G19  24982696.4534   -2783114.66745  -2137289.13243  24982687.9344         33.7504         19.7504
G20  21504774.2274  -21723612.24348 -16904485.20946  21504765.2974         51.2504         39.5004
G23  20292801.1804  -27455849.79648 -22198709.78447  20292790.0824         51.7504         42.0004
> 2010 04 04 00 58 00.0000000  0 10
G03  23319126.2894  -10457585.42946  -9296368.31843  23319115.2504         40.5004         22.5004
G04  25306150.1804   -1983857.00146  -1519215.51643  25306144.2974         36.2504         21.0004
G06  23667791.6334   -6040576.67646  -6119380.47843  23667784.9884         37.5004         20.0004
G07  22406159.5164  -14992920.72648 -13501471.56446  22406151.1724         48.0004         38.0004
G08  25415935.8984   -1848024.15845  -1905929.14342  25415930.6604         31.0004         16.2504
G13  21107675.6484  -22385728.39248 -18418207.32846  21107666.6024         50.5004         39.0004
G16  22222497.9694  -14984584.56146 -11374260.77244  22222488.1024         41.2504         29.5004
G19  24967949.7664                                   24967940.8954         33.5004         18.5004
G20  21519845.3054  -21644412.27348 -16842770.97746  21519836.9024         50.5004         39.2504
G23  20289428.9064  -27473571.00448 -22212518.51947  20289417.5744         52.0004         42.5004
> 2010 04 04 00 58 30.0000000  0 10
G03  23305430.4224  -10529556.23346  -9352449.44943  23305421.0824         41.0004         22.5004
G04  25313986.5084   -1942677.56046  -1487127.65943  25313980.8014         36.0004         22.7504
G06  23658270.6254   -6090609.11646  -6158366.76843  23658264.1564         37.2504         20.5004
G07  22395687.6804  -15047950.35047 -13544351.76446  22395679.5704         47.2504         36.7504
G08  25401554.6414   -1923608.48745  -1964825.80942  25401547.1174         31.7504         17.7504
G13  21097292.4924  -22440292.89248 -18460725.09946  21097283.2704         50.0004         39.2504
G16  22236513.9534  -14910930.65047 -11316868.11045  22236503.7344         43.0004         30.0004
G19  24953180.8284   -2938220.52045  -2258150.70042  24953171.4304         30.5004         17.2504
G20  21534987.3444  -21564841.60148 -16780767.88946  21534978.0044         51.0004         38.5004
G23  20286115.8674  -27490981.33848 -22226085.00047  20286104.4774         51.2504         42.7504
> 2010 04 04 00 59 00.0000000  0 10
G03  23291776.9144  -10601303.22146  -9408356.14943  23291768.9804         40.7504         22.5004
G04  25321879.5314   -1901201.99045  -1454809.07743  25321873.4734         35.7504         22.0004
G06  23648803.8284   -6140364.95146  -6197137.48843  23648795.6024         38.7504         19.2504
G07  22385256.7344  -15102765.77947 -13587065.06346  22385248.2154         46.5004         37.7504
G08  25387192.4064   -1999081.37345  -2023635.67043  25387185.2344         33.0004         19.2504
G13  21086944.1174  -22494672.71948 -18503098.98346  21086935.0124         48.7504         39.2504
G16  22250611.1174  -14836849.37547 -11259142.45644  22250601.5434         43.2504         29.2504
G19  24938394.5634                                   24938382.3524         32.2504         16.7504
G20  21550201.0314  -21484891.90048 -16718469.45046  21550192.0434         50.7504         39.0004
G23  20282864.3754  -27508068.77348 -22239399.87947  20282852.5744         51.5004         42.7504
> 2010 04 04 00 59 30.0000000  0 10
G03  23278164.6884  -10672834.08146  -9464094.42943  23278157.3404         39.5004         23.7504
G04  25329825.3914   -1859443.25346  -1422269.85843  25329820.0354         36.0004         22.5004
G06  23639386.5004   -6189851.91246  -6235698.73643  23639378.8014         38.0004         20.2504
G07  22374864.5944  -15157377.86547 -13629619.90846  22374855.9574         46.2504         37.5004
G08  25372847.7504   -2074453.77345  -2082367.20443  25372842.2194         35.0004         18.5004
G13  21076629.6804  -22548876.85648 -18545335.95046  21076620.4574         48.5004         39.0004
G16  22264786.5784  -14762353.95747 -11201094.09644  22264777.4144         42.0004         28.7504
G19  24923584.4384   -3093748.57744  -2379341.21842  24923574.5704         28.0004         16.2504
G20  21565484.5084  -21404576.58448 -16655886.10946  21565475.4024         51.0004         38.5004
G23  20279672.5704  -27524842.06148 -22252469.96247  20279661.2974         51.7504         43.0004
> 2010 04 04 01 00 00.0000000  0 10
G03  23264595.4064  -10744137.22546  -9519655.28343  23264588.3524         39.2504         22.5004
G04  25337826.9224   -1817395.59346  -1389505.50643  25337821.8014         37.5004         23.0004
G06  23630021.6804   -6239059.17646  -6274042.00743  23630014.8594         36.5004         19.5004
G07  22364511.9454  -15211778.85647 -13672010.25446  22364503.8364         46.2504         37.7504
G08  25358526.2274   -2149717.41346  -2141014.14443  25358519.3484         36.7504         20.0004
G13  21066349.8364  -22602895.57448 -18587428.44446  21066340.7304         49.0004         39.5004
G16  22279043.0314  -14687438.99547 -11142718.81745  22279032.8134         42.5004         30.5004
G19  24908758.1804   -3171664.18745  -2440054.46743  24908749.0164         33.5004         18.2504
G20  21580839.1334  -21323889.72348 -16593013.25646  21580829.8524         51.5004         39.0004
G23  20276542.1644  -27541291.56748 -22265287.76447  20276530.8914         52.0004         43.0004
> 2010 04 04 01 00 30.0000000  0 10
G03  23251069.4924  -10815213.49046  -9575039.33843  23251064.3714         38.2504         22.5004
G04  25345882.4064   -1775065.86746  -1356521.36743  25345877.3444         38.7504         22.7504
G06  23620710.7344   -6287988.28446  -6312168.49143  23620703.3874         38.2504         19.5004
G07  22354199.2664  -15265973.09447 -13714239.50046  22354190.6884         47.2504         37.7504
G08  25344225.1644   -2224876.16746  -2199579.24643  25344218.1684         40.5004         20.7504
G13  21056105.8674  -22656731.57348 -18629378.55846  21056096.0594         49.7504         40.0004
G16  22293377.2504  -14612111.15447 -11084021.79444  22293367.6174         43.2504         29.5004
G19  24893912.5704   -3249678.39545  -2500844.67243  24893903.3484         34.2504         19.7504
G20  21596262.6954  -21242838.31648 -16529856.33946  21596253.4734         51.0004         38.2504
G23  20273473.1804  -27557420.07248 -22277855.42347  20273461.6724         51.2504         42.0004
> 2010 04 04 01 01 00.0000000  0 10
G03  23237587.7114  -10886058.70746  -9630243.31843  23237582.8834         38.5004         22.7504
G04  25353991.7194   -1732455.16246  -1323318.28243  25353986.1294         38.5004         23.0004
G06  23611454.8524   -6336635.52046  -6350075.36643  23611447.7974         38.7504         20.5004
G07  22343925.6414  -15319959.88847 -13756307.10546  22343917.1214         47.0004         37.7504
G08  25329943.3834   -2299928.97846  -2258061.87243  25329936.0354         38.7504         21.2504
G13  21045896.3834  -22710381.98548 -18671184.06546  21045886.9264         50.5004         40.0004
G16  22307789.7194  -14536372.15246 -11025004.40444  22307780.1454         41.7504         29.5004
G19  24879048.5704   -3327787.71946  -2561708.98943  24879039.2304         37.0004         22.0004
G20  21611755.2274  -21161423.85648 -16466416.53146  21611745.6524         50.7504         37.5004
G23  20270464.9454  -27573225.13948 -22290171.06647  20270453.7894         51.5004         42.5004
> 2010 04 04 01 01 30.0000000  0 10
G03  23224151.2734  -10956670.33446  -9685265.34543  23224146.2114         38.5004         22.7504
G04  25362152.4304   -1689567.05746  -1289899.02943  25362147.0744         39.0004         22.7504
G06  23602251.7584   -6384998.98846  -6387761.12643  23602242.8874         39.5004         20.5004
G07  22333691.8134  -15373740.34548 -13798213.92146  22333683.1764         48.5004         37.7504
G08  25315681.2424   -2374876.79146  -2316462.62643  25315674.5984         40.7504         21.0004
G13  21035722.0704  -22763845.89948 -18712844.23346  21035712.8484         50.7504         39.5004
G16  22322279.8914  -14460225.12047 -10965669.07244  22322271.1374         42.2504         29.7504
G19  24864167.0314   -3405990.33346  -2622646.04043  24864158.6884         36.5004         21.7504
G20  21627316.1564  -21079649.71948 -16402696.44546  21627307.2854         51.0004         37.5004
G23  20267519.5554  -27588705.74348 -22302233.88147  20267507.8714         52.2504         42.5004
> 2010 04 04 01 02 00.0000000  0 10
G03  23210759.5864  -11027043.61446  -9740101.55643  23210754.3484         39.2504         23.5004
G04  25370366.2194   -1646401.88746  -1256263.89043  25370360.9804         37.5004         22.0004
G06  23593102.6804   -6433074.47746  -6425222.58243  23593094.0434         40.0004         21.2504
G07  22323497.2274  -15427312.90848 -13839958.73746  22323489.0004         48.5004         38.0004
G08  25301438.5864   -2449717.75046  -2374780.13443  25301433.6414         41.7504         22.0004
G13  21025584.3914  -22817120.15348 -18754356.63446  21025575.1684         52.5004         39.7504
G16  22336847.9694  -14383671.42847 -10906016.84944  22336838.5704         43.0004         29.2504
G19  24849267.1414   -3484281.57445  -2683652.10043  24849261.1414         33.5004         19.2504
G20  21642945.6174  -20997516.73948 -16338696.74546  21642936.7464         50.0004         37.5004
G23  20264636.2424  -27603858.64048 -22314041.33247  20264624.5004         51.7504         43.0004
> 2010 04 04 01 02 30.0000000  0 10
G03  23197414.7814  -11097175.73446  -9794749.89643  23197408.5474         40.5004         22.7504
G04  25378632.8444   -1602962.97246  -1222415.44544  25378627.7814         38.5004         24.0004
G06  23584009.2424   -6480859.88046  -6462457.95243  23584000.1954         37.5004         19.2504
G07  22313342.2894  -15480678.53948 -13881542.31446  22313334.6484         49.0004         38.7504
G08  25287216.8204   -2524452.36646  -2433014.78243  25287212.1094         40.7504         20.7504
G13  21015483.2664  -22870203.73748 -18795720.45846  21015473.8674         51.7504         40.0004
G16  22351492.4694  -14306714.09847 -10846050.11145  22351482.6024         42.2504         30.2504
G19  24834353.3834   -3562659.39446  -2744725.57343  24834346.5044         36.7504         19.0004
G20  21658642.2894  -20915028.21348 -16274420.00346  21658633.5354         50.2504         37.2504
G23  20261815.0554  -27618682.83648 -22325592.65147  20261803.6644         51.7504         42.5004
> 2010 04 04 01 03 00.0000000  0 10
G03  23184115.5554  -11167064.26446  -9849208.44044  23184108.4414         41.2504         25.2504
G04  25386950.5234   -1559253.60847  -1188356.29944  25386944.2894         42.0004         25.5004
G06  23574972.5394   -6528353.37846  -6499465.75043  23574963.9024         38.2504         20.7504
G07  22303226.2584  -15533838.32748 -13922965.49546  22303218.0904         49.2504         38.0004
G08  25273014.2814   -2599081.26046  -2491167.07343  25273010.6844         41.0004         19.7504
G13  21005418.0554  -22923095.58748 -18836934.86946  21005408.5984         50.5004         40.5004
G16  22366212.3284  -14229356.40447 -10785771.40145  22366204.1024         43.2504         30.0004
G19  24819422.8284   -3641121.63246  -2805864.90743  24819414.9534         37.7504         19.7504
G20  21674406.8914  -20832187.54348 -16209868.86446  21674397.9614         50.0004         37.7504
G23  20259056.7664  -27633177.81048 -22336887.43147  20259045.4344         52.0004         42.7504
> 2010 04 04 01 03 30.0000000  0 10
G03  23170864.2114  -11236706.49246  -9903475.07744  23170855.6914         41.0004         24.5004
G04  25395320.0554   -1515276.59146  -1154088.53644  25395312.5314         41.5004         24.0004
G06  23565990.3284   -6575552.62646  -6536244.32843  23565982.0434         39.0004         22.0004
G07  22293148.9534  -15586792.84048 -13964228.73446  22293140.7854         49.2504         38.0004
G08  25258834.1254   -2673604.74346  -2549237.15243  25258829.6484         41.2504         20.5004
G13  20995390.0784  -22975794.09348 -18877998.63146  20995380.5634         50.5004         40.0004
G16  22381009.2344  -14151601.68646 -10725183.32444  22380999.5434         41.0004         29.5004
G19  24804476.6174   -3719666.08246  -2867068.35443  24804467.5124         38.5004         19.2504
G20  21690237.2584  -20748997.62248 -16145045.58746  21690228.5044         50.2504         37.7504
G23  20256361.6414  -27647342.31448 -22347924.72047  20256349.9574         51.5004         42.5004
> 2010 04 04 01 04 00.0000000  0 10
G03  23157659.1644  -11306098.31446  -9957546.57544  23157650.9964         40.7504         24.2504
G04  25403738.2814   -1471033.60847  -1119613.55043  25403731.8714         42.0004         23.2504
G06  23557065.2974   -6622454.21246  -6572790.97043  23557056.4844         40.5004         22.7504
G07  22283111.3524  -15639541.66948 -14005331.67246  22283103.1254         49.0004         37.5004
G08  25244672.5234   -2748021.94046  -2607224.43243  25244667.5204         40.7504         20.5004
G13  20985398.8134  -23028297.51648 -18918910.36746  20985389.7074         51.7504         39.5004
G16  22395880.4384  -14073451.30047 -10664286.93944  22395871.4494         42.5004         29.5004
G19  24789515.1414   -3798288.90046  -2928332.89643  24789504.7464         40.5004         18.5004
G20  21706133.8674  -20665460.38048 -16079951.64746  21706124.8794         49.7504         36.2504
G23  20253729.3674  -27661173.91048 -22358702.57546  20253718.0354         51.5004         41.7504
> 2010 04 04 01 04 30.0000000  0 10
G03  23144501.9774  -11375235.92246 -10011420.00443  23144494.6294         41.5004         23.0004
G04  25412207.2194   -1426526.35746  -1084932.64143  25412200.8674         41.5004         23.7504
G06  23548197.9384   -6669054.92946  -6609103.19243  23548188.0704         39.0004         20.5004
G07  22273112.8444  -15692084.37848 -14046274.01646  22273104.2664         49.2504         38.0004
G08  25230531.5784   -2822332.42846  -2665128.61242  25230525.5784         39.0004         17.7504
G13  20975445.7274  -23080602.92448 -18959667.81646  20975436.2114         51.5004         40.5004
G16  22410826.9064  -13994907.65347 -10603084.10344  22410817.5084         42.5004         29.5004
G19  24774538.3984   -3876986.71346  -2989655.82743  24774529.1764         38.2504         19.0004
G20  21722096.3674  -20581577.76048 -16014588.60046  21722087.2034         50.0004         37.0004
G23  20251160.8594  -27674670.32148 -22369219.26947  20251149.4694         51.5004         42.5004
> 2010 04 04 01 05 00.0000000  0 10
G03  23131395.5084  -11444117.14747 -10065093.66143  23131386.1684         42.0004         22.7504
G04  25420726.1024   -1381758.35247  -1050048.52943  25420719.4574         42.2504         22.5004
G06  23539387.3054   -6715353.14146  -6645179.70743  23539376.9694         39.5004         18.2504
G07  22263153.2034  -15744422.08348 -14087056.60246  22263144.2734         48.5004         38.2504
G08  25216411.2814   -2896536.53746  -2722949.91743  25216404.9304         39.5004         18.2504
G13  20965529.9844  -23132709.79848 -19000270.55846  20965520.6454         51.5004         40.2504
G16  22425847.2114  -13915973.99847 -10541577.34544  22425837.8134         42.7504         29.2504
G19  24759549.3364   -3955757.73646  -3051035.74643  24759540.5824         39.0004         19.5004
G20  21738123.4614  -20497353.17248 -15948959.06546  21738114.6484         49.7504         36.5004
G23  20248656.8134  -27687831.16948 -22379474.47147  20248645.3634         51.5004         42.2504
> 2010 04 04 01 05 30.0000000  0 10
G03  23118336.3444  -11512738.31346 -10118564.65043  23118327.1214         39.7504         22.0004
G04  25429295.2734   -1336731.31547  -1014962.59443  25429287.8674         43.7504         22.0004
G06  23530634.3444   -6761345.57146  -6681017.96943  23530624.4774         39.0004         19.0004
G07  22253233.1884  -15796554.50348 -14127679.24746  22253224.4344         49.5004         38.2504
G08  25202309.3524   -2970634.25446  -2780688.26342  25202303.9964         37.7504         17.2504
G13  20955652.0944  -23184615.64648 -19040716.66146  20955642.6954         50.5004         40.7504
G16  22440942.4144  -13836652.51847 -10479768.42844  22440932.7234         43.0004         28.2504
G19  24744546.0704   -4034598.47746  -3112470.01442  24744538.3714         38.5004         17.7504
G20  21754215.8524  -20412788.70748 -15883064.71546  21754206.7464         49.7504         37.0004
G23  20246216.8204  -27700654.31348 -22389466.52547  20246205.0784         52.0004         42.7504
> 2010 04 04 01 06 00.0000000  0 10
G03  23105328.0004  -11581096.74046 -10171830.92143  23105317.8404         39.0004         21.2504
G04  25437912.8524   -1291448.57847   -979677.38943  25437906.2074         44.2504         22.0004
G06  23521942.0944   -6807030.53346  -6716616.58343  23521933.0474         40.2504         22.0004
G07  22243351.1024  -15848482.93348 -14168142.92446  22243342.4654         49.2504         38.2504
G08  25188230.0084   -3044625.67846  -2838343.85543  25188223.1884         38.5004         19.0004
G13  20945813.4144  -23236319.63248 -19081005.46646  20945804.2504         52.0004         40.0004
G16  22456110.0634  -13756946.58847 -10417659.92944  22456100.4884         42.7504         29.2504
G19  24729529.5944   -4113507.00346  -3173957.12643  24729521.4844         37.7504         19.2504
G20  21770372.1414  -20327887.78948 -15816908.18146  21770362.9184         49.7504         37.0004
G23  20243840.8984  -27713138.96148 -22399194.82247  20243829.9774         51.7504         42.2504
> 2010 04 04 01 06 30.0000000  0 10
G03  23092369.5314  -11649189.87146 -10224890.47643  23092360.2504         38.2504         20.0004
G04  25446577.3054   -1245913.40947   -944195.50043  25446569.8404         44.5004         19.5004
G06  23513307.2194   -6852405.78046  -6751973.87943  23513298.1724         40.7504         22.2504
G07  22233507.8524  -15900207.78748 -14208447.97146  22233499.6844         48.7504         37.5004
G08  25174170.9144   -3118511.72846  -2895917.29743  25174163.7424         38.7504         19.7504
G13  20936013.0234  -23287820.56748 -19121136.05246  20936003.6844         51.2504         40.2504
G16  22471349.9614  -13676859.59747 -10355254.47644  22471340.0944         43.7504         28.5004
G19  24714502.5314   -4192481.14046  -3235495.29543  24714492.6054         37.7504         19.2504
G20  21786591.5474  -20242653.63448 -15750491.98246  21786582.4414         49.5004         36.7504
G23  20241529.7894  -27725284.04748 -22408658.51647  20241517.9304         51.7504         42.0004
> 2010 04 04 01 07 00.0000000  0 10
G03  23079461.6254  -11717012.85746 -10277739.48043  23079454.8054         37.5004         20.5004
G04  25455290.4924   -1200126.80947   -908517.66943  25455284.4344         43.0004         18.5004
G06  23504732.2034   -6897467.60946  -6787086.94543  23504723.3914         39.5004         21.0004
G07  22223703.8204  -15951728.55848 -14248593.98646  22223695.7114         49.0004         38.2504
G08  25160129.4694   -3192291.25346  -2953407.71143  25160125.4614         39.5004         21.0004
G13  20926252.3284  -23339115.32348 -19161105.98246  20926242.8714         51.7504         40.0004
G16  22486661.7034  -13596392.85946 -10292553.14044  22486652.3634         41.5004         27.5004
G19  24699460.9844   -4271516.44845  -3297081.27342  24699451.6454         33.5004         17.7504
G20  21802874.0704  -20157087.71648 -15683817.26746  21802865.6094         49.2504         36.5004
G23  20239283.3914  -27737086.85948 -22417855.51447  20239271.9414         51.7504         42.2504
> 2010 04 04 01 07 30.0000000  0 10
G03  23066607.6564  -11784563.27646 -10330376.12143  23066600.4844         38.2504         20.0004
G04  25464049.5084   -1154091.98747   -872646.45542  25464043.9774         43.0004         15.5004
G06  23496217.0784   -6942214.03146  -6821954.24943  23496208.2074         39.2504         20.5004
G07  22213938.4454  -16003046.08648 -14288581.63146  22213930.6884         49.5004         38.5004
G08  25146109.7034   -3265964.38846  -3010815.23643  25146105.8714         39.5004         20.0004
G13  20916530.6024  -23390202.91048 -19200914.47046  20916521.2624         52.0004         41.0004
G16  22502046.4144  -13515549.36347 -10229558.23444  22502036.1954         43.0004         28.7504
G19  24684410.6724   -4350610.84945  -3358713.12642  24684400.1024         31.7504         17.7504
G20  21819219.3594  -20071193.38848 -15616886.64246  21819210.5474         49.2504         37.5004
G23  20237102.9144  -27748546.32348 -22426784.97447  20237091.3484         51.7504         42.5004
> 2010 04 04 01 08 00.0000000  0 10
G03  23053806.4694  -11851837.88146 -10382797.84543  23053797.8914         38.7504         21.5004
G04  25472857.3834   -1107811.16247   -836583.53242  25472851.3244         42.7504         14.7504
G06  23487762.1414   -6986642.27946  -6856573.63743  23487752.3324         39.0004         19.5004
G07  22204211.6724  -16054160.39748 -14328410.93346  22204203.7974         49.5004         39.0004
G08  25132111.1254   -3339531.09546  -3068139.82443  25132107.0004         39.7504         21.0004
G13  20906848.7034  -23441081.44748 -19240560.06946  20906839.4224         51.5004         41.0004
G16  22517501.5084  -13434332.04447 -10166272.00844  22517491.4064         42.0004         28.5004
G19  24669347.9694   -4429761.31445  -3420388.70742  24669338.6294         33.5004         17.2504
G20  21835626.3524  -19984972.87848 -15549701.86646  21835618.0664         48.2504         37.5004
G23  20234988.0084  -27759660.96948 -22435445.73947  20234976.6764         52.0004         42.7504
> 2010 04 04 01 08 30.0000000  0 10
G03  23041057.6094  -11918834.01346 -10435002.56643  23041049.6174         39.7504         21.5004
G04  25481709.906    -1061287.271 7                                        42.500
G06  23479368.8594   -7030750.23546  -6890943.44343  23479359.5784         39.0004         19.2504
G07  22194523.7114  -16105072.03748 -14368082.29046  22194515.7194         49.5004         37.7504
G08  25118131.7034   -3412991.85746  -3125381.88143  25118127.1094         39.0004         21.2504
G13  20897206.7034  -23491749.51748 -19280041.66846  20897197.3054         51.0004         39.2504
G16  22533026.4224  -13352744.15947 -10102697.03844  22533017.4924         42.0004         27.7504
G19  24654277.7344   -4508965.25745  -3482105.95243  24654268.0434         35.0004         18.2504
G20  21852095.0474  -19898429.52448 -15482265.51246  21852086.6454         49.0004         36.7504
G23  20232939.1644  -27770429.50148 -22443836.79447  20232927.3634         52.0004         42.0004
> 2010 04 04 01 09 00.0000000  0 10
G03  23028362.3524  -11985548.15446 -10486987.58843  23028354.9454         41.0004         23.7504
G04  25490609.648    -1014522.822 6                                        41.750
G06  23471036.3204   -7074535.10246  -6925061.53443  23471028.7384         39.0004         20.7504
G07  22184873.7974  -16155781.14348 -14407595.86246  22184865.2194         49.2504         38.7504
G08  25104173.7894   -3486346.13646  -3182540.93943  25104168.3754         38.2504         21.5004
G13  20887605.3754  -23542204.84548 -19319357.49846  20887595.7424         51.5004         40.2504
G16  22548622.9384  -13270787.70947 -10038834.88744  22548613.0704         42.2504         27.7504
G19  24639196.1884   -4588219.61546  -3543862.55343  24639185.7934         36.0004         18.5004
G20  21868624.6884  -19811565.46548 -15414579.27246  21868616.1094         49.0004         36.5004
G23  20230955.8674  -27780849.93748 -22451956.61547  20230944.4774         51.2504         42.0004
> 2010 04 04 01 09 30.0000000  0 10
G03  23015721.6724  -12051977.41946 -10538750.59744  23015714.9694         40.0004         24.5004
G04  25499554.109     -967520.724 6                                        41.000
G06  23462766.3364   -7117994.94446  -6958926.23443  23462759.2234         39.7504         21.5004
G07  22175262.9304  -16206288.82948 -14446952.45046  22175254.7624         48.0004         38.5004
G08  25090234.6564   -3559594.46846  -3239617.40643  25090229.1844         38.0004         20.2504
G13  20878044.6024  -23592446.76248 -19358507.03546  20878035.2034         51.0004         40.2504
G16  22564287.2584  -13188466.11747  -9974688.19344  22564278.4454         42.5004         28.0004
G19  24624104.1884   -4667522.10045  -3605656.65443  24624095.1994         35.5004         19.7504
G20  21885214.6884  -19724384.16548 -15346645.82046  21885206.5204         49.0004         36.5004
G23  20229039.2894  -27790921.94648 -22459804.92347  20229027.7814         52.2504         42.2504
> 2010 04 04 01 10 00.0000000  0 10
G03  23003135.9384  -12118118.57146 -10590289.09744  23003128.5904         40.5004         25.2504
G04  25508542.578     -920283.575 6                                        41.750
G06  23454558.5394   -7161127.15346  -6992535.73843  23454551.3674         38.7504         21.2504
G07  22165689.5634  -16256595.09447 -14486152.10746  22165681.5124         47.5004         38.5004
G08  25076316.0474   -3632737.14446  -3296611.60343  25076310.1644         39.7504         20.2504
G13  20868525.0944  -23642473.20348 -19397488.66546  20868515.1094         50.0004         41.0004
G16  22580021.7734  -13105781.79447  -9910258.86144  22580013.0784         43.0004         28.0004
G19  24609005.0084   -4746869.97245  -3667486.05943  24608996.3134         34.7504         21.2504
G20  21901864.4534  -19636888.58148 -15278467.47346  21901855.6994         48.5004         36.5004
G23  20227189.4924  -27800643.67348 -22467380.29747  20227177.8094         51.5004         42.7504
> 2010 04 04 01 10 30.0000000  0 10
G03  22990605.1024  -12183968.49546 -10641600.71144  22990598.1054         41.2504         26.0004
G04  25517575.602     -872813.476 6                                        40.500
G06  23446412.7504   -7203928.95246  -7025887.77643  23446406.5164         37.5004         19.7504
G07  22156154.9924  -16306699.86247 -14525194.74346  22156146.7074         47.0004         38.2504
G08  25062417.6484   -3705773.49246  -3353522.91243  25062411.7664         40.2504         22.0004
G13  20859046.4774  -23692281.87748 -19436300.60946  20859036.9614         49.2504         40.5004
G16  22595824.9694  -13022737.24047  -9845548.82644  22595815.4534         42.2504         27.5004
G19  24593897.1564   -4826259.43045  -3729347.94743  24593888.6954         34.5004         20.2504
G20  21918574.2664  -19549080.41848 -15210045.54646  21918564.9844         49.2504         36.0004
G23  20225406.3364  -27810013.15448 -22474681.18247  20225394.5354         52.0004         42.2504
> 2010 04 04 01 11 00.0000000  0 10
G03  22978130.5474  -12249523.24047 -10692682.30044  22978123.9024         42.0004         26.0004
G04  25526651.883     -825112.268 6                                        37.500
G06  23438331.5234   -7246397.12246  -7058979.79543  23438324.7034         38.7504         19.7504
G07  22146659.0234  -16356602.95547 -14564080.23146  22146650.5044         47.0004         38.7504
G08  25048540.0864   -3778703.21846  -3410351.19043  25048533.6764         41.7504         22.5004
G13  20849610.0784  -23741870.36848 -19474940.97646  20849600.8554         49.0004         40.0004
G16  22611696.1564  -12939334.49947  -9780559.68844  22611686.8164         42.0004         26.5004
G19  24578783.7584   -4905687.41545  -3791239.75242  24578773.7154         34.5004         16.7504
G20  21935342.1564  -19460962.01347 -15141381.88145  21935333.4024         47.2504         35.0004
G23  20223690.5084  -27819028.35048 -22481706.01246  20223679.0004         51.7504         41.7504
> 2010 04 04 01 11 30.0000000  0 10
G03  22965712.6254  -12314780.87546 -10743532.35644  22965705.3364         41.2504         25.5004
G04  25535772.578     -777184.129 6                                        37.000
G06  23430313.1094   -7288530.66146  -7091811.08043  23430306.3484         37.7504         19.2504
G07  22137200.6884  -16406306.10947 -14602809.92346  22137192.1684         47.0004         38.7504
G08  25034681.5784   -3851527.43646  -3467097.23543  25034674.0554         41.2504         22.7504
G13  20840216.0474  -23791238.43948 -19513409.58646  20840206.4734         49.5004         40.5004
G16  22627634.5234  -12855577.88646  -9715294.78644  22627624.9494         41.7504         26.5004
G19  24563660.8054   -4985152.13745  -3853160.22043  24563652.6374         33.7504         19.5004
G20  21952168.9534  -19372537.65747 -15072479.82345  21952160.2584         47.0004         35.5004
G23  20222042.5314  -27827689.24048 -22488454.74647  20222030.7894         51.7504         42.0004
> 2010 04 04 01 12 00.0000000  0 10
G03  22953351.3834  -12379737.31546 -10794147.72644  22953343.9184         41.0004         24.5004
G04  25544936.195     -729030.491 5                                        35.000
G06  23422359.8054   -7330326.05746  -7124378.85943  23422352.8674         38.5004         19.5004
G07  22127780.5784  -16455808.68548 -14641383.30946  22127771.7074         48.2504         39.0004
G08  25020843.2114   -3924245.12746  -3523760.26243  25020836.2154         41.2504         22.7504
G13  20830863.5314  -23840383.37948 -19551704.34346  20830854.4844         50.0004         40.7504
G16  22643639.5864  -12771468.98046  -9649755.37044  22643630.7154         41.2504         27.0004
G19  24548533.3984   -5064649.70445  -3915106.39643  24548523.9414         34.2504         18.5004
G20  21969053.5474  -19283808.91647 -15003340.57146  21969044.9694         47.0004         36.0004
G23  20220462.3754  -27835993.46348 -22494925.55547  20220450.4574         51.5004         42.2504
> 2010 04 04 01 12 30.0000000  0 11
G03  22941048.4844  -12444389.99846 -10844526.40644  22941040.9614         41.7504         26.5004
G04  25554143.148     -680654.708 5                                        35.750
G06  23414471.5394   -7371781.49346  -7156681.81243  23414464.5434         39.2504         20.7504
G07  22118398.4224  -16505111.72348 -14679801.22746  22118389.4924         49.7504         39.0004
G08  25007025.9384   -3996857.22847  -3580341.00543  25007018.4734         43.0004         22.5004
G10  25571811.125                                                          24.500
G13  20821554.4924  -23889304.10448 -19589824.37446  20821545.0944         51.0004         40.7504
G16  22659711.3284  -12687011.18846  -9583944.13944  22659702.3984         40.7504         27.0004
G19  24533399.0704   -5144178.24045  -3977076.58943  24533389.7894         35.5004         20.2504
G20  21985995.2114  -19194779.34647 -14933966.91945  21985986.7504         47.2504         35.2504
G23  20218950.3054  -27843940.02248 -22501117.67947  20218938.6214         51.7504         42.0004
> 2010 04 04 01 13 00.0000000  0 11
G03  22928804.2894  -12508735.73246 -10894665.90344  22928796.1214         40.7504         24.5004
G04  25563389.836     -632059.033 5                                        32.250
G06  23406647.5394   -7412894.25846  -7188717.68743  23406641.0704         38.5004         21.5004
G07  22109054.6564  -16554215.02848 -14718063.50946  22109045.3164         50.7504         39.0004
G08  24993228.2344   -4069363.58547  -3636839.35043  24993221.2974         42.5004         22.7504
G10  25553373.750     -341338.486 6                                        36.500
G13  20812288.6564  -23937998.25348 -19627767.85946  20812278.7304         52.0004         40.7504
G16  22675849.4534  -12602206.88247  -9517862.87844  22675840.0554         42.0004         27.7504
G19  24518260.8524   -5223733.99646  -4039068.01343  24518249.6954         36.7504         18.2504
G20  22002993.9694  -19105451.38847 -14864360.75145  22002985.0394         45.7504         34.7504
G23  20217506.3284  -27851527.17248 -22507029.73246  20217494.8794         51.2504         41.7504
> 2010 04 04 01 13 30.0000000  0 10
G03  22916618.8674  -12572767.18246 -10944560.51243  22916610.5234         40.2504         22.5004
G06  23398890.5084   -7453658.08946  -7220481.67143  23398884.0984         37.5004         20.0004
G07  22099748.9144  -16603115.34548 -14756167.61846  22099739.7504         50.2504         38.7504
G08  24979451.3444   -4141760.14547  -3693252.16043  24979443.9964         43.2504         23.0004
G10  25534976.2274    -438016.27745   -333960.44642  25534968.1764         34.0004         17.2504
G13  20803066.5474  -23986460.40548 -19665530.56646  20803056.7384         51.7504         41.0004
G16  22692052.7894  -12517055.09947  -9451510.82344  22692043.4494         42.0004         28.0004
G19  24503117.2344   -5303310.45646  -4101075.61243  24503106.4884         37.0004         20.5004
G20  22020049.5864  -19015823.70347 -14794521.02445  22020040.3634         47.5004         35.0004
G23  20216131.8284  -27858749.69048 -22512657.66447  20216120.4384         51.5004         42.0004
> 2010 04 04 01 14 00.0000000  0 10
G03  22904492.3594  -12636491.01246 -10994215.41243  22904483.3714         40.2504         22.2504
G06  23391199.0164   -7494079.96146  -7251979.16343  23391191.8444         37.5004         21.7504
G07  22090480.0704  -16651822.35148 -14794121.08046  22090471.1414         50.7504         38.7504
G08  24965694.0004   -4214056.06747  -3749586.49844  24965687.2384         43.0004         24.5004
G10  25516619.9224    -534487.57046   -409132.85942  25516610.6414         36.5004         17.2504
G13  20793886.9774  -24034698.05648 -19703118.33346  20793877.8134         51.5004         40.7504
G16  22708320.8834  -12431567.57246  -9384897.16744  22708311.4264         41.2504         25.5004
G19  24487969.8754   -5382913.81146  -4163104.13543  24487958.6604         38.0004         20.2504
G20  22037160.0474  -18925908.39047 -14724457.15745  22037151.1764         47.7504         34.5004
G23  20214825.7504  -27865615.42448 -22518007.57847  20214813.9494         51.5004         42.0004
> 2010 04 04 01 14 30.0000000  0 10
G03  22892426.2814  -12699897.82546 -11043623.28843  22892417.6454         40.0004         22.0004
G06  23383573.2034   -7534151.84446  -7283203.98443  23383567.6134         38.2504         21.5004
G07  22081249.3984  -16700330.83948 -14831919.87846  22081240.6454         50.7504         39.5004
G08  24951956.2814   -4286246.60447  -3805838.76243  24951949.9304         43.7504         22.5004
G10  25498301.5864    -630744.88146   -484138.52143  25498293.1254         39.2504         18.2504
G13  20784751.8914  -24082703.93548 -19740525.50546  20784742.4344         51.5004         41.0004
G16  22724652.8674  -12345741.65646  -9318019.87044  22724643.8794         41.5004         29.0004
G19  24472818.3754   -5462535.36146  -4225146.89543  24472807.8054         37.0004         21.2504
G20  22054325.4454  -18835702.77948 -14654167.11145  22054316.9264         48.0004         35.2504
G23  20213588.3444  -27872117.08648 -22523073.80347  20213576.6024         51.5004         42.0004
> 2010 04 04 01 15 00.0000000  0 10
G03  22880419.7344  -12762985.69646 -11092782.60743  22880411.7424         39.0004         20.7504
G06  23376014.1414   -7573871.81946  -7314154.56743  23376008.9614         38.7504         20.7504
G07  22072056.2504  -16748641.24148 -14869564.30646  22072047.1454         50.5004         38.7504
G08  24938238.7344   -4358331.39047  -3862008.62043  24938233.1454         44.0004         22.5004
G10  25480025.8914    -726786.98846   -558976.48243  25480017.7814         39.0004         20.5004
G13  20775661.3984  -24130476.35248 -19777750.75046  20775651.7074         52.5004         41.7504
G16  22741049.0704  -12259580.67347  -9250881.43544  22741039.6134         42.2504         28.0004
G19  24457662.5084   -5542173.04645  -4287202.12143  24457654.0474         35.7504         22.0004
G20  22071545.6024  -18745210.09348 -14583653.35845  22071536.8484         48.2504         35.5004
G23  20212420.0784  -27878254.34548 -22527856.06946  20212408.9224         52.0004         41.5004
> 2010 04 04 01 15 30.0000000  0 10
G03  22868476.2034  -12825750.93846 -11141690.54843  22868467.9184         39.0004         21.5004
G06  23368523.8674   -7613237.31346  -7344828.93343  23368518.1024         38.2504         21.5004
G07  22062900.9144  -16796754.19048 -14907054.89546  22062891.9844         51.2504         39.2504
G08  24924541.5314   -4430310.80847  -3918096.39043  24924535.7074         42.7504         22.7504
G10  25461791.0474    -822610.87546   -633644.45143  25461783.5234         41.2504         20.2504
G13  20766614.9844  -24178013.77348 -19814792.88946  20766605.2934         52.5004         41.0004
G16  22757508.4304  -12173087.37846  -9183484.07744  22757498.4454         41.0004         25.5004
G19  24442505.9534   -5621823.94246  -4349267.72043  24442496.9064         37.5004         20.0004
G20  22088820.2584  -18654433.32147 -14512918.24345  22088811.0354         47.5004         35.5004
G23  20211322.2344  -27884025.53748 -22532353.09846  20211310.9614         50.7504         41.5004
> 2010 04 04 01 16 00.0000000  0 10
G03  22856594.7194  -12888190.07746 -11190344.38543  22856586.4924         38.5004         22.0004
G06  23361100.7734   -7652245.33446  -7375224.77443  23361094.3054         39.2504         21.0004
G07  22053782.7274  -16844668.99348 -14944391.07346  22053773.4454         50.5004         38.2504
G08  24910864.8754   -4502184.26147  -3974101.58843  24910858.1724         42.5004         22.7504
G10  25443598.0164    -918213.72046   -708140.14243  25443590.1414         37.7504         21.2504
G13  20757614.2504  -24225313.31848 -19851649.66046  20757604.3244         52.5004         40.7504
G16  22774029.6414  -12086263.28846  -9115828.96944  22774020.8874         40.0004         26.5004
G19  24427348.2194   -5701483.71646  -4411340.19643  24427338.9384         39.0004         22.5004
G20  22106147.9224  -18563373.85247 -14441962.84245  22106139.2854         47.0004         34.7504
G23  20210293.8444  -27889427.87348 -22536562.70747  20210282.3954         51.2504         42.0004
> 2010 04 04 01 16 30.0000000  0 10
G03  22844776.1174  -12950300.98846 -11238742.44343  22844767.0704         39.5004         22.2504
G06  23353745.1884   -7690894.47546  -7405340.94843  23353739.5984         38.7504         21.5004
G07  22044702.1484  -16892387.56548 -14981574.34146  22044693.1604         51.0004         39.0004
G08  24897207.0314   -4573952.66347  -4030024.92143  24897200.9144         43.0004         22.0004
G10  25425448.5394   -1013594.25846   -782462.63943  25425439.6094         38.0004         19.7504
G13  20748658.7034  -24272374.48048 -19888320.68346  20748649.0124         52.7504         41.0004
G16  22790614.3054  -11999112.38946  -9047919.18244  22790605.5514         40.5004         27.0004
G19  24412188.6254   -5781150.88046  -4473418.44343  24412178.1134         40.2504         22.7504
G20  22123529.3914  -18472035.85648 -14370790.39945  22123520.4614         48.0004         34.5004
G23  20209335.8204  -27894461.56048 -22540485.05647  20209324.2544         48.5004         42.2504
> 2010 04 04 01 17 00.0000000  0 11
G03  22833019.3594  -13012081.70246 -11286883.24343  22833010.1374         38.5004         22.5004
G04  25638815.9774    -137394.28346   -413075.60143  25638807.9264         36.5004         19.7504
G06  23346458.3284   -7729183.45746  -7435176.48543  23346453.1484         36.5004         20.7504
G07  22035658.9304  -16939910.95448 -15018605.51646  22035649.3554         50.7504         38.7504
G08  24883569.3134   -4645617.40846  -4085867.49543  24883562.7274         41.0004         19.7504
G10  25407339.9614   -1108750.21946   -856610.13943  25407332.1454         37.0004         19.2504
G13  20739748.7894  -24319196.49748 -19924805.36546  20739739.0984         52.0004         41.0004
G16  22807260.1414  -11911638.56146  -8979757.76244  22807251.0944         41.5004         28.2504
G19  24397026.8364   -5860823.39646  -4535500.86643  24397017.3204         39.5004         22.0004
G20  22140962.4144  -18380423.24347 -14299403.97945  22140953.1914         46.2504         34.5004
G23  20208448.3284  -27899126.08348 -22544119.74546  20208436.7624         50.0004         41.7504
> 2010 04 04 01 17 30.0000000  0 11
G03  22821326.9144  -13073525.64746 -11334761.60643  22821317.5744         39.0004         22.5004
G04  25648417.6094     -86939.14146   -373759.98143  25648410.5554         37.2504         20.0004
G06  23339242.1484   -7767107.13546  -7464727.34443  23339236.6764         37.2504         21.5004
G07  22026652.9304  -16987236.61048 -15055482.61846  22026643.4144         48.7504         39.0004
G08  24869953.1094   -4717175.17546  -4141626.71143  24869945.4104         41.5004         20.0004
G10  25389276.2664   -1203676.23745   -930578.37143  25389267.6294         34.5004         18.2504
G13  20730885.1884  -24365774.26748 -19961099.71346  20730875.5554         51.7504         41.2504
G16  22823966.7814  -11823841.76646  -8911344.69544  22823957.9104         40.5004         27.0004
G19  24381864.8754   -5940495.16046  -4597582.68443  24381856.7664         39.7504         21.7504
G20  22158448.1884  -18288535.73247 -14227803.34545  22158439.2584         47.5004         34.5004
G23  20207631.8204  -27903417.18248 -22547463.46146  20207620.3134         51.5004         41.5004
> 2010 04 04 01 18 00.0000000  0 11
G03  22809699.4304  -13134632.05046 -11382376.94643  22809690.2664         39.7504         23.7504
G04  25658054.9844     -36290.71746   -334293.72443  25658049.3364         36.5004         21.2504
G06  23332095.5084   -7804664.71046  -7493992.92943  23332089.8014         38.5004         22.7504
G07  22017684.0944  -17034366.72447 -15092207.36046  22017675.1644         47.2504         38.7504
G08  24856356.4064   -4788628.14346  -4197304.32243  24856347.2424         41.0004         19.0004
G10  25371257.3444   -1298371.22846  -1004366.68543  25371248.1804         36.0004         19.0004
G13  20722068.3364  -24412108.13548 -19997204.01746  20722058.3524         49.5004         41.2504
G16  22840735.2344  -11735726.44046  -8842683.42144  22840725.4844         39.0004         26.0004
G19  24366704.0634   -6020165.24546  -4659663.20543  24366695.4844         39.7504         21.7504
G20  22175985.2504  -18196378.02847 -14155992.15745  22175976.2624         47.2504         34.5004
G23  20206886.4064  -27907335.11048 -22550516.38946  20206874.8984         51.5004         41.5004
> 2010 04 04 01 18 30.0000000  0 11
G03  22798135.6954  -13195397.62446 -11429726.69243  22798126.8834         39.0004         22.7504
G04  25667728.1414      14548.26546   -294679.04543  25667723.6054         36.5004         21.0004
G06  23325019.4614   -7841854.25446  -7522971.77943  23325012.5824         37.5004         22.0004
G07  22008752.6804  -17081301.86847 -15128780.14946  22008743.5744         47.5004         38.0004
G08  24842778.2114   -4859976.37846  -4252900.27643  24842771.8594         41.0004         19.7504
G10  25353281.2664   -1392833.19046  -1077973.32742  25353272.9804         36.0004         17.2504
G13  20713297.8204  -24458196.25148 -20033116.82246  20713288.5984         49.2504         40.2504
G16  22857562.6644  -11647295.48346  -8773776.17344  22857553.5004         40.0004         27.5004
G19  24351545.1174   -6099830.68046  -4721740.09743  24351534.8984         40.0004         22.2504
G20  22193573.0704  -18103952.81047 -14083972.53945  22193564.1994         47.0004         33.7504
G23  20206212.0394  -27910878.54448 -22553277.50446  20206200.6484         51.2504         40.7504
> 2010 04 04 01 19 00.0000000  0 11
G03  22786637.7114  -13255819.62946 -11476808.72843  22786628.7814         39.7504         22.5004
G04  25677438.1024      65575.32246   -254917.79243  25677433.6254         37.2504         21.5004
G06  23318010.8134   -7878673.39246  -7551661.97443  23318006.3954         36.5004         21.2504
G07  21999858.5314  -17128042.27647 -15165201.22846  21999849.6024         47.5004         38.7504
G08  24829221.4614   -4931219.71347  -4308414.51243  24829214.1134         42.0004         19.7504
G10  25335350.9224   -1487059.36645  -1151396.34543  25335342.0514         35.2504         18.2504
G13  20704574.6724  -24504036.75248 -20068836.68946  20704565.0394         49.5004         41.2504
G16  22874450.7424  -11558551.42846  -8704624.96644  22874441.2274         40.7504         28.0004
G19  24336385.6804   -6179488.35246  -4783810.95943  24336376.1054         39.0004         20.2504
G20  22211211.5944  -18011263.06347 -14011746.80445  22211202.6644         47.0004         35.0004
G23  20205609.3134  -27914046.06648 -22555745.70947  20205597.6294         49.2504         42.0004
> 2010 04 04 01 19 30.0000000  0 11
G03  22775205.4924  -13315894.33446 -11523620.12843  22775197.9694         39.7504         23.0004
G04  25687184.4534     116788.14946   -215011.76343  25687178.8634         39.0004         20.5004
G06  23311076.4144   -7915119.27846  -7580061.30443  23311070.9414         36.5004         20.5004
G07  21991001.0474  -17174587.80547 -15201470.42946  21990992.0594         47.7504         38.7504
G08  24815684.3134   -5002358.45446  -4363847.25743  24815678.4304         40.5004         21.2504
G10  25317464.5394   -1581047.11945  -1224633.52843  25317456.6644         35.0004         18.5004
G13  20695899.1484  -24549627.32448 -20104361.79346  20695889.9264         49.7504         40.7504
G16  22891396.7274  -11469496.54846  -8635231.55744  22891388.1484         40.0004         27.2504
G19  24321229.2584   -6259134.75846  -4845872.99843  24321217.6914         38.2504         19.2504
G20  22228900.0234  -17918311.10948 -13939316.73145  22228890.7424         48.2504         34.5004
G23  20205078.5314  -27916836.12448 -22557919.78446  20205066.9654         51.7504         41.7504
> 2010 04 04 01 20 00.0000000  0 11
G03  22763840.5704  -13375619.22346 -11570158.97544  22763832.3444         40.7504         25.5004
G04  25696965.3364     168183.83446   -174963.22443  25696959.6294         40.7504         22.7504
G06  23304211.5704   -7951190.06546  -7608168.36443  23304206.4494         36.5004         22.0004
G07  21982180.3984  -17220939.24548 -15237588.40546  21982171.7034         50.5004         39.5004
G08  24802166.2974   -5073392.34546  -4419198.26943  24802160.8834         40.7504         21.5004
G10  25299625.0474   -1674793.98745  -1297683.05643  25299616.7034         34.2504         19.0004
G13  20687271.3524  -24594966.36548 -20139690.91346  20687261.7194         52.5004         41.0004
G16  22908402.0554  -11380134.24446  -8565598.63644  22908392.8914         39.7504         28.2504
G19  24306076.5164   -6338766.92846  -4907923.97243  24306063.4804         40.0004         18.5004
G20  22246637.2974  -17825100.15248 -13866684.86145  22246628.1334         48.0004         34.7504
G23  20204619.4694  -27919247.64048 -22559798.89847  20204608.0784         48.5004         42.2504
> 2010 04 04 01 20 30.0000000  0 11
G03  22752542.4614  -13434991.71246 -11616423.20844  22752534.2344         39.7504         24.5004
G04  25706779.3364     219759.58446   -134774.43043  25706774.5084         39.7504         22.7504
G06  23297420.4924   -7986883.79146  -7635981.59643  23297414.2584         36.5004         22.2504
G07  21973397.2034  -17267097.28848 -15273555.66946  21973388.0984         50.7504         39.0004
G08  24788668.9534   -5144322.28546  -4474468.27343  24788663.0704         40.5004         20.0004
G10  25281832.7034   -1768297.65745  -1370543.03342  25281823.2464         34.5004         17.2504
G13  20678691.5314  -24640052.29948 -20174822.79846  20678682.0744         52.0004         40.7504
G16  22925465.2974  -11290467.30846  -8495728.28244  22925455.4304         41.7504         27.0004
G19  24290926.1564   -6418382.39946  -4969961.95343  24290914.8244         39.5004         20.0004
G20  22264423.3364  -17731633.02148 -13793853.36645  22264414.6994         48.0004         34.5004
G23  20204233.0004  -27921279.24648 -22561381.97247  20204221.3164         51.7504         42.0004
> 2010 04 04 01 21 00.0000000  0 11
G03  22741312.4534  -13494008.78146 -11662410.49244  22741304.3444         38.2504         25.2504
G04  25716627.3364     271512.46546    -94447.55843  25716622.2154         40.5004         22.7504
G06  23290700.4384   -8022198.14046  -7663499.23843  23290693.5004         38.0004         21.2504
G07  21964650.2114  -17313062.27647 -15309372.49646  21964641.5744         47.5004         38.5004
G08  24775191.3054   -5215148.30946  -4529657.30843  24775185.0124         40.5004         21.0004
G10  25264086.1334   -1861555.40846  -1443211.36543  25264077.0864         37.5004         18.5004
G13  20670160.9454  -24684883.48948 -20209756.18346  20670151.1954         49.2504         40.2504
G16  22942586.8984  -11200498.61246  -8425622.81144  22942576.3874         40.5004         26.0004
G19  24275779.8284   -6497978.32646  -5031984.66843  24275769.3164         40.5004         21.7504
G20  22282258.2274  -17637912.52548 -13720824.43045  22282249.2974         48.0004         34.7504
G23  20203918.8134  -27922929.89548 -22562668.18846  20203907.2464         48.5004         41.5004
> 2010 04 04 01 21 30.0000000  0 11
G03  22730149.0164  -13552666.89446 -11708118.08344  22730141.7274         37.7504         24.7504
G04  25726509.2814     323440.13446    -53984.52543  25726503.7504         38.2504         21.5004
G06  23284053.0004   -8057130.93546  -7690719.57943  23284046.2384         37.7504         22.0004
G07  21955939.9304  -17358834.31847 -15345038.98946  21955931.2344         47.5004         39.0004
G08  24761733.8754   -5285870.31446  -4584765.29543  24761727.2894         41.5004         21.5004
G10  25246387.1094   -1954564.71045  -1515686.09942  25246377.4774         35.2504         17.7504
G13  20661678.6724  -24729457.73848 -20244489.35246  20661668.9224         49.5004         41.0004
G16  22959763.5864  -11110230.78146  -8355284.24544  22959754.0124         40.5004         27.0004
G19  24260637.2974   -6577551.15646  -5093989.40943  24260627.7234         40.0004         21.2504
G20  22300139.9454  -17543941.49048 -13647600.29445  22300131.3674         48.0004         34.7504
G23  20203677.5704  -27924197.89548 -22563656.24546  20203665.9454         48.5004         41.2504
> 2010 04 04 01 22 00.0000000  0 11
G03  22719055.9064  -13610962.67046 -11753543.31044  22719048.2664         39.0004         24.0004
G04  25736423.9694     375539.92046    -13387.37043  25736418.6134         40.0004         22.7504
G06  23277478.7504   -8091679.38246  -7717640.42643  23277471.8134         37.2504         22.5004
G07  21947266.5784  -17404413.77548 -15380555.41646  21947257.8244         49.0004         39.0004
G08  24748294.5864   -5356487.93646  -4639791.94643  24748288.8794         41.0004         22.0004
G10  25228735.7974   -2047322.79445  -1587965.05842  25228727.1024         35.0004         16.7504
G13  20653245.7034  -24773772.99148 -20279020.72446  20653235.7774         51.2504         41.7504
G16  22976996.6884  -11019666.16446  -8284714.42744  22976987.2894         39.7504         25.0004
G19  24245499.7344   -6657097.96346  -5155973.85443  24245489.6914         39.2504         22.2504
G20  22318069.0394  -17449722.55348 -13574182.97345  22318060.6374         48.0004         35.5004
G23  20203509.2894  -27925081.87648 -22564345.06447  20203497.4304         50.0004         42.0004
> 2010 04 04 01 22 30.0000000  0 11
G03  22708031.3054  -13668893.70546 -11798684.34044  22708024.3094         38.7504         25.5004
G04  25746370.6884     427809.42546     27342.05343  25746364.0434         41.5004         23.7504
G06  23270977.7814   -8125841.76046  -7744260.39643  23270970.9024         36.2504         21.0004
G07  21938629.9064  -17449801.02847 -15415922.07946  21938620.5664         47.7504         39.5004
G08  24734875.2664   -5427002.07046  -4694737.96543  24734870.6134         40.5004         22.5004
G10  25211132.5864   -2139826.95245  -1660046.19142  25211124.0664         35.2504         17.2504
G13  20644862.5704  -24817827.63948 -20313349.00746  20644852.7034         49.0004         41.2504
G16  22994287.3984  -10928808.14946  -8213916.00744  22994276.9454         39.7504         25.7504
G19  24230367.0704   -6736615.78146  -5217935.69443  24230357.7894         38.7504         22.0004
G20  22336045.3834  -17355258.90947 -13500574.97445  22336036.3954         47.0004         34.5004
G23  20203414.4224  -27925580.55348 -22564733.65046  20203402.8554         48.5004         41.5004
> 2010 04 04 01 23 00.0000000  0 11
G03  22697077.3674  -13726456.40246 -11843538.34543  22697070.7814         37.5004         23.7504
G04  25756348.9534     480246.00647     68201.64544  25756343.8324         43.5004         27.5004
G06  23264551.3444   -8159615.45546  -7770577.52543  23264543.5864         37.7504         21.5004
G07  21930029.3754  -17494996.09748 -15451138.99446  21930020.6214         50.5004         39.0004
G08  24721477.1724   -5497411.87846  -4749602.63244  24721472.6374         41.2504         24.0004
G10  25193577.9844   -2232074.79545  -1731927.61242  25193570.0514         35.7504         17.7504
G13  20636529.0864  -24861619.39148 -20347472.43846  20636519.4534         53.0004         41.5004
G16  23011631.9384  -10837658.80846  -8142890.54244  23011621.8954         39.7504         27.2504
G19  24215241.0704   -6816101.10246  -5279872.24043  24215231.8484         39.0004         20.7504
G20  22354067.5004  -17260552.95947 -13426778.15845  22354058.1604         47.0004         34.0004
G23  20203393.2114  -27925692.30148 -22564820.71647  20203381.7624         48.2504         42.0004
> 2010 04 04 01 23 30.0000000  0 11
G03  22686194.0164  -13783648.78846 -11888103.79644  22686188.1914         39.0004         25.2504
G04  25766358.1024     532846.32746    109188.83443  25766352.6294         40.5004         21.0004
G06  23258197.8834   -8192999.02846  -7796590.66743  23258191.0044         37.0004         21.5004
G07  21921465.1724  -17540000.10047 -15486207.00846  21921456.5944         47.5004         39.0004
G08  24708098.3674   -5567718.29746  -4804386.73644  24708094.0084         41.5004         25.5004
G10  25176073.4384   -2324064.11745  -1803607.61542  25176064.7424         35.7504         16.7504
G13  20628246.0704  -24905147.08548 -20381390.11546  20628236.5554         49.2504         41.2504
G16  23029031.6884  -10746221.26946  -8071640.49944  23029022.1134         38.7504         26.0004
G19  24200122.1024   -6895551.43646  -5341781.53743  24200112.0594         38.7504         20.5004
G20  22372134.2664  -17165607.90547 -13352795.01745  22372126.3324         47.2504         34.7504
G23  20203445.2664  -27925416.43848 -22564605.76246  20203434.1094         48.0004         41.7504
> 2010 04 04 01 24 00.0000000  0 11
G03  22675381.1174  -13840468.24646 -11932378.66244  22675375.1764         38.0004         24.5004
G04  25776398.7814     585607.45946    150301.31543  25776393.0164         39.2504         19.5004
G06  23251920.4614   -8225990.66846  -7822298.37543  23251913.4064         36.2504         22.5004
G07  21912937.8674  -17584814.00048 -15521126.89746  21912929.0554         50.7504         39.5004
G08  24694739.6094   -5637922.13747  -4859090.94443  24694734.4304         43.0004         23.2504
G10  25158618.8834   -2415792.82845  -1875084.43242  25158609.7194         35.5004         16.7504
G13  20620013.4454  -24948409.41048 -20415101.00546  20620004.2234         52.2504         41.2504
G16  23046485.6884  -10654499.42446  -8000168.95344  23046476.9344         39.5004         25.5004
G19  24185010.5554   -6974964.31146  -5403661.59643  24185000.5124         38.0004         22.5004
G20  22390247.2114  -17070427.30947 -13278628.35045  22390238.3984         47.0004         34.0004
G23  20203571.9844  -27924752.35148 -22564088.29446  20203560.7114         49.2504         41.2504
> 2010 04 04 01 24 30.0000000  0 11
G03  22664640.1724  -13896911.39646 -11976360.28744  22664633.7624         38.0004         24.7504
G04  25786468.8834     638527.58346    191537.68243  25786463.5864         39.2504         21.2504
G06  23245717.5314   -8258587.79046  -7847698.69143  23245710.6524         37.5004         22.5004
G07  21904445.7194  -17629437.53348 -15555898.45346  21904437.3164         51.2504         40.0004
G08  24681399.7424   -5708022.68747  -4913714.64944  24681394.3284         42.0004         27.0004
G10  25141213.0004   -2507257.62145  -1946355.72342  25141204.0124         34.2504         16.7504
G13  20611831.9224  -24991403.98248 -20448603.26746  20611822.0554         52.2504         41.5004
G16  23063994.5234  -10562495.26246  -7928477.43744  23063984.7734         40.0004         27.5004
G19  24169907.7504   -7054335.94846  -5465509.56043  24169896.8284         39.7504         21.5004
G20  22408403.7274  -16975013.30847 -13204279.82645  22408395.0904         47.7504         35.0004
G23  20203772.9774  -27923697.99048 -22563266.71747  20203761.1764         48.2504         42.0004
> 2010 04 04 01 25 00.0000000  0 11
G03  22653972.0704  -13952974.58046 -12020045.82344  22653964.4304         38.7504         24.5004
G04  25796568.6804     691604.00146    232895.79443  25796564.3204         41.7504         23.5004
G06  23239588.3674   -8290787.94146  -7872789.66343  23239583.1294         36.2504         22.0004
G07  21895990.7504  -17673870.74948 -15590521.69946  21895982.1724         51.0004         39.5004
G08  24668079.8754   -5778019.96347  -4968257.87044  24668073.8164         43.2504         26.5004
G10  25123858.5004   -2598455.89345  -2017419.26142  25123849.2774         34.2504         14.7504
G13  20603701.4774  -25034128.43148 -20481895.02546  20603692.3134         53.0004         41.7504
G16  23081555.3364  -10470210.82646  -7856567.49444  23081545.7034         40.0004         28.0004
G19  24154811.5084   -7133663.14346  -5527322.90643  24154800.9964         39.7504         22.0004
G20  22426604.6804  -16879368.48947 -13129751.42245  22426595.6334         47.5004         34.7504
G23  20204047.8364  -27922251.62048 -22562139.66846  20204036.3874         48.0004         41.0004
> 2010 04 04 01 25 30.0000000  0 11
G03  22643375.9064  -14008655.43046 -12063433.45643  22643369.0864         37.5004         23.7504
G04  25806698.6414     744833.49646    274373.25043  25806693.2274         40.2504         21.0004
G06  23233537.2734   -8322589.49646  -7897570.03843  23233531.2734         37.0004         22.0004
G07  21887571.3054  -17718114.53648 -15624997.34946  21887562.9614         51.2504         39.7504
G08  24654779.0944   -5847914.63547  -5022721.16544  24654773.8554         42.5004         27.5004
G10  25106555.9534   -2689385.17545  -2088273.27942  25106546.6134         35.7504         16.2504
G13  20595623.0944  -25076581.45348 -20514975.29946  20595613.8714         53.0004         41.5004
G16  23099169.3674  -10377649.56746  -7784441.84544  23099159.4414         39.0004         26.2504
G19  24139724.1644   -7212943.12446  -5589099.46043  24139714.1214         38.2504         21.5004
G20  22444848.3674  -16783496.23448 -13055045.80845  22444839.3204         48.0004         33.2504
G23  20204397.7734  -27920412.58448 -22560706.65146  20204386.2074         51.0004         41.5004
> 2010 04 04 01 26 00.0000000  0 11
G03  22632853.9774  -14063951.46046 -12106521.23144  22632847.5084         37.5004         25.5004
G04  25816856.2974     798213.14146    315967.72843  25816851.3524         38.5004         22.0004
G06  23227562.8754   -8353990.61245  -7922038.39043  23227555.4104         35.7504         22.5004
G07  21879187.3674  -17762169.75148 -15659326.06246  21879179.0824         51.0004         39.5004
G08  24641497.4304   -5917707.25847  -5077104.91844  24641492.7774         43.0004         27.5004
G10  25089303.9924   -2780043.52446  -2158916.17342  25089295.0634         37.0004         15.5004
G13  20587596.1094  -25118761.55448 -20547842.90646  20587587.1214         52.2504         41.7504
G16  23116835.3984  -10284814.79446  -7712103.07544  23116825.4734         38.5004         25.2504
G19  24124648.8914   -7292173.25246  -5650837.11243  24124637.7934         40.2504         22.2504
G20  22463134.5084  -16687399.60947 -12980165.34445  22463126.2234         47.7504         33.5004
G23  20204822.4144  -27918180.26048 -22558967.17446  20204811.0824         48.0004         41.5004
> 2010 04 04 01 26 30.0000000  0 11
G03  22622405.5784  -14118859.61746 -12149306.75844  22622398.1724         38.2504         26.0004
G04  25827041.8914     851740.72746    357677.41243  25827037.8244         39.0004         21.0004
G06  23221663.5314   -8384988.99846  -7946192.93543  23221656.7114         37.0004         22.0004
G07  21870840.0164  -17806036.36248 -15693507.80446  21870831.4384         50.7504         39.5004
G08  24628236.1254   -5987397.42947  -5131408.82644  24628231.2974         43.2504         26.2504
G10  25072103.7424   -2870427.96546  -2229345.60042  25072095.3984         36.0004         16.7504
G13  20579622.0394  -25160666.53948 -20580496.12446  20579612.7584         52.2504         41.5004
G16  23134552.4224  -10191708.84246  -7639553.01144  23134542.9064         39.5004         26.5004
G19  24109583.0084   -7371350.19347  -5712533.38844  24109571.4414         42.5004         25.2504
G20  22481464.0084  -16591081.29048 -12905112.13945  22481454.7274         48.0004         33.7504
G23  20205322.2894  -27915552.80548 -22556919.81246  20205311.1334         48.7504         41.5004
> 2010 04 04 01 27 00.0000000  0 11
G03  22612031.0704  -14173376.23446 -12191787.18444  22612023.7234         38.7504         26.0004
G04  25837257.1804     905414.06746    399500.72043  25837251.4144         39.0004         20.7504
G06  23215841.9924   -8415581.89546  -7970031.50443  23215834.6454         37.2504         22.7504
G07  21862528.3204  -17849714.19848 -15727542.44946  21862519.4494         51.5004         39.7504
G08  24614994.1254   -6056984.93947  -5185632.74244  24614988.5354         43.7504         27.5004
G10  25054956.7194   -2960535.28846  -2299559.12942  25054948.9024         36.5004         16.7504
G13  20571700.9384  -25202294.06648 -20612933.14746  20571691.3634         53.0004         41.5004
G16  23152321.4534  -10098333.94846  -7566793.35344  23152312.0554         39.5004         27.0004
G19  24094526.3754   -7450470.07847  -5774185.20244  24094516.2154         42.0004         24.2504
G20  22499834.4064  -16494543.63948 -12829888.02045  22499825.9454         48.0004         34.0004
G23  20205897.8984  -27912528.34848 -22554563.08746  20205886.1564         48.2504         41.7504
> 2010 04 04 01 27 30.0000000  0 11
G03  22601732.3524  -14227498.95346 -12233960.69744  22601724.3594         40.2504         25.5004
G04  25847497.3364     959229.82947    441434.99643  25847491.2194         42.0004         21.2504
G06  23210097.5634   -8445767.83546  -7993552.98943  23210090.6254         37.7504         21.7504
G07  21854252.5234  -17893204.08148 -15761430.64246  21854243.6524         51.0004         39.7504
G08  24601771.0394   -6126470.44947  -5239777.22144  24601766.1524         42.5004         27.7504
G10  25037861.7114   -3050363.45445  -2369555.14142  25037855.6524         35.7504         17.2504
G13  20563832.3364  -25243642.48848 -20645152.68047  20563823.0554         52.5004         42.2504
G16  23170140.1724  -10004693.13646  -7493826.49344  23170130.7154         38.0004         26.2504
G19  24079481.2034   -7529530.21846  -5835790.48044  24079471.2774         40.7504         25.0004
G20  22518245.8134  -16397789.62048 -12754495.30545  22518237.1174         48.0004         33.0004
G23  20206549.2424  -27909106.13148 -22551896.42547  20206537.8524         51.7504         42.5004
> 2010 04 04 01 28 00.0000000  0 11
G03  22591509.4144  -14281224.34446 -12275824.59344  22591500.8954         41.0004         25.5004
G04  25857765.1174    1013186.05647    483478.65043  25857758.8244         42.5004         22.2504
G06  23204430.4454   -8475544.06546  -8016755.17344  23204424.6804         36.0004         24.5004
G07  21846012.3204  -17936505.79748 -15795172.20646  21846004.0944         51.5004         40.0004
G08  24588568.5634   -6195853.33947  -5293841.72944  24588563.0904         43.0004         27.0004
G10  25020821.8984   -3139909.31746  -2439331.11742  25020815.7234         36.0004         17.7504
G13  20556017.4774  -25284709.37948 -20677152.84147  20556007.7854         52.2504         42.0004
G16  23188009.5084   -9910788.65746  -7420654.22744  23188000.2854         38.5004         24.2504
G19  24064447.8834   -7608526.90646  -5897346.26544  24064439.0124         40.2504         24.5004
G20  22536698.1954  -16300821.80947 -12678936.00045  22536689.9104         47.5004         33.0004
G23  20207276.5004  -27905284.89848 -22548918.84647  20207264.9344         51.2504         42.0004
> 2010 04 04 01 28 30.0000000  0 11
G03  22581360.8444  -14334550.38846 -12317377.29644  22581353.2034         40.5004         24.2504
G04  25868058.8364    1067279.41946    525629.27042  25868052.7194         38.0004         16.7504
G06  23198843.8754   -8504909.79845  -8039637.47743  23198836.7624         35.0004         22.5004
G07  21837807.7894  -17979620.41948 -15828767.97746  21837798.9184         51.2504         40.0004
G08  24575385.2034   -6265135.09547  -5347827.41444  24575378.4414         42.2504         27.0004
G10  25003836.0634   -3229171.67546  -2508886.18143  25003830.0634         36.0004         19.5004
G13  20548256.9384  -25325493.83648 -20708932.91646  20548247.0704         51.7504         41.7504
G16  23205927.9844   -9816624.10746  -7347279.24144  23205918.9384         38.5004         24.2504
G19  24049426.4304   -7687458.37846  -5958851.22143  24049418.6724         38.2504         22.2504
G20  22555190.3284  -16203643.71647 -12603212.84645  22555182.1604         46.7504         32.5004
G23  20208079.5474  -27901063.84848 -22545629.70446  20208068.3324         51.0004         41.5004
> 2010 04 04 01 29 00.0000000  0 11
G03  22571290.8524  -14387474.48946 -12358616.81644  22571281.8634         41.7504         25.7504
G04  25878379.406                                                          27.500
G06  23193333.5634   -8533862.99146  -8062198.36743  23193326.9184         36.0004         22.5004
G07  21829638.8524  -18022549.09548 -15862218.86046  21829630.2154         51.7504         40.5004
G08  24562219.7584   -6334315.66047  -5401734.28444  24562213.1724         42.5004         26.0004
G10  24986905.4304   -3318147.66545  -2578218.09443  24986898.1414         35.5004         18.2504
G13  20540549.7664  -25365994.06248 -20740491.53347  20540540.3674         53.5004         42.2504
G16  23223896.3134   -9722202.90446  -7273704.28344  23223886.6804         39.7504         26.0004
G19  24034419.2274   -7766321.70146  -6020303.07544  24034411.9384         38.0004         24.2504
G20  22573722.4384  -16106258.75547 -12527328.49345  22573714.0354         47.2504         33.0004
G23  20208959.1644  -27896441.87948 -22542028.17847  20208947.5394         48.7504         42.5004
> 2010 04 04 01 29 30.0000000  0 10
G03  22561296.1094  -14439993.05346 -12399540.32544  22561288.0004         41.2504         25.2504
G06  23187903.4304   -8562400.71946  -8084435.50744  23187895.9654         38.0004         24.2504
G07  21821505.1484  -18065291.31348 -15895524.44046  21821496.8054         51.5004         39.7504
G08  24549074.2344   -6403394.42246  -5455561.78744  24549068.8794         39.0004         25.0004
G10  24970028.8754   -3406833.78745  -2647324.09743  24970021.9964         33.5004         19.5004
G13  20532897.4694  -25406207.45148 -20771826.62047  20532888.3054         51.7504         42.2504
G16  23241913.0944   -9627526.53146  -7199930.47744  23241903.6374         39.0004         25.2504
G19  24019425.7814   -7845112.46846  -6081698.39943  24019418.2584         38.5004         22.0004
G20  22592293.1094  -16008668.56247 -12451284.21145  22592284.9414         47.2504         32.2504
G23  20209915.4774  -27891416.92148 -22538112.62246  20209904.0274         48.0004         41.2504
> 2010 04 04 01 30 00.0000000  0 10
G03  22551379.9064  -14492104.03946 -12440146.25244  22551371.6214         41.5004         24.7504
G06  23182551.8284   -8590521.79646  -8106348.00443  23182544.5394         37.5004         22.2504
G07  21813406.8204  -18107847.96348 -15928685.43046  21813398.1254         51.5004         39.7504
G08  24535949.0084   -6472372.54346  -5509310.91144  24535941.7194         41.2504         25.7504
G10  24953207.5704   -3495228.52945  -2716203.08943  24953200.5744         34.5004         19.7504
G13  20525299.7034  -25446132.97548 -20802937.41446  20525290.0124         52.2504         41.7504
G16  23259976.6414   -9532598.53746  -7125960.64944  23259967.4774         38.5004         25.5004
G19  24004447.8984   -7923828.17946  -6143035.22343  24004438.0314         39.2504         22.2504
G20  22610902.5164  -15910877.07647 -12375083.09745  22610894.2304         47.0004         33.5004
G23  20210948.4694  -27885988.58348 -22533882.75446  20210936.9614         48.0004         41.2504
> 2010 04 04 01 30 30.0000000  0 10
G03  22541541.2974  -14543804.30546 -12480432.11844  22541533.5984         41.0004         26.7504
G06  23177279.9384   -8618224.53846  -8127934.51744  23177272.6484         38.0004         24.7504
G07  21805343.8524  -18150219.40248 -15961702.10546  21805334.5704         51.0004         39.2504
G08  24522841.2894   -6541250.20747  -5562981.73244  24522834.5864         42.0004         26.0004
G10  24936441.3594   -3583329.44745  -2784853.15243  24936435.0664         33.7504         18.5004
G13  20517757.2664  -25485768.75348 -20833822.42147  20517747.9264         52.2504         42.0004
G16  23278088.4534   -9437421.92446  -7051797.07544  23278078.7624         39.2504         24.7504
G19  23989483.7114   -8002466.17946  -6204311.54943  23989473.1994         40.2504         22.5004
G20  22629549.1094  -15812886.94447 -12298727.18445  22629540.8834         46.0004         33.5004
G23  20212058.5474  -27880156.01848 -22529337.89846  20212047.2734         50.2504         41.5004
> 2010 04 04 01 31 00.0000000  0 10
G03  22531782.0004  -14595090.75746 -12520395.55444  22531774.0084         41.0004         24.7504
G06  23172087.8284   -8645506.39146  -8149193.05344  23172081.3014         38.0004         25.2504
G07  21797316.0704  -18192405.62548 -15994574.45646  21797306.7304         51.2504         39.2504
G08  24509754.5084   -6610027.37747  -5616574.26044  24509746.3404         42.0004         24.7504
G10  24919734.2194   -3671133.21845  -2853271.60243  24919726.1684         35.7504         19.2504
G13  20510270.5554  -25525112.33948 -20864479.75147  20510260.9224         52.0004         42.7504
G16  23296247.0634   -9341998.56546  -6977441.20844  23296237.0784         41.0004         25.5004
G19  23974535.3674   -8081022.75646  -6265524.42143  23974523.2734         40.2504         21.2504
G20  22648233.4224  -15714700.39347 -12222218.22045  22648225.3714         46.5004         33.0004
G23  20213245.8834  -27873917.25248 -22524476.51946  20213234.3754         49.2504         41.0004
> 2010 04 04 01 31 30.0000000  0 10
G03  22522102.0084  -14645961.20746 -12560034.82344  22522093.3714         41.7504         26.5004
G06  23166976.1954   -8672366.03846  -8170122.61543  23166970.0784         37.5004         22.7504
G07  21789323.2734  -18234407.80148 -16027303.39846  21789314.1684         50.7504         39.7504
G08  24496684.9144   -6678704.50947  -5670088.81744  24496677.5084         42.0004         26.0004
G10  24903083.4614   -3758638.26445  -2921457.29143  24903075.0004         34.7504         19.5004
G13  20502839.5474  -25564162.37048 -20894908.33747  20502830.0904         52.0004         42.7504
G16  23314451.9694   -9246331.91746  -6902895.75344  23314441.3984         40.2504         25.0004
G19  23959603.3134   -8159495.40146  -6326671.89643  23959589.6914         40.7504         21.5004
G20  22666954.6024  -15616321.04247 -12145559.01545  22666946.4344         45.7504         33.0004
G23  20214509.7734  -27867271.96848 -22519298.38046  20214498.5004         49.2504         41.5004
> 2010 04 04 01 32 00.0000000  0 10
G03  22512500.7504  -14696412.27346 -12599347.31344  22512492.5824         40.5004         24.5004
G06  23161945.8594   -8698800.83446  -8190721.09543  23161940.0944         37.5004         22.5004
G07  21781365.8984  -18276225.45448 -16059888.54846  21781356.5594         51.7504         39.2504
G08  24483634.7814   -6747281.15646  -5723525.12644  24483627.7854         39.5004         24.5004
G10  24886488.2424   -3845841.13446  -2989407.52943  24886480.6024         36.5004         19.2504
G13  20495464.9774  -25602916.28048 -20925106.17847  20495455.6374         52.5004         42.2504
G16  23332702.1174   -9150423.97946  -6828162.28844  23332692.6604         39.0004         24.2504
G19  23944685.3134   -8237880.06446  -6387750.82243  23944673.2194         39.7504         20.0004
G20  22685711.6564  -15517751.68347 -12068751.76445  22685703.5474         45.7504         33.0004
G23  20215852.1414  -27860218.29348 -22513802.01946  20215841.0434         50.2504         41.7504
> 2010 04 04 01 32 30.0000000  0 10
G03  22502980.4844  -14746441.54846 -12638331.12344  22502972.6094         40.5004         25.0004
G06  23156996.8364   -8724809.14346  -8210987.25243  23156990.0164         39.0004         22.5004
G07  21773443.2194  -18317859.32448 -16092330.49546  21773433.7034         52.0004         40.5004
G08  24470604.6174   -6815757.39546  -5776883.16043  24470596.3914         41.5004         23.7504
G10  24869952.8444   -3932739.44746  -3057120.45143  24869944.7344         37.0004         19.7504
G13  20488146.7974  -25641372.64548 -20955072.17247  20488137.5744         52.5004         42.0004
G16  23350997.6954   -9054277.84546  -6753243.22443  23350988.7664         39.0004         22.7504
G19  23929786.3984   -8316173.62846  -6448758.77943  23929775.7114         38.7504         19.7504
G20  22704504.4614  -15418994.83047 -11991798.40845  22704496.4694         45.2504         33.5004
G23  20217272.5704  -27852755.40148 -22507986.77947  20217261.0044         49.5004         42.0004
> 2010 04 04 01 33 00.0000000  0 10
G03  22493541.0634  -14796045.82246 -12676983.74544  22493534.0084         41.0004         26.0004
G06  23152129.2664   -8750389.16146  -8230919.69843  23152122.7974         39.2504         22.7504
G07  21765555.2504  -18359309.68948 -16124629.44346  21765546.2034         51.0004         39.5004
G08  24457592.1414   -6884133.67246  -5830163.30143  24457584.4414         40.7504         22.2504
G10  24853474.6174   -4019330.73946  -3124594.13443  24853466.2734         37.5004         20.0004
G13  20480885.9774  -25679529.54048 -20984804.79546  20480876.1684         52.2504         41.7504
G16  23369338.6484   -8957896.26346  -6678140.70844  23369329.6024         40.0004         24.0004
G19  23914904.2504   -8394373.46846  -6509693.58043  23914895.8484         37.0004         19.5004
G20  22723332.6024  -15320052.93247 -11914700.83745  22723324.4344         46.0004         32.5004
G23  20218771.0314  -27844881.91348 -22501851.58746  20218759.4064         50.0004         40.7504
> 2010 04 04 01 33 30.0000000  0 10
G03  22484182.7584  -14845222.98346 -12715303.55944  22484175.4104         40.7504         25.2504
G06  23147344.0164   -8775539.49746  -8250517.24843  23147336.7274         39.0004         22.7504
G07  21757702.1884  -18400577.32048 -16156786.01146  21757693.2584         51.5004         40.0004
G08  24444600.0394   -6952410.99346  -5883366.34043  24444592.2234         40.7504         23.5004
G10  24837054.5164   -4105613.02946  -3191827.07943  24837047.6954         37.0004         20.2504
G13  20473682.2814  -25717385.05348 -21014302.59247  20473672.4144         52.2504         43.0004
G16  23387723.7504   -8861282.30846  -6602857.13343  23387714.9384         41.2504         22.5004
G19  23900042.2584   -8472476.66446  -6570553.13543  23900033.6214         38.2504         20.7504
G20  22742194.9064  -15220929.89447 -11837462.14945  22742186.7974         45.7504         33.5004
G23  20220347.3984  -27836597.20848 -22495395.98446  20220335.6564         50.0004         41.7504
> 2010 04 04 01 34 00.0000000  0 10
G03  22474907.0474  -14893970.35246 -12753288.46444  22474898.2344         41.5004         25.5004
G06  23142640.2194   -8800257.92246  -8269778.35144  23142632.9884         38.7504         24.5004
G07  21749884.3134  -18441662.70548 -16188800.55446  21749874.9734         50.7504         39.2504
G08  24431625.3674   -7020589.27846  -5936492.21243  24431618.7234         41.0004         22.2504
G10  24820696.2734   -4191583.50246  -3258817.03343  24820688.1054         40.0004         19.2504
G13  20466536.3914  -25754937.39048 -21043564.13846  20466526.4064         52.0004         41.7504
G16  23406153.2034   -8764438.52446  -6527394.42343  23406143.0434         40.2504         22.2504
G19  23885200.4534   -8550479.77546  -6631334.68843  23885190.8794         39.2504         21.2504
G20  22761091.3754  -15121628.17747 -11760084.20445  22761083.0904         45.0004         33.0004
G23  20222002.4774  -27827900.02648 -22488618.94946  20221991.0864         49.2504         41.0004
> 2010 04 04 01 34 30.0000000  0 10
G03  22465712.7584  -14942284.98047 -12790936.22444  22465703.5354         42.2504         24.5004
G06  23138017.8204   -8824542.65046  -8288701.46243  23138010.8244         38.2504         22.7504
G07  21742100.3364  -18482565.79948 -16220673.07246  21742091.1134         49.2504         39.7504
G08  24418670.5634   -7088668.28946  -5989540.70943  24418663.6254         39.5004         23.0004
G10  24804396.0554   -4277239.36746  -3325561.83943  24804388.2974         40.2504         19.7504
G13  20459448.2114  -25792184.57748 -21072587.91847  20459438.8134         50.5004         42.7504
G16  23424624.7274   -8667367.41446  -6451754.59943  23424615.4454         39.5004         21.5004
G19  23870375.9454   -8628379.47746  -6692035.71343  23870365.7854         40.0004         21.5004
G20  22780021.6954  -15022150.49747 -11682569.17345  22780013.4104         45.7504         33.0004
G23  20223736.1644  -27818789.23348 -22481519.64446  20223724.7154         50.2504         41.5004
> 2010 04 04 01 35 00.0000000  0 10
G03  22456601.4064  -14990164.79547 -12828245.14344  22456593.7664         42.0004         24.5004
G06  23133479.8914   -8848392.12846  -8307285.41443  23133473.1294         39.0004         22.5004
G07  21734351.1484  -18523287.61948 -16252404.32446  21734342.0434         51.0004         40.0004
G08  24405733.7344   -7156648.29146  -6042512.07944  24405727.7934         40.0004         24.5004
G10  24788156.8054   -4362578.64746  -3392059.92443  24788149.1054         40.0004         19.0004
G13  20452418.7114  -25829125.13548 -21101372.75147  20452408.8444         52.0004         42.0004
G16  23443139.3444   -8570072.19846  -6375940.15243  23443130.2384         39.7504         22.0004
G19  23855572.3444   -8706173.05446  -6752654.02543  23855561.9494         40.7504         22.2504
G20  22798984.1804  -14922500.19147 -11604919.61745  22798976.4224         44.7504         32.2504
G23  20225548.8984  -27809263.96648 -22474097.35646  20225537.3914         49.5004         41.2504
> 2010 04 04 01 35 30.0000000  0 10
G03  22447573.3204  -15037606.55647 -12865212.68544  22447565.3874         42.0004         25.5004
G06  23129024.3834   -8871804.74746  -8325528.97143  23129018.3834         38.5004         22.2504
G07  21726636.4454  -18563828.20248 -16283994.35646  21726627.2814         49.5004         39.7504
G08  24392816.6644   -7224529.97346  -6095406.82844  24392810.4884         40.5004         25.2504
G10  24771977.9304   -4447598.66146  -3458309.30142  24771969.2934         40.5004         16.7504
G13  20445448.2734  -25865756.86848 -21129916.94247  20445438.2894         51.2504         42.0004
G16  23461696.3134   -8472555.65846  -6299953.25143  23461686.7974         40.5004         22.5004
G19  23840789.9774   -8783857.21746  -6813187.09043  23840778.1174         40.7504         22.0004
G20  22817979.4774  -14822680.02347 -11527137.70145  22817971.4264         45.2504         32.0004
G23  20227440.0164  -27799323.37248 -22466351.43946  20227428.4494         50.0004         40.7504
> 2010 04 04 01 36 00.0000000  0 10
G03  22438629.8284  -15084608.07946 -12901837.19044  22438622.3054         41.5004         25.0004
G06  23124652.4454   -8894778.91746  -8343430.87043  23124644.9804         39.5004         22.7504
G07  21718956.1094  -18604188.47248 -16315443.89746  21718946.8874         50.5004         39.5004
G08  24379917.7664   -7292314.21447  -6148225.63244  24379911.5904         42.5004         25.5004
G10  24755859.6644   -4532297.39446  -3524308.39842  24755851.3204         40.0004         16.2504
G13  20438536.0164  -25902078.51748 -21158219.51346  20438526.3834         51.2504         41.5004
G16  23480294.8524   -8374820.54846  -6223796.03544  23480285.3364         41.5004         24.5004
G19  23826028.5164   -8861429.23746  -6873632.78243  23826016.1884         41.0004         22.0004
G20  22837006.7114  -14722693.29247 -11449225.99745  22836997.7814         45.0004         31.2504
G23  20229410.8914  -27788966.71648 -22458281.31346  20229399.7344         49.5004         41.0004
> 2010 04 04 01 36 30.0000000  0 10
G03  22429769.5864  -15131166.08746 -12938116.11444  22429761.5354         41.7504         24.2504
G06  23120365.3594   -8917311.99046  -8360989.05143  23120358.2464         40.0004         22.0004
G07  21711310.3984  -18644367.85648 -16346752.47846  21711301.3524         51.2504         40.0004
G08  24367038.2664   -7359999.87447  -6200967.61844  24367031.7974         43.0004         26.7504
G10  24739805.0004   -4616671.32346  -3590054.37542  24739795.0164         40.7504         15.5004
G13  20431684.1094  -25938087.10748 -21186278.13747  20431674.4184         52.0004         42.2504
G16  23498934.3054   -8276868.85346  -6147470.03543  23498925.4344         40.5004         23.2504
G19  23811289.1414   -8938884.85046  -6933987.74443  23811276.9884         40.5004         22.2504
G20  22856064.5314  -14622541.64047 -11371185.78245  22856056.1294         45.2504         31.2504
G23  20231461.6954  -27778191.60348 -22449885.12146  20231450.3054         50.2504         41.2504
> 2010 04 04 01 37 00.0000000  0 10
G03  22420995.7034  -15177278.30847 -12974047.67044  22420986.9494         42.5004         26.5004
G06  23116161.2114   -8939403.20146  -8378202.94143  23116154.2734         38.2504         22.7504
G07  21703698.4924  -18684367.80548 -16377921.23446  21703689.8554         51.2504         40.5004
G08  24354176.6724   -7427587.64547  -6253633.34544  24354170.0864         42.5004         26.7504
G10  24723811.2584   -4700719.13346  -3655546.20342  24723801.0984         40.0004         15.5004
G13  20424891.4774  -25973781.60148 -21214092.01747  20424882.0204         52.0004         42.2504
G16  23517613.8674   -8178704.32746  -6070978.22543  23517605.2304         39.7504         22.0004
G19  23796571.9144   -9016221.96146  -6994250.40543  23796560.3484         39.5004         22.5004
G20  22875153.3364  -14522229.00547 -11293020.10945  22875144.8164         44.5004         31.0004
G23  20233591.5704  -27766998.34048 -22441163.10446  20233580.4734         49.7504         41.0004
> 2010 04 04 01 37 30.0000000  0 10
G03  22412305.8204  -15222941.71047 -13009629.48344  22412297.3594         42.5004         27.0004
G06  23112042.0474   -8961050.04746  -8395070.55343  23112034.5234         39.5004         22.5004
G07  21696120.9924  -18724187.84548 -16408949.80646  21696112.8244         50.0004         40.0004
G08  24341333.3444   -7495077.84447  -6306223.03944  24341326.4064         43.0004         27.2504
G10  24707879.6884   -4784437.14746  -3720781.04642  24707870.6994         38.5004         16.7504
G13  20418159.1414  -26009159.58948 -21241659.26747  20418149.4494         51.0004         42.0004
G16  23536335.0314   -8080328.77646  -5994321.94643  23536324.9884         40.7504         22.0004
G19  23781877.8914   -9093436.68446  -7054417.67043  23781867.6134         39.7504         22.2504
G20  22894272.6484  -14421757.33747 -11214730.52545  22894264.6564         44.7504         31.0004
G23  20235801.7114  -27755384.99648 -22432113.74146  20235790.0864         50.2504         41.5004
> 2010 04 04 01 38 00.0000000  0 10
G03  22403701.7974  -15268154.17847 -13044859.92644  22403693.9224         42.7504         26.0004
G06  23108007.8834   -8982251.26446  -8411590.92543  23108000.8284         39.2504         23.0004
G07  21688577.6334  -18763828.80348 -16439838.83646  21688568.8204         50.7504         39.7504
G08  24328508.6884   -7562470.75847  -6358736.93544  24328502.2194         42.5004         28.7504
G10  24692012.2734   -4867823.67446  -3785757.55042  24692002.6414         38.5004         17.7504
G13  20411487.5634  -26044219.62448 -21268978.77347  20411477.8714         51.5004         42.0004
G16  23555093.9384   -7981745.17046  -5917503.54343  23555084.8324         41.2504         22.5004
G19  23767208.7974   -9170526.21246  -7114487.37144  23767198.9884         39.5004         24.5004
G20  22913421.6484  -14321130.36847 -11136319.92445  22913412.9534         45.0004         31.2504
G23  20238091.1564  -27743351.14848 -22422736.72946  20238080.0004         49.7504         41.7504
> 2010 04 04 01 38 30.0000000  0 10
G03  22395184.1094  -15312913.01646 -13079736.89044  22395176.1174         41.5004         24.5004
G06  23104058.2584   -9003004.96346  -8427762.58743  23104051.2624         39.5004         22.7504
G07  21681068.1414  -18803290.89248 -16470588.46546  21681059.0944         50.5004         39.5004
G08  24315702.4454   -7629766.52547  -6411175.09744  24315695.9184         43.0004         27.2504
G10  24676207.6484   -4950875.99646  -3850473.60743  24676198.5434         37.5004         18.2504
G13  20404876.7814  -26078959.66948 -21296048.91746  20404867.4414         51.0004         41.2504
G16  23573893.0394   -7882956.01646  -5840524.98543  23573883.5824         41.0004         22.5004
G19  23752562.3284   -9247487.05846  -7174456.80243  23752553.5164         38.2504         23.5004
G20  22932598.7974  -14220350.57347 -11057790.23344  22932590.5704         45.5004         29.0004
G23  20240461.6954  -27730895.37748 -22413030.93646  20240450.3634         51.0004         40.0004
> 2010 04 04 01 39 00.0000000  0 10
G03  22386753.4614  -15357215.71846 -13114258.40444  22386745.3524         40.0004         25.2504
G06  23100194.1334   -9023309.77346  -8443584.48243  23100187.3714         39.0004         22.7504
G07  21673592.8754  -18842574.73748 -16501199.22646  21673583.8284         51.0004         40.0004
G08  24302915.3054   -7696965.53647  -6463537.88744  24302908.6604         43.7504         28.0004
G10  24660467.0394   -5033591.71345  -3914927.33843  24660458.5784         35.7504         19.2504
G13  20398327.1564  -26113377.82948 -21322868.25947  20398317.6994         51.5004         42.2504
G16  23592730.4844   -7783964.15146  -5763388.46943  23592721.3204         40.5004         22.7504
G19  23737943.1484   -9324316.24546  -7234323.63244  23737934.6294         38.5004         26.5004
G20  22951805.0784  -14119420.79947 -10979143.70645  22951796.8524         46.2504         31.2504
G23  20242912.8134  -27718016.85348 -22402995.73246  20242900.9534         50.5004         41.5004
> 2010 04 04 01 39 30.0000000  0 10
G03  22378410.8134  -15401059.75747 -13148422.53344  22378403.2894         43.0004         26.5004
G06  23096415.4064   -9043163.85346  -8459055.15743  23096409.2304         38.2504         22.5004
G07  21666151.1484  -18881680.63648 -16531671.32246  21666141.8094         51.5004         38.7504
G08  24290144.9064   -7764068.11747  -6515825.53144  24290139.3164         42.5004         26.7504
G10  24644790.7814   -5115968.55145  -3979117.00542  24644782.4384         35.2504         17.7504
G13  20391839.1024  -26147472.19148 -21349435.27547  20391829.7624         51.7504         42.0004
G16  23611605.9844   -7684772.52946  -5686096.31543  23611597.2304         40.2504         22.5004
G19  23723348.2114   -9401010.39746  -7294085.23044  23723340.3954         38.5004         24.5004
G20  22971039.5704  -14018344.15047 -10900382.68844  22971030.6994         46.0004         29.7504
G23  20245443.5164  -27704714.70448 -22392630.42146  20245432.3594         50.7504         41.0004
> 2010 04 04 01 40 00.0000000  0 10
G03  22370154.9144  -15444442.08747 -13182226.91344  22370146.8634         43.0004         24.7504
G06  23092724.6024   -9062565.49846  -8474173.26643  23092717.0204         40.0004         22.5004
G07  21658743.4064  -18920608.67948 -16562004.83546  21658734.0084         50.5004         39.2504
G08  24277395.1414   -7831074.26147  -6568038.02044  24277388.5554         43.2504         27.7504
G10  24629179.1644   -5198003.62045  -4043040.36043  24629171.6414         35.0004         19.2504
G13  20385413.1564  -26181240.68648 -21375748.39447  20385403.5824         51.7504         42.5004
G16  23630518.3834   -7585383.51246  -5608650.33743  23630510.3324         40.2504         22.0004
G19  23708780.1644   -9477566.65346  -7353739.39044  23708772.2304         38.5004         27.0004
G20  22990301.3364  -13917122.98047 -10821509.08545  22990292.8754         47.0004         30.2504
G23  20248056.1414  -27690987.88748 -22381934.22046  20248044.5744         51.0004         41.2504
> 2010 04 04 01 40 30.0000000  0 10
G03  22361987.5084  -15487361.09847 -13215670.23144  22361980.0434         43.0004         26.5004
G06  23089118.4224   -9081513.48946  -8488937.90743  23089110.6054         40.5004         22.5004
G07  21651369.2194  -18959359.90748 -16592200.56946  21651359.7034         51.0004         39.7504
G08  24264661.5944   -7897984.35847  -6620175.66144  24264655.8874         44.0004         28.0004
G10  24613635.1174   -5279695.00246  -4106695.91943  24613626.1294         37.5004         20.0004
G13  20379049.5314  -26214681.80348 -21401806.38746  20379040.1334         51.7504         41.7504
G16  23649469.8284   -7485799.91846  -5531052.74243  23649459.6684         40.0004         22.0004
G19  23694238.3754   -9553981.86146  -7413283.61444  23694230.5594         38.5004         27.0004
G20  23009590.2034  -13815760.51147 -10742525.36645  23009581.6844         46.0004         30.2504
G23  20250749.1094  -27676835.65648 -22370906.50846  20250737.1914         51.5004         41.0004
> 2010 04 04 01 41 00.0000000  0 11
G03  22353909.0234  -15529814.45247 -13248750.73744  22353899.5664         42.2504         26.0004
G06  23085599.1644   -9100006.59946  -8503348.06843  23085591.7584         39.0004         22.0004
G07  21644028.3674  -18997934.93048 -16622258.99046  21644019.0864         50.5004         39.2504
G08  24251947.0944   -7964799.50147  -6672239.31844  24251941.9144         43.2504         27.7504
G10  24598155.8204   -5361040.59046  -4170082.04143  24598146.8914         39.7504         22.5004
G13  20372748.1954  -26247793.99348 -21427608.09746  20372738.8554         51.0004         41.7504
G16  23668455.9614   -7386025.16246  -5453306.16843  23668445.6844         41.2504         21.2504
G19  23679725.1174   -9630253.43846  -7472715.95544  23679716.7154         38.0004         25.5004
G20  23028904.7814  -13714260.09647 -10663434.16344  23028896.4384         46.2504         29.7504
G23  20253523.1024  -27662257.57648 -22359546.97146  20253511.6524         51.2504         41.0004
G28  25439701.844                                                          34.250
> 2010 04 04 01 41 30.0000000  0 11
G03  22345919.0164  -15571801.89546 -13281468.15844  22345910.6134         41.5004         27.2504
G06  23082166.0234   -9118045.77546  -8517404.53943  23082159.7304         39.5004         22.5004
G07  21636720.8134  -19036336.20748 -16652182.03746  21636711.5904         51.0004         39.5004
G08  24239250.2424   -8031522.11747  -6724230.87244  24239245.0634         43.2504         29.2504
G10  24582741.8444   -5442040.29446  -4233198.65244  24582733.5594         41.2504         26.0004
G13  20366509.7504  -26280578.08548 -21453154.13947  20366500.1764         51.0004         42.5004
G16  23687477.7814   -7286064.27346  -5375414.53243  23687468.2074         40.5004         22.0004
G19  23665238.5004   -9706380.13646  -7532035.40444  23665229.3954         38.0004         26.2504
G20  23048244.7194  -13612627.32047 -10584239.82445  23048236.7274         46.0004         30.0004
G23  20256378.0004  -27647255.12148 -22347856.75746  20256366.6684         50.7504         41.0004
G28  25420071.7664    -460157.08746   -331561.07943  25420071.0394         38.7504         21.7504
> 2010 04 04 01 42 00.0000000  0 11
G03  22338019.7114  -15613315.64647 -13313816.48744  22338011.3094         43.0004         27.7504
G06  23078821.5164   -9135624.11746  -8531101.91843  23078814.4614         38.7504         22.2504
G07  21629447.1954  -19074559.25348 -16681966.18946  21629437.7974         50.0004         39.7504
G08  24226573.4384   -8098147.11047  -6776146.36544  24226566.4414         43.0004         29.5004
G10  24567395.1174   -5522686.21647  -4296039.58644  24567386.9494         42.0004         25.0004
G13  20360335.3524  -26313026.01648 -21478438.23147  20360325.6604         49.7504         42.0004
G16  23706535.3914   -7185914.32846  -5297375.61743  23706526.2274         41.0004         22.2504
G19  23650781.0084   -9782353.76246  -7591235.58844  23650771.7854         38.2504         24.0004
G20  23067610.6644  -13510859.28247 -10504940.08545  23067602.0274         45.7504         30.2504
G23  20259314.5784  -27631821.97848 -22335830.93146  20259303.5394         51.0004         41.0004
G28  25400454.2974    -563244.98946   -411888.77342  25400451.5784         36.0004         16.7504
> 2010 04 04 01 42 30.0000000  0 11
G03  22330208.8364  -15654356.04747 -13345795.95944  22330201.6644         42.2504         27.0004
G06  23075562.8134   -9152742.75146  -8544441.04543  23075556.6374         36.7504         22.2504
G07  21622207.1644  -19112607.23748 -16711613.94046  21622198.0004         51.0004         40.2504
G08  24213911.7034   -8164677.40647  -6827988.08344  24213905.5274         44.2504         28.7504
G10  24552116.1414   -5602979.02347  -4358605.37744  24552107.9144         42.2504         25.7504
G13  20354224.2034  -26345139.99148 -21503462.09447  20354214.6884         50.5004         42.5004
G16  23725628.9614   -7085580.78046  -5219193.64943  23725619.7974         40.7504         22.5004
G19  23636352.0084   -9858173.46846  -7650315.79143  23636344.0164         38.2504         23.2504
G20  23087001.3754  -13408961.42547 -10425539.18844  23086992.7384         45.2504         29.7504
G23  20262333.2034  -27615960.01148 -22323470.95946  20262321.8714         50.5004         41.5004
G28  25380850.3444    -666265.96045   -492164.25542  25380845.5164         35.0004         16.7504
> 2010 04 04 01 43 00.0000000  0 11
G03  22322490.4144  -15694917.23347 -13377402.03344  22322483.1844         42.0004         26.0004
G06  23072392.8284   -9169396.84246  -8557418.23543  23072387.3554         37.2504         21.7504
G07  21615000.3914  -19150476.98848 -16741122.81246  21614991.7544         50.5004         40.0004
G08  24201270.9614   -8231109.70247  -6879753.42644  24201263.6724         42.2504         27.0004
G10  24536904.9064   -5682912.83447  -4420891.42743  24536897.0904         42.5004         23.7504
G13  20348177.7974  -26376914.18248 -21528221.19146  20348168.2814         50.0004         41.7504
G16  23744756.9454   -6985063.01646  -5140868.14743  23744747.1954         40.7504         22.5004
G19  23621954.3984   -9933833.23346  -7709271.36843  23621946.0554         38.0004         22.5004
G20  23106416.8594  -13306933.74847 -10346037.13045  23106408.8094         46.2504         30.0004
G23  20265434.0634  -27599664.99148 -22310773.54546  20265423.0234         51.2504         40.5004
G28  25361259.5634                                   25361252.8594         31.0004         13.7504
> 2010 04 04 01 43 30.0000000  0 11
G03  22314861.9614  -15735003.39147 -13408637.95644  22314854.6724         42.5004         26.5004
G06  23069312.1414   -9185591.00646  -8570037.00443  23069305.2034         39.0004         22.7504
G07  21607826.9844  -19188175.24648 -16770498.04146  21607817.8794         51.2504         40.0004
G08  24188645.9614   -8297451.02647  -6931447.90344  24188639.5514         44.0004         28.7504
G10  24521761.5944   -5762491.52746  -4482900.77443  24521753.4264         41.5004         23.2504
G13  20342195.0554  -26408352.80148 -21552718.81747  20342185.6564         50.0004         42.5004
G16  23763918.6954   -6884369.80047  -5062405.89143  23763907.7154         42.7504         22.5004
G19  23607585.7114  -10009335.62346  -7768104.34643  23607577.4264         37.7504         22.5004
G20  23125855.3524  -13204785.10247 -10266440.79745  23125846.0704         46.5004         30.0004
G23  20268616.0554  -27582942.14948 -22297742.76646  20268604.8984         51.2504         41.2504
G28  25341681.9694                                   25341674.3874         30.5004         14.7504
> 2010 04 04 01 44 00.0000000  0 10
G03  22307326.0554  -15774608.33246 -13439498.89644  22307318.4734         39.5004         25.7504
G06  23066319.2814   -9201320.80146  -8582293.98243  23066311.5234         39.0004         22.2504
G07  21600686.0234  -19225699.01348 -16799737.30746  21600677.2704         49.7504         40.0004
G08  24176039.0554   -8363697.76847  -6983068.69144  24176032.9384         42.0004         27.7504
G10  24506685.9694   -5841709.89046  -4544629.31143  24506678.9144         40.7504         21.7504
G13  20336277.3134  -26439450.83748 -21576951.03947  20336267.9144         50.7504         42.0004
G16  23783112.9144   -6783500.83047  -4983806.65743  23783102.1684         42.2504         22.0004
G19  23593249.3594  -10084674.13246  -7826809.59443  23593239.6094         37.5004         20.7504
G20  23145316.3364  -13102515.04347 -10186749.85345  23145307.8754         46.7504         30.0004
G23  20271880.4924  -27565787.69648 -22284375.66046  20271869.4534         51.0004         41.0004
> 2010 04 04 01 44 30.0000000  0 10
G03  22299881.3984  -15813730.30146 -13469983.50744  22299873.6994         41.5004         26.7504
G06  23063413.8914   -9216585.03846  -8594188.15843  23063407.3054         39.7504         21.5004
G07  21593578.8754  -19263048.84448 -16828841.05746  21593569.4184         50.5004         40.5004
G08  24163450.4224   -8429851.32047  -7034616.82144  24163444.3634         42.5004         29.2504
G10  24491680.0784   -5920565.33246  -4606075.12543  24491673.0234         39.5004         18.5004
G13  20330424.7504  -26470206.65848 -21600916.61647  20330414.8834         49.0004         42.5004
G16  23802340.4384   -6682458.81146  -4905072.60243  23802330.0434         41.2504         19.7504
G19  23578946.6804  -10159846.61046  -7885385.46743  23578935.1134         40.7504         22.7504
G20  23164800.4694  -13000126.76247 -10106966.80645  23164792.2424         46.5004         30.0004
G23  20275227.4064  -27548201.08748 -22270671.81946  20275216.2504         50.7504         41.5004
> 2010 04 04 01 45 00.0000000  0 10
G03  22292528.8754  -15852367.24746 -13500090.19644  22292521.1174         38.7504         27.7504
G06  23060598.9534   -9231382.34946  -8605718.46743  23060591.3134         38.7504         22.5004
G07  21586504.0704  -19300225.50648 -16857809.86146  21586495.0234         49.5004         40.2504
G08  24150880.5164   -8495911.60246  -7086092.28044  24150873.4024         41.5004         28.0004
G10  24476744.5864   -5999055.41046  -4667236.21543  24476736.8284         39.0004         18.5004
G13  20324637.4774  -26500618.67848 -21624614.27847  20324627.9024         50.2504         43.0004
G16  23821600.2814   -6581246.26446  -4826205.69543  23821590.0634         40.0004         19.5004
G19  23564673.9774  -10234849.56447  -7943829.26244  23564663.3484         42.0004         25.0004
G20  23184306.7814  -12897623.07147 -10027093.82544  23184298.4384         47.0004         29.5004
G23  20278656.7664  -27530181.37248 -22256630.48246  20278645.3754         51.0004         40.5004
> 2010 04 04 01 45 30.0000000  0 11
G03  22285268.6174  -15890518.85746 -13529818.66444  22285260.9774         37.7504         25.5004
G06  23057871.8834   -9245713.52546  -8616885.57843  23057864.0084         39.5004         22.0004
G07  21579462.3594  -19337231.47948 -16886645.65446  21579453.0784         50.2504         40.0004
G08  24138326.6724   -8561881.29347  -7137497.17744  24138319.6174         42.0004         28.7504
G10  24461878.1254   -6077180.21646  -4728112.71743  24461869.3134         40.0004         18.2504
G13  20318915.6724  -26530687.06648 -21648044.17947  20318905.8634         50.7504         42.5004
G16  23840891.2034   -6479868.27346  -4747209.86043  23840881.2774         36.0004         18.5004
G19  23550433.9064  -10309681.81747  -8002140.05443  23550423.1024         42.5004         23.7504
G20  23203833.5004  -12795008.92447  -9947134.78644  23203825.2734         45.0004         29.2504
G23  20282167.6174  -27511730.01448 -22242252.80246  20282155.8754         50.2504         41.0004
G28  25263506.797     -479338.356 5                                        30.500
> 2010 04 04 01 46 00.0000000  0 11
G03  22278101.9774  -15928179.06446 -13559164.21544  22278094.7464         40.7504         26.5004
G06  23055234.2344   -9259573.50746  -8627685.52643  23055226.0664         39.5004         22.5004
G07  21572453.2114  -19374063.47348 -16915345.88646  21572444.0474         50.5004         40.0004
G08  24125791.2734   -8627756.57547  -7188828.48644  24125784.1604         43.5004         29.0004
G10  24447082.5084   -6154933.81746  -4788699.89642  24447073.2854         40.7504         17.7504
G13  20313260.3204  -26560406.61348 -21671202.25447  20313250.9224         51.2504         42.5004
G16  23860215.3054   -6378323.97246  -4668084.43943  23860205.4384         40.0004         20.5004
G19  23536227.1174  -10384336.68546  -8060312.63644  23536218.0124         41.7504         26.2504
G20  23223381.0314  -12692284.08447  -9867089.48744  23223372.6884         45.7504         29.2504
G23  20285761.4064  -27492842.46748 -22227535.24146  20285750.0744         50.2504         40.7504
G28  25244001.875     -581840.914 6                                        36.250
> 2010 04 04 01 46 30.0000000  0 11
G03  22271028.7664  -15965346.25346 -13588125.60744  22271021.3014         39.7504         26.2504
G06  23052687.2664   -9272961.70246  -8638117.83443  23052678.8054         39.5004         22.7504
G07  21565477.2194  -19410722.62548 -16943911.42546  21565468.1724         51.0004         40.2504
G08  24113272.2274   -8693539.22247  -7240087.61644  24113266.5204         43.5004         28.5004
G10  24432357.8204   -6232314.78046  -4848996.75243  24432348.4804         41.2504         20.5004
G13  20307671.4454  -26589776.23648 -21694087.66547  20307662.0474         50.5004         43.0004
G16  23879570.3754   -6276616.39146  -4588831.79443  23879559.7464         39.0004         21.5004
G19  23522054.5944  -10458811.76646  -8118345.09044  23522046.0164         41.5004         27.5004
G20  23242948.8054  -12589451.85147  -9786960.51844  23242940.5784         44.7504         27.7504
G23  20289438.9694  -27473518.78548 -22212477.82946  20289427.4614         50.5004         40.7504
G28  25224511.359     -684260.912 6                                        37.500
> 2010 04 04 01 47 00.0000000  0 11
G03  22264050.3204  -16002019.32246 -13616701.98644  22264043.0904         41.5004         26.2504
G06  23050229.0784   -9285877.76146  -8648182.25644  23050220.6764         40.0004         24.0004
G07  21558533.7504  -19447210.54448 -16972343.54546  21558524.8794         50.5004         40.2504
G08  24100771.5864   -8759229.69447  -7291274.93044  24100765.0004         43.5004         28.0004
G10  24417703.9304   -6309321.65747  -4909002.10743  24417695.2344         42.2504         22.0004
G13  20302149.4614  -26618794.80948 -21716699.53447  20302139.4774         49.0004         43.0004
G16  23898954.8984   -6174749.37746  -4509454.88243  23898944.3284         36.7504         22.5004
G19  23507918.4064  -10533104.79346  -8176235.69344  23507908.5984         41.7504         27.7504
G20  23262537.2664  -12486515.74047  -9706750.58344  23262528.6294         44.5004         28.2504
G23  20293198.8134  -27453759.11948 -22197080.69346  20293187.7734         50.5004         40.2504
G28  25205036.945     -786597.610 6                                        38.500
> 2010 04 04 01 47 30.0000000  0 11
G03  22257167.0634  -16038195.65846 -13644891.34144  22257158.9534         39.7504         27.2504
G06  23047861.6094   -9298319.93946  -8657877.40643  23047852.7974         41.2504         22.0004
G07  21551623.5004  -19483527.07848 -17000642.11646  21551614.2774         50.2504         41.0004
G08  24088289.0004   -8824828.55147  -7342390.87044  24088281.8874         42.5004         27.7504
G10  24403121.2194   -6385951.15347  -4968713.37943  24403112.6994         43.0004         22.7504
G13  20296694.5234  -26647460.12648 -21739036.13547  20296685.0664         50.5004         43.0004
G16  23918368.5314   -6072725.03345  -4429955.41443  23918358.3714         35.7504         20.7504
G19  23493815.0704  -10607212.06346  -8233981.55144  23493806.1414         40.7504         28.5004
G20  23282144.5634  -12383478.58047  -9626461.92344  23282136.1604         43.7504         27.7504
G23  20297042.2814  -27433562.38548 -22181342.98246  20297030.8914         50.5004         41.0004
G28  25185578.656     -888848.661 6                                        39.000
> 2010 04 04 01 48 00.0000000  0 11
G03  22250376.9224  -16073872.68146 -13672691.54244  22250369.9844         39.5004         26.5004
G06  23045584.3054   -9310286.91046  -8667202.28543  23045575.1994         40.2504         23.0004
G07  21544745.0084  -19519672.18248 -17028807.10046  21544736.3134         50.7504         40.5004
G08  24075822.9844   -8890335.49446  -7393435.17744  24075816.1054         41.5004         27.5004
G10  24388611.2974   -6462201.21947  -5028129.01343  24388603.0704         42.5004         23.2504
G13  20291306.9614  -26675770.22048 -21761095.93847  20291297.8554         50.7504         42.7504
G16  23937812.5554   -5970545.85746  -4350335.26543  23937801.7504         37.7504         19.2504
G19  23479748.5004  -10681130.44846  -8291580.21044  23479739.8634         40.5004         25.0004
G20  23301770.8284  -12280342.83447  -9546096.41944  23301762.0164         45.0004         27.2504
G23  20300969.3054  -27412927.77548 -22165264.07146  20300957.5044         50.5004         40.0004
G28  25166137.4774    -991011.77946  -1139511.58143  25166131.8284         40.0004         18.2504
> 2010 04 04 01 48 30.0000000  0 11
G03  22243683.0474  -16109047.46946 -13700100.42144  22243676.5784         37.5004         25.5004
G06  23043398.2344   -9321776.91146  -8676155.46443  23043388.4264         39.7504         22.5004
G07  21537899.1884  -19555645.86048 -17056838.50546  21537890.3164         50.7504         41.0004
G08  24063375.2584   -8955750.37047  -7444407.76444  24063368.1454         43.5004         28.7504
G10  24374174.2734   -6538069.51647  -5087247.14944  24374165.8714         42.0004         24.5004
G13  20285988.0084  -26703723.01748 -21782877.32147  20285978.6094         51.0004         43.0004
G16  23957286.1954   -5868213.92745  -4270596.12643  23957274.8054         35.7504         19.5004
G19  23465718.1334  -10754856.33146  -8349028.85944  23465709.7894         39.5004         25.7504
G20  23321415.1644  -12177111.06847  -9465656.09344  23321406.8794         44.5004         27.5004
G23  20304979.2424  -27391854.14248 -22148843.05646  20304967.7934         50.5004         40.0004
G28  25146713.1414   -1093085.00146  -1219048.58743  25146707.6684         39.0004         18.2504
> 2010 04 04 01 49 00.0000000  0 11
G03  22237084.7504  -16143718.77346 -13727116.96044  22237078.1054         37.7504         26.5004
G06  23041302.1954   -9332789.47146  -8684736.66243  23041292.9734         40.7504         22.7504
G07  21531086.0474  -19591449.38948 -17084737.33946  21531076.8244         49.0004         41.2504
G08  24050944.4454   -9021074.54347  -7495309.65944  24050936.8634         43.2504         28.2504
G10  24359810.1884   -6613554.33546  -5146066.47343  24359801.6684         41.7504         22.7504
G13  20280736.8984  -26731317.31848 -21804379.37247  20280727.5594         50.7504         43.5004
G16  23976788.2734   -5765732.50846  -4190740.48343  23976777.1764         38.0004         20.7504
G19  23451725.3674  -10828387.30146  -8406325.64044  23451717.2584         39.7504         24.5004
G20  23341077.3204  -12073786.59547  -9385143.54544  23341068.8594         42.5004         27.5004
G23  20309072.7734  -27370341.57148 -22132080.01846  20309061.6174         49.5004         41.0004
G28  25127305.1254   -1195067.05246  -1298514.54742  25127300.7074         36.5004         16.2504
> 2010 04 04 01 49 30.0000000  0 11
G03  22230584.1564  -16177885.11246 -13753740.03444  22230577.5124         40.7504         26.5004
G06  23039298.0634   -9343323.51646  -8692944.94543  23039288.3714         40.2504         22.5004
G07  21524304.9774  -19627083.48548 -17112504.13046  21524295.8134         49.7504         41.0004
G08  24038530.2194   -9086308.59547  -7546141.32044  24038523.2234         42.0004         27.0004
G10  24345518.7814   -6688653.28446  -5204585.09643  24345511.1414         40.5004         21.5004
G13  20275554.5784  -26758551.57548 -21825600.86147  20275544.5944         51.2504         43.0004
G16  23996317.2974   -5663104.68346  -4110770.73943  23996307.6054         39.2504         22.7504
G19  23437770.7504  -10901720.15346  -8463468.05144  23437761.5274         40.0004         25.2504
G20  23360756.2974  -11970372.75147  -9304561.37444  23360748.3634         42.7504         27.0004
G23  20313250.0634  -27348389.48848 -22114974.49946  20313238.6134         48.2504         39.7504
G28  25107916.6564   -1296956.00946  -1377907.94842  25107910.4224         38.0004         16.2504
> 2010 04 04 01 50 00.0000000  0 11
G03  22224179.9844  -16211543.35946 -13779967.21444  22224171.2894         39.5004         27.0004
G06  23037384.7734   -9353377.19946  -8700778.94543  23037374.7304         41.5004         22.7504
G07  21517556.5634  -19662547.79748 -17140138.64146  21517547.2234         49.7504         41.0004
G08  24026133.9774   -9151451.79747  -7596902.20844  24026126.1604         42.0004         26.7504
G10  24331301.2194   -6763363.61746  -5262800.91343  24331293.9304         39.7504         20.7504
G13  20270440.9614  -26785423.29948 -21846539.86247  20270431.6214         50.7504         43.7504
G16  24015874.2974   -5560332.19947  -4030688.27243  24015865.0744         42.0004         23.2504
G19  23423854.4144  -10974851.15246  -8520453.18544  23423844.4304         39.5004         24.7504
G20  23380451.3054  -11866871.67447  -9223911.22544  23380443.4884         44.2504         26.7504
G23  20317511.4774  -27325996.46548 -22097525.39946  20317499.9694         48.2504         40.7504
G28  25088545.6414   -1398749.12846  -1457226.78442  25088540.1684         38.0004         17.2504
> 2010 04 04 01 50 30.0000000  0 11
G03  22217871.8524  -16244691.74047 -13805797.07144  22217864.2114         42.0004         27.5004
G06  23035562.9774   -9362949.89946  -8708238.16443  23035552.8164         39.7504         22.0004
G07  21510840.0704  -19697843.18648 -17167641.50846  21510830.3794         50.0004         41.0004
G08  24013754.6564   -9216504.99347  -7647592.96044  24013746.7814         42.7504         27.2504
G10  24317159.1254   -6837683.81246  -5320712.72343  24317151.3094         39.7504         19.2504
G13  20265397.1174  -26811931.16648 -21867195.32547  20265387.3674         50.2504         42.7504
G16  24035458.1724   -5457418.24146  -3950495.56943  24035448.5394         40.5004         23.2504
G19  23409976.7114  -11047777.77746  -8577279.08144  23409966.5514         40.5004         25.5004
G20  23400163.3054  -11763286.56447  -9143195.60744  23400155.7814         45.0004         28.2504
G23  20321856.4064  -27303162.51548 -22079732.71446  20321845.3094         48.0004         40.0004
G28  25069192.9614   -1500445.22646  -1536470.10542  25069187.1954         38.5004         16.2504
> 2010 04 04 01 51 00.0000000  0 11
G03  22211660.6564  -16277328.36546 -13831228.17044  22211653.6024         39.7504         26.7504
G06  23033833.4304   -9372040.43246  -8715321.66743  23033822.9774         40.5004         22.5004
G07  21504155.6024  -19732969.92648 -17195012.96546  21504146.6134         49.7504         41.0004
G08  24001392.2114   -9281469.23747  -7698214.39944  24001384.8054         42.0004         27.5004
G10  24303091.1024   -6911611.33546  -5378318.57543  24303082.9344         40.7504         20.5004
G13  20260422.0474  -26838073.64648 -21887566.08447  20260411.9454         50.5004         42.5004
G16  24055068.0704   -5354365.51046  -3870194.75543  24055059.1994         41.0004         22.0004
G19  23396139.8364  -11120496.58346  -8633943.00144  23396128.4454         40.2504         25.2504
G20  23419890.1884  -11659620.40747  -9062416.79044  23419882.0784         45.0004         27.5004
G23  20326285.6954  -27279887.01448 -22061595.97846  20326274.5394         48.7504         40.0004
G28  25049860.0004   -1602042.53846  -1615636.42542  25049853.8244         38.5004         15.5004
> 2010 04 04 01 51 30.0000000  0 11
G03  22205547.0474  -16309450.97146 -13856258.69844  22205541.0474         39.0004         26.0004
G06  23032194.7664   -9380647.59146  -8722028.50643  23032185.5434         41.0004         22.2504
G07  21497502.9224  -19767928.47348 -17222253.37046  21497493.9344         49.5004         40.7504
G08  23989048.0234   -9346343.86147  -7748765.99544  23989040.2664         42.5004         28.5004
G10  24289098.4454   -6985143.82046  -5435616.59443  24289090.6294         41.2504         20.7504
G13  20255516.9064  -26863848.66748 -21907650.50747  20255507.6254         49.7504         43.2504
G16  24074704.6094   -5251176.01046  -3789787.35943  24074694.6844         40.5004         20.7504
G19  23382342.1414  -11193004.32446  -8690442.45943  23382330.0474         41.2504         23.2504
G20  23439632.6644  -11555875.81047  -8981576.89844  23439624.2624         45.2504         26.5004
G23  20330799.2114  -27256169.07348 -22043114.47146  20330787.8204         48.2504         39.5004
G28  25030544.3284   -1703538.79445  -1694724.01942  25030539.5004         34.2504         14.7504
> 2010 04 04 01 52 00.0000000  0 11
G03  22199532.9774  -16341057.56246 -13880887.16744  22199526.1564         40.0004         26.2504
G06  23030648.8754   -9388770.33346  -8728357.89343  23030639.5944         40.5004         22.0004
G07  21490882.8594  -19802719.22048 -17249363.01446  21490873.7544         49.7504         41.2504
G08  23976719.0164   -9411129.49047  -7799248.25544  23976711.6684         43.0004         27.5004
G10  24275181.2734   -7058279.24147  -5492605.22443  24275172.9884         42.7504         21.7504
G13  20250682.5084  -26889254.72448 -21927447.42347  20250672.6994         51.5004         43.0004
G16  24094365.9224   -5147852.81346  -3709275.75243  24094356.4654         41.0004         19.7504
G19  23368585.4614  -11265298.12946  -8746775.24644  23368573.3674         41.5004         25.2504
G20  23459388.8984  -11452055.73547  -8900678.16744  23459380.6134         46.0004         29.2504
G23  20335397.1954  -27232008.26647 -22024287.87246  20335385.6294         47.5004         39.7504
G28  25011250.2034   -1804932.31745  -1773731.59042  25011244.2624         35.7504         14.7504
> 2010 04 04 01 52 30.0000000  0 11
G03  22193616.8204  -16372146.39846 -13905112.19244  22193610.0594         40.2504         27.0004
G06  23029195.6094   -9396407.45346  -8734308.86243  23029186.3284         40.0004         22.0004
G07  21484294.2504  -19837342.38048 -17276342.07746  21484284.9104         49.7504         41.2504
G08  23964407.3674   -9475826.28647  -7849661.28144  23964400.3134         43.2504         27.0004
G10  24261340.4694   -7131015.58547  -5549282.88543  24261331.4224         44.2504         22.7504
G13  20245918.1954  -26914289.84248 -21946955.29647  20245908.5044         51.5004         43.0004
G16  24114053.0314   -5044398.36446  -3628661.87243  24114043.9844         40.5004         20.7504
G19  23354870.3134  -11337374.68247  -8802938.73644  23354859.2734         43.0004         26.7504
G20  23479158.9534  -11348162.91947  -8819722.75644  23479150.6684         45.2504         28.0004
G23  20340078.6954  -27207404.11847 -22005115.81946  20340067.3634         47.2504         39.5004
G28  24991974.9534   -1906220.85445  -1852657.34542  24991968.8954         35.5004         14.7504
> 2010 04 04 01 53 00.0000000  0 11
G03  22187800.7274  -16402714.22246 -13928931.23344  22187793.6134         39.0004         27.0004
G06  23027835.2114   -9403557.35346  -8739880.17843  23027825.9884         39.7504         22.0004
G07  21477737.2584  -19871797.80148 -17303190.42146  21477727.9774         49.7504         41.0004
G08  23952112.9614   -9540434.22247  -7900005.07244  23952105.0864         42.5004         27.5004
G10  24247575.5784   -7203349.71447  -5605647.12444  24247566.8834         44.2504         26.0004
G13  20241225.2734  -26938951.55048 -21966172.20547  20241216.2274         50.5004         43.2504
G16  24133764.0474   -4940814.62946  -3547947.26643  24133754.8834         40.2504         21.5004
G19  23341195.4454  -11409230.49247  -8858930.22744  23341185.1684         42.5004         27.2504
G20  23498942.1564  -11244199.46647  -8738712.30744  23498934.5164         45.2504         27.7504
G23  20344845.1254  -27182355.17248 -21985597.16246  20344834.2034         49.2504         39.7504
G28  24972721.1024   -2007402.10546  -1931499.57242  24972714.5164         36.5004         15.5004
> 2010 04 04 01 53 30.0000000  0 11
G03  22182083.1484  -16432759.81646 -13952343.34544  22182075.8594         40.7504         25.5004
G06  23026566.8284   -9410219.56646  -8745071.48543  23026558.2504         38.0004         21.5004
G07  21471212.5234  -19906086.43748 -17329908.82146  21471203.5944         50.2504         41.5004
G08  23939834.9454   -9604954.17847  -7950280.32344  23939826.1334         43.2504         27.2504
G10  24233887.3594   -7275280.29347  -5661696.90844  24233879.0744         44.0004         25.5004
G13  20236603.7894  -26963238.82848 -21985097.36447  20236594.1564         50.2504         43.0004
G16  24153499.1334   -4837104.62246  -3467134.23643  24153490.5554         40.0004         21.2504
G19  23327564.4924  -11480862.76447  -8914747.50844  23327554.8014         42.0004         27.5004
G20  23518738.7034  -11140168.75247  -8657649.44944  23518730.5354         45.5004         27.5004
G23  20349696.8914  -27156861.56348 -21965732.02546  20349685.3834         48.7504         40.5004
G28  24953487.7504   -2108474.89646  -2010257.29442  24953480.3444         40.5004         15.5004
> 2010 04 04 01 54 00.0000000  0 11
G03  22176464.5394  -16462280.79946 -13975346.65444  22176457.9534         39.0004         25.0004
G06  23025391.9304   -9416392.38346  -8749881.44143  23025383.5864         37.2504         21.0004
G07  21464719.1884  -19940208.26048 -17356497.21946  21464710.0234         50.0004         41.2504
G08  23927574.7034   -9669386.05447  -8000486.93044  23927565.5394         43.0004         26.5004
G10  24220276.6334   -7346804.67547  -5717430.16644  24220268.3484         44.0004         27.2504
G13  20232053.8284  -26987149.23448 -22003728.83147  20232044.1374         51.0004         43.5004
G16  24173257.7974   -4733270.52746  -3386224.55143  24173249.2774         37.2504         20.2504
G19  23313976.2664  -11552267.59646  -8970387.56444  23313966.9264         41.5004         26.7504
G20  23538547.6024  -11036073.22847  -8576536.07344  23538539.6094         45.0004         26.7504
G23  20354632.7424  -27130922.22548 -21945519.56546  20354621.7034         48.2504         40.0004
G28  24934273.9614   -2209436.50246  -2088928.41542  24934267.9614         40.2504         17.7504
> 2010 04 04 01 54 30.0000000  0 11
G03  22170947.5474  -16491275.31146 -13997939.73944  22170940.6684         41.2504         26.0004
G06  23024310.2894   -9422075.28846  -8754309.63843  23024302.1214         36.2504         21.5004
G07  21458257.8524  -19974163.85048 -17382956.09646  21458248.6884         49.7504         41.0004
G08  23915330.2344   -9733730.17147  -8050625.15744  23915321.1884         43.0004         26.2504
G10  24206743.5164   -7417920.79347  -5772845.28644  24206735.8164         42.7504         26.2504
G13  20227575.7034  -27010681.48948 -22022065.64747  20227566.0124         51.2504         43.5004
G16  24193039.7814   -4629314.82845  -3305220.17343  24193031.4964         35.5004         19.2504
G19  23300431.9454  -11623442.15046  -9025848.18144  23300423.2504         41.0004         27.5004
G20  23558368.1094  -10931916.09647  -8495374.69144  23558360.0004         44.0004         27.5004
G23  20359653.5314  -27104537.00748 -21924959.66746  20359642.4924         48.5004         40.0004
G28  24915082.5234   -2310285.54346  -2167511.87942  24915076.5234         38.2504         16.7504
> 2010 04 04 01 55 00.0000000  0 11
G03  22165530.4064  -16519742.12146 -14020121.60344  22165523.5274         39.0004         25.5004
G06  23023322.5944   -9427267.50346  -8758355.52043  23023314.3674         37.5004         21.5004
G07  21451827.8204  -20007953.73448 -17409285.84146  21451818.4224         49.0004         41.0004
G08  23903102.0394   -9797987.56347  -8100695.78544  23903093.5784         43.2504         26.5004
G10  24193288.1484   -7488626.83947  -5827940.85744  24193280.8594         42.0004         25.2504
G13  20223170.2194  -27033834.17148 -22040106.67947  20223160.1174         52.0004         42.7504
G16  24212844.0554   -4525240.44346  -3224123.24243  24212835.8284         36.2504         19.0004
G19  23286931.5004  -11694384.05646  -9081127.49644  23286923.3914         40.0004         27.0004
G20  23578199.8204  -10827700.28247  -8414167.58944  23578192.0634         44.5004         27.0004
G23  20364759.6094  -27077705.52847 -21904052.01646  20364748.2774         47.0004         39.5004
G28  24895913.9774   -2411020.33246  -2246006.28242  24895907.1564         39.7504         16.2504
> 2010 04 04 01 55 30.0000000  0 11
G03  22160214.0784  -16547678.76646 -14041890.38344  22160206.8484         41.2504         27.2504
G06  23022427.5944   -9431967.70546  -8762017.94443  23022419.6604         37.5004         21.2504
G07  21445429.4064  -20041577.87448 -17435486.45746  21445420.1254         48.5004         41.0004
G08  23890890.7584   -9862157.69147  -8150698.43844  23890882.1214         42.5004         27.5004
G10  24179912.3524   -7558920.07047  -5882714.76544  24179904.1254         42.0004         25.2504
G13  20218836.6254  -27056605.15348 -22057850.30447  20218827.2854         51.5004         43.5004
G16  24232671.8054   -4421049.84646  -3142935.78243  24232662.7584         38.2504         20.0004
G19  23273476.4454  -11765089.28546  -9136222.38244  23273468.5704         39.7504         24.5004
G20  23598041.7504  -10723428.05647  -8332916.56744  23598033.5234         44.0004         26.2504
G23  20369950.6254  -27050426.83747 -21882795.91446  20369939.5274         47.5004         40.5004
G28  24876766.8364   -2511638.60446  -2324409.85942  24876760.7194         39.7504         16.7504
> 2010 04 04 01 56 00.0000000  0 11
G03  22154999.7424  -16575084.46946 -14063245.42344  22154992.2194         41.0004         26.0004
G06  23021625.8674   -9436176.07846  -8765297.17043  23021619.3404         36.5004         22.2504
G07  21439061.8284  -20075037.85148 -17461559.12546  21439052.6054         49.0004         41.0004
G08  23878695.8674   -9926242.26046  -8200634.40944  23878687.7584         41.7504         28.7504
G10  24166614.5704   -7628799.58647  -5937166.30143  24166606.7544         43.0004         23.2504
G13  20214576.4924  -27078993.70448 -22075295.91547  20214566.6844         52.5004         43.2504
G16  24252519.7034   -4316746.39746  -3061660.31643  24252511.5944         39.2504         20.2504
G19  23260067.3834  -11835556.06946  -9191131.48644  23260058.0434         40.5004         27.0004
G20  23617894.4614  -10619103.59647  -8251624.79344  23617886.7624         43.7504         25.7504
G23  20375226.6024  -27022701.77047 -21861191.97446  20375215.7384         47.0004         39.7504
G28  24857641.6094   -2612139.61446  -2402722.11442  24857634.6724         40.7504         17.7504
> 2010 04 04 01 56 30.0000000  0 11
G03  22149885.3674  -16601956.15846 -14084184.36644  22149878.1374         39.7504         26.7504
G06  23020920.9774   -9439890.49646  -8768191.49443  23020913.4534         36.0004         22.5004
G07  21432726.3674  -20108332.87248 -17487503.27846  21432716.9694         49.0004         41.2504
G08  23866517.0704   -9990240.68847  -8250503.24444  23866509.0784         42.5004         28.0004
G10  24153396.4064   -7698262.17947  -5991292.94344  24153388.6484         42.7504         25.5004
G13  20210389.3914  -27100996.86748 -22092441.23447  20210379.6994         51.0004         43.2504
G16  24272389.4774   -4212331.30546  -2980297.89443  24272381.6604         40.0004         21.0004
G19  23246703.9064  -11905779.81946  -9245851.21944  23246695.2704         41.2504         26.0004
G20  23637756.3984  -10514728.32147  -8170293.46544  23637747.9964         44.5004         25.0004
G23  20380587.6174  -26994528.66247 -21839238.91846  20380576.6954         47.5004         40.0004
G28  24838538.8984   -2712520.27046  -2480940.57242  24838533.7194         39.5004         17.2504
> 2010 04 04 01 57 00.0000000  0 11
G03  22144874.3984  -16628290.83046 -14104704.82944  22144866.8164         39.0004         26.2504
G06  23020308.3054   -9443108.80346  -8770699.22544  23020300.3714         38.0004         24.5004
G07  21426421.9774  -20141462.14648 -17513318.26746  21426412.6954         49.2504         41.0004
G08  23854355.5784  -10054151.57047  -8300303.88144  23854347.2934         42.5004         28.0004
G10  24140257.3284   -7767304.79747  -6045092.34743  24140249.8634         42.7504         22.7504
G13  20206275.9694  -27122611.78248 -22109284.01747  20206266.1604         52.0004         43.0004
G16  24292280.1804   -4107805.90746  -2898849.49143  24292271.8364         39.5004         19.0004
G19  23233388.7894  -11975756.41646  -9300378.35144  23233378.8634         41.5004         27.0004
G20  23657627.5004  -10410304.04547  -8088923.93844  23657619.5664         43.2504         24.5004
G23  20386034.5164  -26965905.83447 -21816935.42046  20386023.4184         47.0004         40.0004
G28  24819461.2194   -2812777.48846  -2559062.85642  24819454.4574         38.0004         17.7504
> 2010 04 04 01 57 30.0000000  0 11
G03  22139965.4384  -16654090.18946 -14124808.20844  22139956.8594         40.7504         27.2504
G06  23019788.6884   -9445833.68445  -8772822.48543  23019781.7504         35.5004         22.7504
G07  21420148.5944  -20174429.44748 -17539007.04846  21420138.8444         49.5004         41.2504
G08  23842210.0234  -10117978.96047  -8350039.45344  23842200.7424         42.0004         27.0004
G10  24127198.4534   -7835928.69247  -6098565.49943  24127190.7544         43.0004         22.5004
G13  20202236.4144  -27143840.31848 -22125825.71747  20202226.7234         51.7504         42.7504
G16  24312190.4774   -4003176.38846  -2817319.96643  24312181.8404         39.2504         18.5004
G19  23220120.2814  -12045486.30147  -9354713.28544  23220108.5984         43.7504         26.0004
G20  23677507.1024  -10305836.77247  -8007520.89744  23677498.8164         43.0004         25.5004
G23  20391566.3204  -26936836.27147 -21794283.81246  20391554.9884         47.5004         39.7504
G28  24800406.3204   -2912912.94746  -2637090.27042  24800400.1454         38.5004         17.2504
> 2010 04 04 01 58 00.0000000  0 11
G03  22135158.4614  -16679350.03346 -14144491.16044  22135150.1174         41.5004         25.7504
G06  23019365.2274   -9448061.91346  -8774558.73043  23019358.1134         38.5004         22.7504
G07  21413906.0234  -20207232.61948 -17564567.94146  21413896.6844         50.5004         41.0004
G08  23830079.8134  -10181721.25347  -8399708.72144  23830070.5904         42.5004         27.5004
G10  24114220.1414   -7904129.08447  -6151708.63643  24114212.6764         42.5004         22.5004
G13  20198271.2114  -27164678.42148 -22142063.19847  20198261.6954         51.2504         42.7504
G16  24332120.5634   -3898442.68146  -2735709.28443  24332111.8094         39.7504         20.2504
G19  23206898.6334  -12114963.40247  -9408851.23644  23206887.5354         43.2504         27.0004
G20  23697395.0234  -10201326.99647  -7926084.74344  23697386.6804         44.0004         26.0004
G23  20397183.5314  -26907317.22847 -21771281.97246  20397172.3754         47.7504         39.5004
G28  24781375.2894   -3012922.37646  -2715019.45742  24781368.7034         37.5004         17.7504
> 2010 04 04 01 58 30.0000000  0 11
G03  22130454.4304  -16704068.62346 -14163752.36744  22130446.3204         41.5004         26.5004
G06  23019036.3444   -9449793.02446  -8775907.61543  23019028.4694         36.2504         22.5004
G07  21407694.6954  -20239872.47948 -17590001.57346  21407685.8834         50.2504         41.5004
G08  23817966.3054  -10245378.62847  -8449311.82444  23817957.3164         42.0004         28.0004
G10  24101322.6414   -7971904.60446  -6204520.70943  24101316.0554         41.0004         23.7504
G13  20194380.3524  -27185124.53548 -22157995.23447  20194370.6604         51.7504         43.0004
G16  24352069.5394   -3793607.79146  -2654019.76243  24352061.7234         40.0004         22.2504
G19  23193725.9844  -12184185.85747  -9462790.76444  23193715.0634         43.0004         26.0004
G20  23717290.0164  -10096778.04047  -7844618.03444  23717281.1454         44.5004         24.5004
G23  20402885.8754  -26877348.70948 -21747929.88346  20402875.0124         49.0004         39.5004
G28  24762367.5394   -3112804.32446  -2792849.31743  24762361.1884         38.0004         18.5004
> 2010 04 04 01 59 00.0000000  0 11
G03  22125853.8134  -16728244.72146 -14182590.84244  22125845.5274         40.5004         27.5004
G06  23018802.3284   -9451026.18446  -8776868.47943  23018793.8094         37.0004         22.7504
G07  21401514.9384  -20272349.26248 -17615308.13746  21401505.6564         50.5004         41.2504
G08  23805867.7114  -10308951.55147  -8498849.11744  23805860.1884         42.0004         29.0004
G10  24088507.6414   -8039253.35246  -6257000.21943  24088499.4734         41.5004         23.0004
G13  20190564.2344  -27205177.30648 -22173620.77247  20190554.6604         51.5004         43.5004
G16  24372039.0314   -3688674.12146  -2572253.28643  24372029.9844         41.0004         22.7504
G19  23180602.4924  -12253149.92447  -9516528.93144  23180591.3364         42.2504         26.0004
G20  23737191.5004   -9992192.50747  -7763122.87144  23737183.5084         44.5004         25.5004
G23  20408674.9694  -26846929.99948 -21724226.99946  20408663.3444         48.5004         39.7504
G28  24743384.5704   -3212556.69546  -2870578.20243  24743379.3324         39.0004         19.7504
> 2010 04 04 01 59 30.0000000  0 11
G03  22121356.6414  -16751876.36746 -14201005.06144  22121348.5314         40.2504         26.0004
G06  23018661.5394   -9451760.31746  -8777440.50243  23018653.8404         37.5004         23.0004
G07  21395365.6564  -20304663.21748 -17640487.81746  21395356.8444         49.5004         41.5004
G08  23793786.3834  -10372440.34247  -8548320.85144  23793777.8634         42.5004         28.5004
G10  24075773.7664   -8106172.79746  -6309145.20843  24075765.4804         41.2504         22.7504
G13  20186823.6724  -27224834.59448 -22188938.12947  20186813.8054         51.2504         42.7504
G16  24392025.7274   -3583643.86646  -2490411.53143  24392016.4454         41.5004         22.7504
G19  23167528.3524  -12321852.36647  -9570063.24644  23167516.9024         42.0004         24.7504
G20  23757100.6414   -9887573.03447  -7681601.23044  23757091.3014         44.7504         25.7504
G23  20414549.0314  -26816060.90347 -21700173.16546  20414537.9344         47.0004         40.0004
G28  24724427.4924   -3312177.72746  -2948204.73943  24724421.4924         36.2504         19.2504
> 2010 04 04 02 00 00.0000000  0 11
G03  22116963.1644  -16774961.74546 -14218993.64944  22116956.1094         41.0004         26.5004
G06  23018616.9224   -9451995.02146  -8777623.35444  23018608.6954         38.5004         25.0004
G07  21389247.0004  -20336814.93948 -17665541.08147  21389238.2464         49.7504         42.5004
G08  23781720.8444  -10435845.36946  -8597727.29344  23781713.7894         41.2504         28.7504
G10  24063120.8594   -8172661.33646  -6360954.37843  24063112.6914         40.5004         21.5004
G13  20183158.6254  -27244095.32548 -22203946.48347  20183148.6994         51.7504         43.0004
G16  24412030.1884   -3478519.67747  -2408496.57944  24412021.3164         42.0004         24.7504
G19  23154505.4694  -12390290.22347  -9623391.40244  23154495.1334         42.5004         27.7504
G20  23777014.1174   -9782922.55447  -7600055.42344  23777006.0664         44.0004         26.7504
G23  20420509.1954  -26784741.20647 -21675768.21446  20420497.8634         47.7504         39.7504
G28  24705495.1094   -3411665.62446  -3025727.60143  24705488.4064         38.2504         18.2504
> 2010 04 04 02 00 30.0000000  0 11
G03  22112674.4144  -16797500.87347 -14236556.57744  22112666.7734         42.7504         25.5004
G06  23018668.3444   -9451731.05046  -8777417.61243  23018659.0044         38.2504         22.5004
G07  21383159.5704  -20368806.13848 -17690469.26246  21383150.0554         50.2504         41.2504
G08  23769671.1644  -10499168.63047  -8647070.03244  23769663.4654         42.5004         28.5004
G10  24050550.6724   -8238718.09046  -6412427.12243  24050542.3874         41.5004         22.7504
G13  20179568.7894  -27262958.98948 -22218645.42747  20179559.1564         51.7504         42.0004
G16  24432051.8204   -3373305.49846  -2326511.48543  24432043.3014         41.7504         22.7504
G19  23141532.8054  -12458462.08147  -9676512.24944  23141522.0004         42.0004         26.5004
G20  23796933.8054   -9678245.15247  -7518488.64644  23796925.2854         44.2504         24.7504
G23  20426554.4384  -26752972.03348 -21651013.01846  20426543.1054         48.7504         39.0004
G28  24686588.4064   -3511020.29846  -3103146.63943  24686581.4694         38.5004         19.0004
> 2010 04 04 02 01 00.0000000  0 11
G03  22108490.6414  -16819488.26947 -14253689.56544  22108483.1174         42.0004         27.0004
G06  23018814.1644   -9450964.12346  -8776819.98343  23018805.1764         37.0004         22.5004
G07  21377103.0864  -20400633.92548 -17715270.12146  21377093.4534         49.0004         41.2504
G08  23757637.1724  -10562406.48847  -8696346.21145  23757629.5904         42.0004         30.0004
G10  24038063.7734   -8304337.77947  -6463559.31444  24038056.0164         42.5004         24.5004
G13  20176055.6644  -27281420.48448 -22233031.00347  20176046.0904         51.7504         43.0004
G16  24452090.7114   -3268000.25046  -2244455.47243  24452081.6054         40.2504         20.7504
G19  23128611.1414  -12526361.38546  -9729420.75544  23128601.3324         41.5004         26.5004
G20  23816858.2114   -9573540.26847  -7436900.49744  23816850.3954         43.5004         25.5004
G23  20432686.1024  -26720749.47948 -21625904.54246  20432674.7704         48.2504         39.5004
G28  24667708.6334   -3610236.17046  -3180457.49943  24667701.6954         39.7504         19.7504
> 2010 04 04 02 01 30.0000000  0 11
G03  22104410.6254  -16840924.90946 -14270393.39544  22104403.9804         41.0004         27.0004
G06  23019054.4384   -9449696.14546  -8775831.93344  23019046.2114         37.5004         24.0004
G07  21371076.7894  -20432301.03248 -17739945.76046  21371067.7424         49.2504         41.0004
G08  23745619.5164  -10625562.61747  -8745558.70845  23745611.2304         42.0004         30.7504
G10  24025659.9144   -8369521.32447  -6514351.64843  24025651.6884         43.0004         23.5004
G13  20172618.9064  -27299480.98948 -22247104.11547  20172609.5084         52.0004         42.5004
G16  24472146.1254   -3162609.15346  -2162332.50043  24472137.1374         40.2504         19.0004
G19  23115742.4614  -12593987.53346  -9782116.38344  23115732.8284         41.0004         26.7504
G20  23836787.3524   -9468813.34047  -7355295.10344  23836778.1884         43.7504         24.7504
G23  20438903.7194  -26688075.99148 -21600444.68646  20438892.7974         49.2504         40.0004
G28  24648854.5944   -3709314.05647  -3257660.87443  24648846.1914         42.2504         20.5004
> 2010 04 04 02 02 00.0000000  0 11
G03  22100437.3364  -16861808.70047 -14286666.44244  22100429.4614         43.2504         27.0004
G06  23019392.1174   -9447925.64246  -8774452.27943  23019383.0704         36.7504         22.7504
G07  21365081.5394  -20463806.91048 -17764495.77646  21365072.1994         49.5004         41.5004
G08  23733616.7114  -10688636.04247  -8794706.76145  23733609.1884         44.0004         30.0004
G10  24013339.1724   -8434265.80047  -6564801.88743  24013330.7114         42.7504         22.7504
G13  20169258.9774  -27317137.65648 -22260862.55847  20169249.2274         51.5004         42.7504
G16  24492217.7974   -3057133.55846  -2080143.71442  24492207.9304         37.5004         17.2504
G19  23102926.2894  -12661336.45346  -9834595.99844  23102917.3014         41.0004         27.7504
G20  23856720.0234   -9364065.93347  -7273673.77444  23856712.2074         43.0004         25.5004
G23  20445207.2424  -26654950.25948 -21574632.43746  20445196.1454         48.5004         40.0004
G28  24630027.8204   -3808251.25747  -3334754.69543  24630018.4224         42.7504         20.7504
> 2010 04 04 02 02 30.0000000  0 11
G03  22096568.7274  -16882137.88847 -14302507.33744  22096560.3244         43.0004         27.5004
G06  23019823.9384   -9445651.94146  -8772680.52043  23019815.4774         38.7504         23.0004
G07  21359116.7734  -20495151.70048 -17788920.26446  21359107.6094         49.0004         41.2504
G08  23721630.6884  -10751626.94947  -8843790.52244  23721621.9344         45.0004         29.5004
G10  24001102.0944   -8498568.96546  -6614908.25043  24001094.1604         41.7504         22.5004
G13  20165975.9844  -27334388.77448 -22274304.98447  20165966.5274         51.0004         42.7504
G16  24512304.0394   -2951575.73945  -1997890.86042  24512294.6994         34.0004         16.2504
G19  23090163.2424  -12728404.92446  -9886857.07444  23090154.1954         41.0004         27.2504
G20  23876656.4774   -9259301.02547  -7192038.82844  23876648.4844         42.2504         24.0004
G23  20451597.1094  -26621371.84148 -21548467.44146  20451586.0704         48.0004         39.2504
G28  24611227.9304   -3907046.06947  -3411737.49743  24611217.9454         43.5004         20.5004
> 2010 04 04 02 03 00.0000000  0 11
G03  22092806.2424  -16901910.75247 -14317914.74244  22092797.7234         42.7504         27.0004
G06  23020353.2504   -9442874.23746  -8770516.04644  23020344.5554         39.0004         24.2504
G07  21353182.5314  -20526335.72648 -17813219.47846  21353172.9574         49.0004         41.0004
G08  23709659.2344  -10814535.51047  -8892810.12645  23709650.8914         44.2504         30.0004
G10  23988950.3674   -8562429.24846  -6664669.51143  23988941.4964         41.2504         21.7504
G13  20162770.8524  -27351233.11248 -22287430.43447  20162761.3364         52.0004         42.5004
G16  24532406.3204   -2845938.24445  -1915575.91342  24532396.5124         33.0004         16.7504
G19  23077454.7114  -12795190.17446  -9938897.45844  23077445.0784         41.2504         26.5004
G20  23896594.8914   -9154521.30146  -7110392.31943  23896587.0164         41.0004         23.5004
G23  20458073.2894  -26587340.81848 -21521949.77346  20458062.0744         48.0004         40.0004
G28  24592455.6094   -4005696.54247  -3488607.90843  24592445.6254         42.7504         20.5004
> 2010 04 04 02 03 30.0000000  0 11
G03  22089149.2274  -16921126.25147 -14332887.82244  22089141.3524         43.0004         28.2504
G06  23020977.1484   -9439592.07846  -8767958.51143  23020968.8634         36.5004         22.5004
G07  21347278.7504  -20557359.50748 -17837393.83246  21347269.9964         49.0004         41.2504
G08  23697703.2504  -10877363.06147  -8941766.61145  23697695.4344         44.7504         31.0004
G10  23976882.5164   -8625844.40146  -6714083.91943  23976874.4064         40.2504         21.5004
G13  20159642.8594  -27367669.05048 -22300237.65547  20159633.5204         51.2504         42.5004
G16  24552522.7814   -2740223.29945  -1833200.64843  24552513.8524         34.5004         18.2504
G19  23064800.8914  -12861689.14246  -9990714.78544  23064790.9064         41.5004         27.2504
G20  23916536.8284   -9049729.48546  -7028736.39444  23916528.4264         41.2504         24.0004
G23  20464634.9694  -26552856.78548 -21495079.10446  20464623.8134         48.5004         39.2504
G28  24573710.7664   -4104201.24947  -3565364.68843  24573702.3634         43.2504         21.7504
> 2010 04 04 02 04 00.0000000  0 11
G03  22085599.6804  -16939782.61747 -14347425.21644  22085590.8674         42.0004         27.2504
G06  23021697.7894   -9435805.13846  -8765007.61443  23021689.7384         36.7504         23.0004
G07  21341405.6334  -20588223.78148 -17861443.89046  21341396.4104         49.5004         41.0004
G08  23685762.7814  -10940109.68747  -8990660.03245  23685754.7894         43.5004         30.5004
G10  23964899.7894   -8688812.88646  -6763150.25943  23964891.7974         40.0004         22.7504
G13  20156593.4844  -27383695.12548 -22312725.48847  20156584.0274         51.5004         43.2504
G16  24572654.4454   -2634434.09346  -1750767.49443  24572645.2814         37.0004         18.5004
G19  23052201.8364  -12927898.89547 -10042306.73244  23052192.1454         42.5004         29.0004
G20  23936479.1174   -8944928.64646  -6947073.44043  23936471.3594         41.2504         22.5004
G23  20471283.3524  -26517919.86348 -21467855.53846  20471272.3714         49.0004         39.2504
G28  24554993.3674   -4202558.06846  -3642006.20543  24554986.8984         41.5004         22.0004
> 2010 04 04 02 04 30.0000000  0 11
G03  22082155.9614  -16957878.97546 -14361526.24544  22082147.6764         40.5004         28.0004
G06  23022515.3984   -9431512.96346  -8761663.04143  23022505.8244         37.7504         22.7504
G07  21335562.8054  -20618928.53148 -17885369.65446  21335553.8164         49.0004         41.5004
G08  23673838.1644  -11002775.30047  -9039490.32245  23673830.5234         45.0004         31.2504
G10  23953002.3754   -8751333.19846  -6811867.38644  23952994.9694         39.7504         24.0004
G13  20153622.3204  -27399309.79248 -22324892.76047  20153612.3364         50.7504         42.7504
G16  24592799.1724   -2528572.60446  -1668278.03343  24592790.3594         37.5004         19.2504
G19  23039657.7344  -12993816.40446 -10093670.97044  23039647.5744         41.5004         28.0004
G20  23956423.2734   -8840121.38546  -6865405.48043  23956415.1644         38.7504         22.7504
G23  20478017.9844  -26482530.08448 -21440279.10346  20478006.8874         49.5004         40.0004
G28  24536304.7344   -4300765.41146  -3718531.24743  24536299.0274         41.7504         22.5004
> 2010 04 04 02 05 00.0000000  0 11
G03  22078819.6564  -16975412.49947 -14375188.70944  22078811.3134         44.5004         28.5004
G06  23023427.4064   -9426713.73646  -8757923.34743  23023419.0634         37.0004         22.7504
G07  21329750.1954  -20649473.11348 -17909170.60247  21329740.9144         50.0004         42.0004
G08  23661928.9144  -11065359.32247  -9088257.05145  23661921.2154         45.2504         32.5004
G10  23941191.8444   -8813401.77646  -6860232.49844  23941183.7934         41.2504         26.5004
G13  20150729.2114  -27414510.00248 -22336737.07247  20150719.6374         51.2504         42.7504
G16  24612957.1644   -2422640.13846  -1585733.25343  24612948.1764         36.5004         18.5004
G19  23027170.7814  -13059437.39346 -10144804.15044  23027160.2704         41.2504         28.5004
G20  23976368.1414   -8735309.43246  -6783733.87743  23976360.9104         39.7504         22.7504
G23  20484838.6254  -26446685.30848 -21412348.10246  20484827.5274         48.7504         39.2504
G28  24517644.3444   -4398820.52646  -3794937.65443  24517639.5164         39.5004         22.0004
> 2010 04 04 02 05 30.0000000  0 11
G03  22075590.0634  -16992382.39847 -14388411.99244  22075581.9534         43.7504         27.5004
G06  23024436.2114   -9421407.98146  -8753788.96143  23024428.4534         36.2504         22.5004
G07  21323967.9224  -20679858.79148 -17932847.72646  21323958.8164         49.7504         41.5004
G08  23650033.9924  -11127863.93847  -9136961.87445  23650027.4064         45.7504         31.5004
G10  23929466.2344   -8875018.32546  -6908245.36444  23929458.7114         40.5004         27.0004
G13  20147915.8674  -27429295.71948 -22348258.39247  20147906.0594         51.7504         42.5004
G16  24633128.3054   -2316640.30846  -1503135.96243  24633118.9064         38.2504         18.2504
G19  23014739.9454  -13124760.02747 -10195704.82744  23014730.0784         42.2504         28.2504
G20  23996314.8054   -8630496.41146  -6702061.42943  23996305.7584         40.5004         22.5004
G23  20491746.0394  -26410387.29648 -21384063.94546  20491735.4104         48.2504         40.0004
G28  24499014.0784   -4496722.68346  -3871224.82243  24499009.7194         39.5004         22.2504
> 2010 04 04 02 06 00.0000000  0 11
G03  22072468.4064  -17008787.55547 -14401195.20044  22072459.5354         43.7504         28.5004
G06  23025542.2664   -9415595.35946  -8749259.61743  23025534.8594         37.7504         22.7504
G07  21318216.3054  -20710085.86748 -17956401.27146  21318207.1994         49.2504         41.7504
G08  23638155.1954  -11190288.95247  -9185604.68745  23638148.0824         44.2504         31.2504
G10  23917828.2114   -8936180.65546  -6955904.31944  23917819.9264         40.5004         27.7504
G13  20145181.5784  -27443665.26048 -22359455.43747  20145171.6524         52.0004         43.0004
G16  24653311.7194   -2210575.24346  -1420487.84842  24653302.6724         37.5004         15.5004
G19  23002367.2114  -13189781.19447 -10246370.61544  23002356.1724         42.0004         27.0004
G20  24016258.7894   -8525685.01546  -6620390.22343  24016251.0904         40.5004         21.5004
G23  20498739.5234  -26373635.66448 -21355426.31846  20498728.7774         49.2504         39.7504
G28  24480413.4534   -4594469.85246  -3947391.27043  24480408.7424         40.0004         22.5004
> 2010 04 04 02 06 30.0000000  0 11
G03  22069454.5084  -17024626.63546 -14413537.33444  22069445.6374         40.7504         27.7504
G06  23026745.3984   -9409275.20346  -8744334.77743  23026737.4654         38.2504         22.7504
G07  21312493.8594  -20740154.72348 -17979831.51546  21312484.6954         49.5004         41.5004
G08  23626290.9144  -11252634.30047  -9234185.40745  23626283.6254         45.0004         31.0004
G10  23906276.1174   -8996886.95546  -7003207.89144  23906267.7734         41.5004         26.2504
G13  20142526.3674  -27457617.11948 -22370327.00247  20142516.3834         51.0004         42.7504
G16  24673506.8984   -2104447.53946  -1337790.86842  24673497.6174         37.7504         16.7504
G19  22990051.4384  -13254497.95046 -10296799.22744  22990040.4574         41.5004         25.5004
G20  24036202.9774   -8420878.25046  -6538722.64143  24036195.3954         40.0004         22.5004
G23  20505819.5944  -26336430.24848 -21326435.09046  20505809.0824         49.5004         39.5004
G28  24461843.1884   -4692060.52346  -4023435.73044  24461837.1884         40.7504         24.5004
> 2010 04 04 02 07 00.0000000  0 11
G03  22066547.4924  -17039898.17246 -14425437.20844  22066539.7934         41.5004         28.0004
G06  23028045.6024   -9402447.21246  -8739014.24443  23028036.5554         39.5004         22.7504
G07  21306801.8674  -20770065.74748 -18003138.78546  21306792.6454         49.7504         41.5004
G08  23614442.5234  -11314900.65247  -9282704.59445  23614434.2974         45.0004         30.2504
G10  23894810.6024   -9057135.44046  -7050154.73444  23894802.1994         40.7504         26.0004
G13  20139951.5004  -27471149.38448 -22380871.62047  20139941.5164         52.0004         42.0004
G16  24693714.6804   -1998259.16046  -1255046.69942  24693704.6954         39.0004         16.7504
G19  22977793.8984  -13318907.09746 -10346988.12744  22977782.8014         39.5004         25.2504
G20  24056145.6564   -8316078.52046  -6457060.56743  24056138.1334         41.0004         22.0004
G23  20512985.8754  -26298770.75848 -21297090.03946  20512975.1294         49.7504         40.2504
G28  24443301.8054   -4789492.69046  -4099356.70043  24443296.0394         40.7504         23.5004
> 2010 04 04 02 07 30.0000000  0 11
G03  22063750.1174  -17054600.95947 -14436893.90844  22063742.1844         42.5004         28.0004
G06  23029440.8914   -9395110.96646  -8733297.66543  23029433.1914         38.5004         23.5004
G07  21301140.3054  -20799819.35248 -18026323.38746  21301131.0824         50.2504         41.2504
G08  23602608.2894  -11377088.49247  -9331162.60545  23602600.8244         44.5004         30.2504
G10  23883433.2504   -9116924.40846  -7096743.52044  23883424.9654         39.0004         24.5004
G13  20137456.5554  -27484260.91548 -22391088.37847  20137446.0434         51.0004         42.2504
G16  24713932.0784   -1892012.64146  -1172257.14743  24713923.0904         38.5004         18.5004
G19  22965596.5634  -13383005.81446 -10396935.11744  22965586.2854         39.2504         26.5004
G20  24076086.4384   -8211288.29046  -6375405.85943  24076078.5634         40.0004         20.2504
G23  20520238.8524  -26260657.15048 -21267391.13446  20520227.8134         50.5004         39.7504
G28  24424792.3054   -4886764.95947  -4175153.09744  24424785.4844         43.2504         24.0004
> 2010 04 04 02 08 00.0000000  0 11
G03  22061060.8914  -17068732.96647 -14447905.83444  22061052.6054         44.0004         29.2504
G06  23030934.5164   -9387265.45946  -8727184.23144  23030926.8164         40.2504         24.2504
G07  21295508.5474  -20829414.74048 -18049384.70946  21295498.7974         49.0004         41.2504
G08  23590789.1804  -11439197.54447  -9379559.20845  23590782.4184         45.2504         31.0004
G10  23872143.5314   -9176251.54146  -7142972.40843  23872135.3634         38.7504         23.2504
G13  20135042.1414  -27496949.57548 -22400975.64347  20135032.1564         52.2504         42.5004
G16  24734161.0234   -1785709.63746  -1089423.62043  24734151.9774         39.7504         21.0004
G19  22953458.2504  -13446790.21146 -10446637.17944  22953449.0274         39.0004         26.0004
G20  24096025.0704   -8106510.13146  -6293760.53643  24096017.6644         40.5004         21.5004
G23  20527578.1954  -26222088.77448 -21237337.85846  20527567.2154         50.0004         39.7504
G28  24406312.9454   -4983874.83747  -4250822.96043  24406305.7734         42.0004         23.0004
> 2010 04 04 02 08 30.0000000  0 11
G03  22058480.5314  -17082293.53647 -14458472.49744  22058471.8954         43.0004         28.0004
G06  23032524.2584   -9378910.77046  -8720674.07744  23032516.2074         38.2504         24.0004
G07  21289906.7034  -20858852.78148 -18072323.42846  21289897.3054         50.0004         41.2504
G08  23578984.7194  -11501228.27747  -9427894.79045  23578978.0164         45.5004         31.7504
G10  23860942.7894   -9235115.35146  -7188840.28343  23860933.6844         39.5004         23.0004
G13  20132708.0944  -27509214.26848 -22410532.53347  20132698.3444         51.2504         42.7504
G16  24754400.2274   -1679353.33046  -1006548.56743  24754389.8324         40.0004         21.7504
G19  22941380.7424  -13510257.87846 -10496092.44244  22941371.4614         39.7504         26.7504
G20  24115961.2584   -8001746.81046  -6212126.78943  24115952.2114         41.0004         20.0004
G23  20535004.0554  -26183065.92248 -21206930.44446  20534993.1914         49.7504         40.0004
G28  24387864.2974   -5080821.05747  -4326365.31243  24387856.4804         42.2504         22.7504
> 2010 04 04 02 09 00.0000000  0 11
G03  22056009.4774  -17095280.88647 -14468592.48344  22056000.6644         43.7504         28.5004
G06  23034210.8594   -9370046.14646  -8713766.55043  23034203.0434         39.7504         22.5004
G07  21284334.4694  -20888133.59548 -18095139.63046  21284324.9534         49.5004         41.5004
G08  23567195.3134  -11563180.91947  -9476169.51144  23567188.6094         43.7504         29.7504
G10  23849829.2814   -9293513.83646  -7234345.55144  23849820.7624         41.0004         26.0004
G13  20130454.8674  -27521052.97548 -22419757.49747  20130445.2934         51.0004         43.2504
G16  24774648.5314   -1572945.19346   -923633.09543  24774639.6024         40.7504         22.5004
G19  22929364.6094  -13573405.69746 -10545298.48544  22929355.4454         40.7504         28.7504
G20  24135893.8444   -7897000.82746  -6130506.60743  24135885.6764         39.2504         20.0004
G23  20542516.4304  -26143588.23348 -21176168.61846  20542504.9804         50.0004         40.0004
G28  24369447.1484   -5177601.69447  -4401778.64143  24369439.2154         42.2504         21.5004
> 2010 04 04 02 09 30.0000000  0 11
G03  22053647.4064  -17107694.27346 -14478265.23744  22053637.9494         40.7504         27.0004
G06  23035994.3914   -9360671.53146  -8706461.63443  23035987.0434         39.5004         22.7504
G07  21278792.3054  -20917257.42248 -18117833.50646  21278783.0824         48.5004         40.7504
G08  23555421.4224  -11625055.90347  -9524383.74144  23555414.1334         44.5004         29.7504
G10  23838805.1414   -9351445.70246  -7279487.24244  23838796.7974         40.5004         26.2504
G13  20128283.5394  -27532464.77048 -22428649.79847  20128273.6724         49.0004         43.0004
G16  24794907.1174   -1466487.82146   -840679.32143  24794897.8364         41.0004         23.2504
G19  22917409.1954  -13636230.54646 -10594252.85044  22917400.4414         41.0004         29.0004
G20  24155822.7814   -7792275.24846  -6048902.30243  24155814.4384         39.5004         18.5004
G23  20550115.2274  -26103655.97548 -21145052.57246  20550104.1884         49.5004         39.2504
G28  24351061.4774   -5274214.94646  -4477061.56843  24351053.2504         40.7504         21.2504
> 2010 04 04 02 10 00.0000000  0 11
G03  22051394.2114  -17119532.30646 -14487489.64244  22051385.2234         41.5004         28.5004
G06  23037875.5474   -9350786.45746  -8698758.94943  23037867.4384         37.5004         22.0004
G07  21273280.2424  -20946224.72348 -18140405.40946  21273270.5514         49.7504         41.0004
G08  23543661.7274  -11686853.70147  -9572537.81945  23543654.4964         45.0004         30.7504
G10  23827870.5784   -9408908.88146  -7324263.69944  23827862.5274         41.5004         26.5004
G13  20126193.1414  -27543447.80448 -22437208.00247  20126183.5664         51.0004         42.5004
G16  24815174.1804   -1359983.43446   -757688.88243  24815165.3094         38.5004         20.7504
G19  22905516.7034  -13698729.33746 -10642953.15344  22905506.7194         40.5004         28.2504
G20  24175746.4144   -7687572.59346  -5967315.87643  24175738.2464         36.7504         19.0004
G23  20557800.4454  -26063268.94248 -21113582.17046  20557789.7584         49.7504         38.7504
G28  24332708.6724   -5370658.88346  -4552212.52043  24332701.2074         40.7504         22.0004
> 2010 04 04 02 10 30.0000000  0 11
G03  22049251.1024  -17130793.12647 -14496264.28244  22049242.2304         44.0004         28.0004
G06  23039853.7504   -9340390.73046  -8690658.35644  23039845.8754         36.5004         24.0004
G07  21267797.5704  -20975035.88348 -18162855.64746  21267788.2894         50.2504         41.7504
G08  23531916.4774  -11748574.82547  -9620632.15945  23531909.1294         44.7504         30.5004
G10  23817025.2974   -9465901.70046  -7368673.65644  23817016.9534         41.5004         26.5004
G13  20124185.2894  -27554000.59948 -22445430.95947  20124176.0664         51.5004         43.2504
G16  24835449.4614   -1253434.15946   -674663.42343  24835440.8834         37.0004         20.5004
G19  22893685.8914  -13760899.32946 -10691397.24844  22893675.4384         41.0004         28.7504
G20  24195666.8984   -7582895.36246  -5885749.27343  24195658.3204         38.5004         18.2504
G23  20565572.5474  -26022427.37248 -21081757.57946  20565561.3324         50.0004         39.2504
G28  24314387.7504   -5466931.93146  -4627230.32643  24314381.2234         39.2504         21.7504
> 2010 04 04 02 11 00.0000000  0 11
G03  22047218.6334  -17141476.40947 -14504588.89344  22047209.8204         44.0004         28.0004
G06  23041929.2274   -9329484.16046  -8682159.69343  23041921.1764         39.2504         22.5004
G07  21262344.4774  -21003690.96648 -18185184.26446  21262335.7234         49.5004         41.5004
G08  23520185.2814  -11810219.22547  -9668666.69744  23520178.6374         43.2504         29.7504
G10  23806269.4534   -9522422.58746  -7412715.86944  23806261.1684         40.7504         25.5004
G13  20122259.3914  -27564121.90348 -22453317.67047  20122249.4064         50.5004         42.2504
G16  24855733.7814   -1146842.57345   -591605.09742  24855723.9144         33.7504         17.2504
G19  22881917.4534  -13822737.61746 -10739582.86244  22881908.5824         39.7504         29.2504
G20  24215580.6024   -7478246.25446  -5804204.51843  24215572.1414         39.2504         20.0004
G23  20573430.6334  -25981131.06148 -21049578.63746  20573420.2384         50.0004         38.5004
G28  24296101.5164   -5563032.75246  -4702113.91643  24296094.4024         41.2504         22.7504
> 2010 04 04 02 11 30.0000000  0 11
G03  22045295.8524  -17151581.99147 -14512463.33044  22045286.3954         44.7504         29.2504
G06  23044102.2194   -9318067.23646  -8673263.38444  23044093.8164         37.2504         24.5004
G07  21256921.1564  -21032191.18348 -18207392.21547  21256912.0514         49.7504         42.0004
G08  23508468.8594  -11871788.54547  -9716642.74145  23508461.8634         42.5004         30.0004
G10  23795603.2974   -9578470.67046  -7456389.65144  23795596.1844         40.7504         24.7504
G13  20120415.4454  -27573811.04548 -22460867.65147  20120405.5204         50.5004         43.2504
G16  24876028.4224   -1040211.59145   -508516.17842  24876015.0354         32.2504         14.7504
G19  22870214.7194  -13884242.14846 -10787508.43845  22870204.7934         40.2504         30.0004
G20  24235489.4384   -7373628.95346  -5722684.50642  24235479.8054         39.5004         17.2504
G23  20581375.9844  -25939381.08848 -21017046.21646  20581364.7704         50.0004         38.7504
G28  24277847.2034   -5658960.51947  -4776862.69344  24277839.5044         42.5004         26.0004
> 2010 04 04 02 12 00.0000000  0 11
G03  22043482.9304  -17161107.68947 -14519885.92744  22043473.5314         44.5004         28.5004
G06  23046372.1564   -9306138.80846  -8663968.47143  23046363.6954         39.2504         23.2504
G07  21251527.1024  -21060535.76448 -18229478.88046  21251518.3484         49.2504         41.7504
G08  23496767.5314  -11933281.90747  -9764559.59745  23496761.0634         44.2504         31.2504
G10  23785028.0084   -9634043.73046  -7499693.31144  23785019.8984         40.2504         24.5004
G13  20118654.3754  -27583065.76948 -22468079.11347  20118644.4494         51.0004         42.5004
G16  24896325.5004    -933542.59245   -425397.50142  24896313.6414         34.5004         13.7504
G19  22858574.9694  -13945408.75346 -10835170.66344  22858565.1604         41.5004         29.7504
G20  24255390.0634   -7269044.83746  -5641190.49042  24255381.1334         37.5004         16.7504
G23  20589407.2114  -25897176.44348 -20984159.49046  20589396.1724         50.5004         39.2504
G28  24259626.5864   -5754712.01347  -4851474.11744  24259618.8874         43.0004         26.0004
> 2010 04 04 02 12 30.0000000  0 12
G03  22041781.1254  -17170052.26147 -14526855.68644  22041771.3164         43.2504         28.7504
G05  25737887.789     -643594.978 6                                        37.500
G06  23048739.2584   -9293698.42946  -8654274.63643  23048731.6764         39.2504         22.7504
G07  21246163.3524  -21088724.56948 -18251444.16447  21246154.0124         50.0004         42.0004
G08  23485079.6254  -11994699.78447  -9812417.63545  23485073.0394         43.2504         30.5004
G10  23774544.0314   -9689139.52347  -7542625.08744  23774535.2774         42.5004         24.2504
G13  20116976.1254  -27591884.24948 -22474950.64347  20116966.3754         51.2504         43.0004
G16  24916629.3134    -826837.73746   -342250.88542  24916618.4494         37.5004         16.7504
G19  22847000.5394  -14006234.30646 -10882567.13944  22846990.4384         40.2504         29.7504
G20  24275284.6414   -7164496.37446  -5559724.21142  24275276.5314         37.0004         16.7504
G23  20597524.8134  -25854516.84348 -20950918.25846  20597513.7734         50.0004         38.7504
G28  24241439.0864   -5850285.58747  -4925946.88744  24241432.4414         42.0004         24.2504
> 2010 04 04 02 13 00.0000000  0 12
G03  22040189.9384  -17178411.53747 -14533369.38844  22040181.3594         44.5004         29.5004
G05  25722188.0314    -726098.67946   -542366.86742  25722174.5274         37.5004         16.2504
G06  23051204.0704   -9280743.04846  -8644179.52843  23051196.9574         39.0004         23.7504
G07  21240829.3674  -21116754.97048 -18273286.02046  21240819.8524         51.0004         41.7504
G08  23473407.5474  -12056039.23247  -9860214.57644  23473400.2584         44.0004         29.7504
G10  23764151.6094   -9743753.54447  -7585181.47343  23764143.0314         43.0004         23.2504
G13  20115381.6484  -27600262.11348 -22481478.84247  20115372.3674         50.5004         43.0004
G16  24936941.0234    -720096.46946   -259075.81342  24936930.0434         40.0004         16.2504
G19  22835491.0784  -14066712.95846 -10929693.31244  22835481.8554         41.0004         29.2504
G20  24295173.2424   -7059983.17746  -5478285.35942  24295164.3714         36.5004         15.5004
G23  20605729.9534  -25811399.52248 -20917320.35446  20605719.0904         50.0004         38.5004
G28  24223286.7814   -5945676.45547  -5000277.27943  24223279.3164         42.7504         22.7504
> 2010 04 04 02 13 30.0000000  0 12
G03  22038709.5704  -17186190.09447 -14539430.58044  22038700.4064         43.5004         29.2504
G05  25706546.0864    -808295.66246   -606416.47843  25706535.8094         40.0004         22.5004
G06  23053766.4384   -9267278.36946  -8633687.51143  23053759.2664         38.7504         23.0004
G07  21235524.1644  -21144633.25748 -18295009.33847  21235515.2934         50.0004         42.2504
G08  23461748.6564  -12117306.63347  -9907955.37545  23461741.5434         45.0004         31.5004
G10  23753849.6644   -9797890.01747  -7627365.72844  23753841.2624         42.2504         24.5004
G13  20113870.7424  -27608203.87548 -22487667.21947  20113861.4614         51.5004         42.7504
G16  24957259.0784    -613326.26746   -175878.24042  24957248.0984         40.0004         14.7504
G19  22824047.8754  -14126847.64846 -10976551.46844  22824038.4774         41.5004         29.7504
G20  24315053.4844   -6955513.83646  -5396880.70842  24315045.1994         37.0004         17.2504
G23  20614021.0704  -25767830.17348 -20883370.23146  20614009.9144         50.2504         38.7504
G28  24205168.4454   -6040889.45647  -5074469.09544  24205160.6294         43.2504         24.0004
> 2010 04 04 02 14 00.0000000  0 12
G03  22037340.8204  -17193383.93847 -14545036.13744  22037331.5394         43.0004         27.2504
G05  25690963.1334    -890181.44646   -670223.55543  25690953.3834         38.5004         18.2504
G06  23056425.8364   -9253301.12546  -8622796.13043  23056419.3674         37.5004         23.2504
G07  21230248.4774  -21172356.39348 -18316611.76847  21230238.9614         50.0004         42.0004
G08  23450103.5474  -12178498.98847  -9955637.69945  23450096.8444         43.2504         30.7504
G10  23743639.3914   -9851544.17547  -7669174.16544  23743631.2814         43.0004         25.5004
G13  20112443.3364  -27615705.02148 -22493512.26547  20112433.6454         50.2504         43.5004
G16  24977582.2504    -506526.49246    -92657.66442  24977570.0984         41.2504         13.7504
G19  22812671.0084  -14186632.32046 -11023136.87145  22812661.9024         39.5004         30.0004
G20  24334924.0864   -6851088.14445  -5315510.12542  24334917.1484         35.5004         17.2504
G23  20622398.5944  -25723806.15748 -20849065.81246  20622387.1454         50.0004         39.0004
G28  24187084.1254   -6135919.07147  -5148518.03843  24187076.1914         42.2504         22.2504
> 2010 04 04 02 14 30.0000000  0 12
G03  22036083.3674  -17199993.48147 -14550186.40144  22036073.6174         44.5004         28.5004
G05  25675440.0634    -971753.99346   -733786.49343  25675430.8404         39.7504         22.2504
G06  23059183.4694   -9238811.95646  -8611505.82343  23059175.3594         38.0004         23.2504
G07  21225002.5314  -21199925.54248 -18338094.20746  21224992.7234         50.2504         41.7504
G08  23438473.3364  -12239617.23547 -10003262.25045  23438466.1054         43.5004         31.7504
G10  23733521.3914   -9904715.51746  -7710606.36844  23733513.1054         41.5004         27.0004
G13  20111099.7424  -27622765.05848 -22499013.59047  20111090.0514         51.5004         42.7504
G16  24997910.273     -399700.125 6                                        41.500
G19  22801361.5704  -14246064.78246 -11069447.83044  22801351.3524         38.7504         29.2504
G20  24354787.2194   -6746708.97346  -5234175.69942  24354780.1054         36.0004         16.7504
G23  20630862.1024  -25679328.43948 -20814407.85546  20630850.8284         50.5004         39.0004
G28  24169035.5084   -6230764.62546  -5222423.54843  24169026.6374         40.7504         21.7504
> 2010 04 04 02 15 00.0000000  0 12
G03  22034937.1954  -17206016.66747 -14554879.77944  22034927.0944         43.2504         28.0004
G05  25659976.9534   -1053011.37046   -797103.93843  25659968.6094         39.7504         21.5004
G06  23062038.7424   -9223810.05246  -8599816.02043  23062029.8714         39.0004         22.5004
G07  21219785.8134  -21227339.93248 -18359456.05547  21219776.7074         51.0004         42.0004
G08  23426857.4454  -12300661.25547 -10050828.96945  23426849.9804         43.7504         31.5004
G10  23723495.3284   -9957401.56247  -7751660.40644  23723487.3954         42.0004         26.0004
G13  20109840.6334  -27629381.70348 -22504169.41847  20109831.0004         51.0004         43.0004
G16  25018243.500     -292848.736 6                                        39.250
G19  22790120.0554  -14305141.61846 -11115481.67945  22790109.3674         39.0004         30.0004
G20  24374641.4534   -6642378.51946  -5152879.32842  24374633.6374         36.2504         17.2504
G23  20639412.1174  -25634395.99248 -20779395.58546  20639401.4884         49.7504         38.5004
G28  24151022.3364   -6325423.82646  -5296183.86743  24151012.4694         41.0004         19.0004
> 2010 04 04 02 15 30.0000000  0 12
G03  22033902.5784  -17211452.50646 -14559115.48244  22033893.1214         41.7504         28.7504
G05  25644573.5314   -1133951.26046   -860173.95843  25644564.7774         37.0004         20.0004
G06  23064990.3054   -9208295.31946  -8587726.60143  23064982.2544         38.7504         22.7504
G07  21214597.9924  -21254599.74448 -18380697.45246  21214588.4774         51.5004         41.7504
G08  23415254.9304  -12361631.58347 -10098338.28845  23415247.6994         43.2504         31.5004
G10  23713562.2664  -10009600.75947  -7792335.09944  23713554.3914         42.7504         25.5004
G13  20108666.4064  -27635553.57248 -22508978.66247  20108656.3054         50.0004         42.7504
G16  25038579.984     -185974.699 6                                        40.250
G19  22778946.7034  -14363860.05946 -11161236.27144  22778935.7814         39.5004         29.2504
G20  24394484.2194   -6538099.66046  -5071623.13443  24394477.3404         36.0004         18.2504
G23  20648049.0474  -25589009.39848 -20744029.41446  20648038.1254         49.2504         38.0004
G28  24133045.7734   -6419895.08246  -5369797.73743  24133035.2624         41.5004         21.2504
> 2010 04 04 02 16 00.0000000  0 12
G03  22032980.1564  -17216300.42946 -14562893.06844  22032969.9964         40.5004         28.5004
G05  25629232.5474   -1214571.05046   -922994.60143  25629223.2664         41.2504         22.5004
G06  23068040.9144   -9192268.28046  -8575237.97943  23068031.8094         39.5004         23.0004
G07  21209439.8834  -21281706.18648 -18401819.35347  21209430.8364         49.7504         42.2504
G08  23403666.4924  -12422528.63247 -10145790.49345  23403658.7344         44.5004         31.5004
G10  23703722.3754  -10061312.01247  -7832629.57644  23703713.9144         44.2504         27.0004
G13  20107576.3524  -27641280.04748 -22513440.85147  20107566.7774         49.0004         43.0004
G16  25058921.9144     -79080.03246    240417.86543  25058912.8674         38.7504         19.2504
G19  22767840.6174  -14422217.52246 -11206709.58344  22767830.2814         39.0004         27.5004
G20  24414317.2974   -6433874.84145  -4990409.01442  24414310.2424         34.7504         16.7504
G23  20656772.4304  -25543169.19748 -20708309.79146  20656761.3324         50.5004         38.7504
G28  24115104.0864   -6514177.06746  -5443264.12443  24115094.5124         41.5004         22.2504
> 2010 04 04 02 16 30.0000000  0 12
G03  22032168.5474  -17220559.65447 -14566211.91844  22032160.1454         42.5004         28.7504
G05  25613952.3364   -1294869.01346   -985564.39443  25613943.6414         39.5004         22.0004
G06  23071188.0474   -9175728.67946  -8562349.94243  23071178.9414         37.7504         23.2504
G07  21204311.0394  -21308658.75548 -18422821.32746  21204301.2894         50.0004         41.2504
G08  23392092.0554  -12483352.51047 -10193185.69045  23392084.9414         45.2504         33.0004
G10  23693974.5704  -10112533.64547  -7872542.52244  23693966.8134         44.0004         26.0004
G13  20106571.7344  -27646559.34048 -22517554.56647  20106562.2194         50.0004         43.0004
G16  25079267.2344      27832.94346    323726.69043  25079257.6024         38.5004         19.5004
G19  22756805.2734  -14480210.63446 -11251898.97544  22756793.9414         39.0004         28.0004
G20  24434140.4534   -6329706.65245  -4909239.05842  24434133.3984         35.0004         16.2504
G23  20665581.7894  -25496875.21448 -20672236.56846  20665570.7504         50.5004         38.5004
G28  24097199.3754   -6608267.95147  -5516581.57243  24097190.0354         42.2504         22.5004
> 2010 04 04 02 17 00.0000000  0 12
G03  22031470.7894  -17224229.63347 -14569071.61344  22031462.3284         42.2504         29.0004
G05  25598732.5554   -1374842.74246  -1047881.58244  25598724.9144         41.0004         27.2504
G06  23074432.6804   -9158676.77446  -8549062.71344  23074424.3954         39.0004         24.5004
G07  21199211.3444  -21335458.06748 -18443703.90747  21199202.0634         51.2504         42.0004
G08  23380531.8284  -12544104.00647 -10240524.48445  23380524.1884         45.0004         32.2504
G10  23684320.7814  -10163264.74847  -7912073.26044  23684313.3164         44.5004         26.0004
G13  20105652.1484  -27651390.69748 -22521319.26247  20105643.2194         50.5004         43.2504
G16  25099615.4774     134761.81646    407047.89343  25099605.8444         38.7504         18.2504
G19  22745839.3754  -14537837.16246 -11296802.73944  22745828.1024         39.2504         28.2504
G20  24453951.6644   -6225598.11346  -4828115.54342  24453944.4924         37.5004         16.7504
G23  20674477.2424  -25450127.98748 -20635810.17746  20674466.3204         49.5004         38.0004
G28  24079331.2814   -6702166.46147  -5589749.13444  24079323.1134         42.7504         25.2504
> 2010 04 04 02 17 30.0000000  0 12
G03  22030885.1564  -17227308.90146 -14571471.01144  22030875.9924         40.5004         27.5004
G05  25583576.5784   -1454490.23346  -1109944.56843  25583567.8834         37.5004         19.5004
G06  23077775.0944   -9141112.10346  -8535375.93544  23077766.7504         38.7504         25.0004
G07  21194140.8134  -21362103.68748 -18464466.70347  21194131.3554         50.5004         42.0004
G08  23368984.3754  -12604782.71347 -10287806.56145  23368977.1454         43.7504         32.0004
G10  23674760.8364  -10213503.12447  -7951220.07444  23674752.6684         44.7504         26.5004
G13  20104818.8594  -27655771.59548 -22524732.94047  20104809.5204         50.0004         42.5004
G16  25119965.4924     241704.93145    490380.20943  25119956.2114         35.2504         18.2504
G19  22734943.4534  -14595093.54046 -11341418.05944  22734932.4144         39.5004         27.0004
G20  24473751.8364   -6121550.76946  -4747039.72143  24473744.1954         40.0004         18.2504
G23  20683459.4454  -25402927.26348 -20599030.39846  20683448.1724         50.5004         38.7504
G28  24061499.4064   -6795870.44347  -5662765.11544  24061492.0004         42.7504         26.7504
> 2010 04 04 02 18 00.0000000  0 12
G03  22030411.5554  -17229796.57946 -14573409.44144  22030402.6254         40.2504         28.5004
G05  25568482.6334   -1533808.64146  -1171751.11243  25568473.8794         37.0004         20.5004
G06  23081214.4454   -9123034.79246  -8521289.69644  23081207.0394         38.5004         25.2504
G07  21189099.1644  -21388596.43548 -18485110.38546  21189090.1174         50.2504         41.5004
G08  23357451.3594  -12665389.26747 -10335032.41545  23357443.6604         45.2504         31.2504
G10  23665294.4844  -10263247.66347  -7989982.04844  23665286.8444         44.2504         26.0004
G13  20104070.7114  -27659701.77948 -22527795.41847  20104061.4304         50.5004         42.5004
G16  25140317.4534     348660.17945    573721.90342  25140308.4654         32.0004         17.2504
G19  22724118.3444  -14651977.33246 -11385743.05044  22724107.4224         40.5004         26.5004
G20  24493538.1024   -6017567.67446  -4666013.96542  24493531.3984         36.5004         16.2504
G23  20692527.8444  -25355273.48748 -20561897.59446  20692516.4534         50.2504         38.0004
G28  24043706.4304   -6889378.40947  -5735628.35344  24043698.4964         43.0004         27.0004
> 2010 04 04 02 18 30.0000000  0 12
G03  22030050.2814  -17231692.08246 -14574886.43344  22030041.8794         40.5004         28.5004
G05  25553451.7114   -1612795.56245  -1233299.34843  25553443.6024         35.5004         21.2504
G06  23084752.5864   -9104444.57146  -8506803.75444  23084744.7114         38.7504         24.0004
G07  21184087.1484  -21414935.48648 -18505634.31047  21184077.9264         50.5004         42.0004
G08  23345932.1254  -12725923.77647 -10382202.12545  23345924.0744         44.2504         31.0004
G10  23655922.8594  -10312496.59947  -8028357.83444  23655914.9844         44.2504         25.7504
G13  20103409.4304  -27663179.40148 -22530505.24747  20103399.5044         50.2504         42.2504
G16  25160672.4694     455625.73945    657071.59442  25160664.0084         31.0004         14.7504
G19  22713364.7974  -14708485.05546 -11429774.99844  22713354.6374         39.5004         27.2504
G20  24513313.4774   -5913651.15545  -4585040.16242  24513306.1884         35.7504         15.5004
G23  20701681.9844  -25307166.49148 -20524411.63446  20701671.3554         50.2504         38.7504
G28  24025948.8134   -6982688.22847  -5808337.20144  24025941.3484         42.5004         26.0004
> 2010 04 04 02 19 00.0000000  0 12
G03  22029802.8444  -17232991.60546 -14575899.01544  22029794.3244         39.5004         28.0004
G05  25538485.5864   -1691446.41445  -1294585.70142  25538476.7154         35.7504         17.7504
G06  23088389.1804   -9085338.86746  -8491916.15944  23088380.4844         39.7504         24.2504
G07  21179104.9224  -21441118.48048 -18526036.62546  21179095.4064         51.5004         41.5004
G08  23334427.3984  -12786383.46947 -10429313.53445  23334418.8794         43.5004         32.0004
G10  23646646.5634  -10361245.84447  -8066344.24944  23646638.5124         44.5004         26.2504
G13  20102834.4064  -27666200.19348 -22532859.09747  20102824.5984         50.0004         42.5004
G16  25181026.7584     562602.16444    740429.81142  25181020.2894         28.7504         14.7504
G19  22702684.4454  -14764611.32946 -11473509.71644  22702674.6954         39.2504         28.5004
G20  24533075.1094   -5809800.38745  -4504117.51242  24533067.9384         34.0004         15.5004
G23  20710923.5314  -25258604.14448 -20486570.84646  20710912.4924         50.0004         38.5004
G28  24008231.2114   -7075795.79146  -5880888.40444  24008223.9224         41.7504         24.7504
> 2010 04 04 02 19 30.0000000  0 12
G03  22029667.6174  -17233703.44246 -14576453.68344  22029659.0394         39.5004         29.0004
G05  25523581.2894   -1769767.31446  -1355614.90543  25523572.8874         36.5004         19.5004
G06  23092120.3834   -9065726.75046  -8476633.97444  23092111.9224         40.5004         24.0004
G07  21174150.3444  -21467154.97048 -18546324.78047  21174140.4774         50.7504         42.0004
G08  23322934.3364  -12846777.65247 -10476373.91145  23322926.2854         45.2504         31.7504
G10  23637463.8284  -10409502.84747  -8103947.08644  23637455.3674         44.5004         26.5004
G13  20102345.1954  -27668771.75448 -22534862.91147  20102335.4454         48.0004         43.0004
G16  25201385.7034     669577.88945    823787.46342  25201377.5354         33.2504         17.2504
G19  22692076.2344  -14820362.43746 -11516952.09744  22692065.5474         40.2504         28.0004
G20  24552822.6024   -5706027.76145  -4423255.76342  24552814.5514         35.7504         15.5004
G23  20720249.7034  -25209595.39148 -20448382.22246  20720238.3134         50.2504         39.0004
G28  23990550.5634   -7168708.47547  -5953287.77944  23990542.5124         42.0004         25.2504
> 2010 04 04 02 20 00.0000000  0 12
G03  22029644.8524  -17233818.62046 -14576543.40944  22029637.2114         41.2504         28.0004
G05  25508743.3284   -1847747.93046  -1416378.98143  25508733.1684         38.0004         20.5004
G06  23095950.5784   -9045600.13746  -8460950.86844  23095942.1764         40.0004         24.5004
G07  21169225.1414  -21493036.53948 -18566492.22147  21169216.0944         49.7504         42.2504
G08  23311456.0784  -12907098.77347 -10523377.34845  23311447.3834         44.5004         32.5004
G10  23628375.9144  -10457258.00847  -8141158.89244  23628367.1604         46.0004         26.7504
G13  20101942.5944  -27670884.98148 -22536509.57247  20101932.9614         49.7504         42.7504
G16  25221742.9924     776559.78645    907150.00542  25221735.8204         34.5004         17.2504
G19  22681540.4454  -14875727.02246 -11560093.28444  22681529.7584         40.2504         28.0004
G20  24572556.5234   -5602327.19845  -4342450.17242  24572548.4144         34.5004         17.2504
G23  20729661.8054  -25160132.15148 -20409839.44646  20729650.7074         50.2504         39.0004
G28  23972908.1564   -7261416.34046  -6025527.56944  23972900.9264         40.5004         24.5004
> 2010 04 04 02 20 30.0000000  0 12
G03  22029736.5314  -17233339.22946 -14576169.82944  22029728.7734         39.2504         27.7504
G05  25493968.4064   -1925388.33646  -1476877.98543  25493959.1844         38.5004         21.2504
G06  23099878.3134   -9024961.13246  -8444868.52543  23099869.4414         38.7504         22.7504
G07  21164329.0554  -21518765.48248 -18586540.73047  21164319.1884         50.5004         42.0004
G08  23299990.6804  -12967349.25247 -10570325.74445  23299982.4534         44.0004         31.5004
G10  23619384.0004  -10504511.89047  -8177980.08744  23619374.7774         46.2504         26.7504
G13  20101627.8134  -27672540.60848 -22537799.66647  20101618.4734         48.7504         43.2504
G16  25242101.9694     883543.82845    990514.17043  25242095.0904         35.5004         18.2504
G19  22671078.9694  -14930704.50046 -11602932.82544  22671067.5784         41.0004         28.5004
G20  24592276.0944   -5498703.00545  -4261704.12542  24592267.1054         35.5004         17.7504
G23  20739160.7584  -25110216.83248 -20370944.41046  20739149.3674         50.5004         39.0004
G28  23955304.9224   -7353920.03246  -6097608.25543  23955296.8134         40.0004         22.5004
> 2010 04 04 02 21 00.0000000  0 12
G03  22029941.5704  -17232264.10846 -14575332.04244  22029933.2274         39.5004         27.5004
G05  25479259.1804   -2002686.39646  -1537110.21943  25479251.0124         38.5004         21.5004
G06  23103902.9454   -9003810.29646  -8428387.32743  23103893.8984         38.5004         22.5004
G07  21159461.8674  -21544342.31648 -18606470.70846  21159452.7034         50.0004         41.5004
G08  23288538.8444  -13027529.49347 -10617219.39345  23288530.9104         44.0004         31.0004
G10  23610487.1724  -10551263.90047  -8214410.21144  23610478.1254         45.7504         26.0004
G13  20101400.1254  -27673737.61148 -22538732.38846  20101390.2584         50.0004         41.7504
G16  25262459.3754     990527.08146   1073877.72943  25262453.3164         37.7504         19.7504
G19  22660691.7734  -14985292.53646 -11645468.91144  22660680.4414         40.7504         28.2504
G20  24611980.4064   -5395158.38646  -4181020.03243  24611971.1254         38.5004         20.0004
G23  20748744.8204  -25059850.73148 -20331698.11646  20748734.1334         50.5004         38.0004
G28  23937740.3524   -7446218.32246  -6169528.90243  23937732.4184         39.7504         22.7504
> 2010 04 04 02 21 30.0000000  0 12
G03  22030259.0554  -17230593.19547 -14574030.01344  22030251.2384         42.2504         28.2504
G05  25464615.5944   -2079640.67446  -1597074.60243  25464606.7234         40.0004         22.5004
G06  23108024.5944   -8982148.12746  -8411507.69544  23108016.6604         37.2504         24.0004
G07  21154623.6024  -21569767.33048 -18626282.39347  21154614.2624         49.5004         42.2504
G08  23277100.1094  -13087639.95447 -10664058.68445  23277091.8834         45.0004         32.2504
G10  23601686.2114  -10597512.41947  -8250448.01544  23601677.1644         45.0004         27.0004
G13  20101259.6884  -27674475.09848 -22539307.05247  20101250.4654         50.0004         42.7504
G16  25282817.6484    1097507.23646   1157238.85942  25282811.1214         37.7504         17.7504
G19  22650378.2664  -15039488.49546 -11687699.48744  22650367.0514         40.7504         28.7504
G20  24631667.9534   -5291695.90946  -4100399.93543  24631659.9614         38.7504         19.5004
G23  20758415.0164  -25009033.91148 -20292100.60846  20758403.8014         50.0004         38.7504
G28  23920215.9694   -7538309.70146  -6241288.33444  23920207.6254         41.2504         25.0004
